
$GPVTG,98.01,T,,M,0.13,N,0.24,K,A*09

$GPGGA,120803.000,0018.5764,S,07827.8893,W,1,06,1.23,2495.7,M,13.7,M,,*5C

$GPGGA,120804.000,0018.5763,S,07827.8893,W,1,06,1.23,2496.7,M,13.7,M,,*5F

$GPGSA,A,3,21,18,31,10,25,14,,,,,,,1.56,1.23,0.96*04

$GPGSV,3,1,10,51,56,270,40,21,55,187,36,18,55,041,40,31,55,256,39*75

$GPGSV,3,2,10,25,44,091,41,10,40,003,34,14,19,315,35,12,,,29*46

$GPGGA,120806.000,0018.5761,S,07827.8888,W,1,06,1.23,2496.5,M,13.7,M,,*57

$GPGSA,A,3,21,18,31,10,25,14,,,,,,,1.56,1.23,0.96*04

$GPGSA,A,3,21,18,31,10,25,14,,,,,,,1.56,1.23,0.96*04

$GPRMC,120807.000,A,0018.5761,S,07827.8886,W,0.08,148.91,140417,,,A*6F

$GPRMC,120808.000,A,0018.5760,S,07827.8885,W,0.05,125.70,140417,,,A*6B

$GPVTG,125.70,T,,M,0.05,N,0.10,K,A*38

$GPVTG,170.99,T,,M,0.02,N,0.03,K,A*3A

$GPGGA,120810.000,0018.5761,S,07827.8883,W,1,06,1.23,2493.7,M,13.7,M,,*5C

$GPGSV,3,3,10,12,,,26,04,,,29*70

$GPRMC,120810.000,A,0018.5761,S,07827.8883,W,0.03,103.67,140417,,,A*61

$GPRMC,120811.000,A,0018.5760,S,07827.8881,W,0.03,348.14,140417,,,A*6A

$GPVTG,348.14,T,,M,0.03,N,0.05,K,A*31

$GPVTG,125.50,T,,M,0.11,N,0.20,K,A*3C

$GPGGA,120813.000,0018.5760,S,07827.8879,W,1,06,1.23,2491.5,M,13.7,M,,*5B

$GPGGA,120814.000,0018.5760,S,07827.8879,W,1,06,1.23,2491.1,M,13.7,M,,*58

$GPGSA,A,3,21,18,31,10,25,14,,,,,,,1.56,1.23,0.96*04

$GPGSA,A,3,21,18,31,10,25,14,,,,,,,1.56,1.23,0.96*04

$GPGSV,3,1,10,51,56,270,36,21,55,187,42,18,55,041,41,31,55,256,40*78

$GPVTG,137.69,T,,M,1.14,N,2.12,K,A*32

$GPGGA,120816.000,0018.5764,S,07827.8875,W,1,06,1.23,2491.2,M,13.7,M,,*51

$GPGGA,120817.000,0018.5767,S,07827.8873,W,1,06,1.23,2491.5,M,13.7,M,,*52

$GPGSA,A,3,21,18,31,10,25,14,,,,,,,1.56,1.23,0.96*04

$GPGSA,A,3,21,18,31,10,25,14,,,,,,,1.56,1.23,0.96*04

$GPRMC,120818.000,A,0018.5770,S,07827.8873,W,0.54,181.76,140417,,,A*6E

$GPRMC,120819.000,A,0018.5771,S,07827.8872,W,0.60,158.47,140417,,,A*6E

$GPVTG,158.47,T,,M,0.60,N,1.12,K,A*36

$GPGSV,3,2,10,25,44,091,36,10,40,003,24,14,19,315,27,29,11,144,40*72

$GPGSV,3,3,10,12,,,23,04,,,30*7D

$GPGSA,A,3,21,18,31,10,25,14,,,,,,,1.56,1.23,0.96*04

$GPRMC,120821.000,A,0018.5775,S,07827.8869,W,1.08,140.69,140417,,,A*61

$GPRMC,120822.000,A,0018.5776,S,07827.8868,W,0.84,141.59,140417,,,A*67

$GPVTG,141.59,T,,M,0.84,N,1.56,K,A*3B

$GPVTG,175.87,T,,M,0.46,N,0.85,K,A*3E

$GPGGA,120824.000,0018.5778,S,07827.8870,W,1,06,1.23,2492.7,M,13.7,M,,*5E

$GPGGA,120825.000,0018.5779,S,07827.8871,W,1,06,1.23,2492.8,M,13.7,M,,*50

$GPGSA,A,3,21,18,31,10,25,14,,,,,,,1.56,1.23,0.96*04

$GPRMC,120825.000,A,0018.5779,S,07827.8871,W,0.25,213.25,140417,,,A*63

$GPVTG,213.25,T,,M,0.25,N,0.46,K,A*3F

$GPVTG,241.19,T,,M,0.13,N,0.25,K,A*37

$GPGGA,120827.000,0018.5778,S,07827.8872,W,1,06,1.23,2493.4,M,13.7,M,,*5D

$GPGGA,120828.000,0018.5777,S,07827.8872,W,1,06,1.23,2493.7,M,13.7,M,,*5E

$GPGSA,A,3,21,18,31,10,25,14,,,,,,,1.56,1.23,0.96*04

$GPGSA,A,3,21,18,31,10,25,14,,,,,,,1.56,1.23,0.96*04

$GPRMC,120829.000,A,0018.5777,S,07827.8873,W,0.31,278.35,140417,,,A*6A

$GPGSV,3,1,10,51,56,270,32,21,55,187,31,18,55,041,27,31,55,256,38*77

$GPGSV,3,2,10,25,44,091,31,10,40,003,19,14,19,315,19,29,11,144,20*70

$GPGGA,120831.000,0018.5775,S,07827.8874,W,1,06,1.23,2494.3,M,13.7,M,,*51

$GPGSA,A,3,21,18,31,10,25,14,,,,,,,1.56,1.23,0.96*04

$GPGSA,A,3,21,18,31,10,25,14,,,,,,,1.56,1.23,0.96*04

$GPRMC,120832.000,A,0018.5774,S,07827.8874,W,0.14,312.89,140417,,,A*69

$GPRMC,120833.000,A,0018.5773,S,07827.8874,W,0.17,354.53,140417,,,A*69

$GPVTG,354.53,T,,M,0.17,N,0.31,K,A*3D

$GPVTG,272.47,T,,M,0.10,N,0.18,K,A*31

$GPGGA,120835.000,0018.5773,S,07827.8874,W,1,06,1.23,2494.8,M,13.7,M,,*58

$GPGSV,3,3,10,12,,,27,04,,,18*73

$GPRMC,120835.000,A,0018.5773,S,07827.8874,W,0.22,200.47,140417,,,A*6C

$GPRMC,120836.000,A,0018.5774,S,07827.8875,W,0.28,132.51,140417,,,A*66

$GPVTG,132.51,T,,M,0.28,N,0.52,K,A*34

$GPVTG,138.85,T,,M,0.24,N,0.45,K,A*3D

$GPGGA,120838.000,0018.5775,S,07827.8874,W,1,06,1.23,2494.8,M,13.7,M,,*53

$GPGGA,120839.000,0018.5775,S,07827.8874,W,1,06,1.23,2494.8,M,13.7,M,,*52

$GPGSA,A,3,21,18,31,10,25,14,,,,,,,1.56,1.23,0.96*04

$GPGSA,A,3,21,18,31,10,25,14,,,,,,,1.56,1.23,0.96*04

$GPGSV,3,1,10,51,56,270,39,21,55,187,42,18,55,041,41,31,55,256,41*76

$GPVTG,139.68,T,,M,0.23,N,0.43,K,A*3E

$GPGGA,120841.000,0018.5776,S,07827.8873,W,1,06,1.23,2494.8,M,13.7,M,,*59

$GPGGA,120842.000,0018.5776,S,07827.8873,W,1,06,1.23,2494.8,M,13.7,M,,*5A

$GPGSA,A,3,21,18,31,10,25,14,,,,,,,1.56,1.23,0.96*04

$GPGSA,A,3,21,18,31,10,25,14,,,,,,,1.56,1.23,0.96*04

$GPRMC,120843.000,A,0018.5776,S,07827.8873,W,0.11,75.13,140417,,,A*5E

$GPRMC,120844.000,A,0018.5776,S,07827.8873,W,0.13,204.53,140417,,,A*6B

$GPVTG,204.53,T,,M,0.13,N,0.24,K,A*39

$GPGSV,3,2,10,25,44,091,40,10,40,003,38,14,19,315,16,29,11,144,33*78

$GPGSV,3,3,10,12,,,32,04,,,29*75

$GPGSA,A,3,21,18,31,10,25,14,,,,,,,1.56,1.23,0.96*04

$GPRMC,120846.000,A,0018.5777,S,07827.8873,W,0.18,186.83,140417,,,A*67

$GPRMC,120847.000,A,0018.5778,S,07827.8873,W,0.20,189.69,140417,,,A*69

$GPVTG,189.69,T,,M,0.20,N,0.37,K,A*34

$GPVTG,297.16,T,,M,0.14,N,0.27,K,A*36

$GPGGA,120849.000,0018.5778,S,07827.8873,W,1,06,1.23,2494.9,M,13.7,M,,*5E

$GPGGA,120850.000,0018.5778,S,07827.8873,W,1,06,1.23,2494.9,M,13.7,M,,*56

$GPGSA,A,3,21,18,31,10,25,14,,,,,,,1.56,1.23,0.96*04

$GPRMC,120850.000,A,0018.5778,S,07827.8873,W,0.02,224.85,140417,,,A*69

$GPVTG,224.85,T,,M,0.02,N,0.03,K,A*35

$GPVTG,297.96,T,,M,0.21,N,0.39,K,A*37

$GPGGA,120852.000,0018.5778,S,07827.8874,W,1,06,1.23,2494.9,M,13.7,M,,*53

$GPGGA,120853.000,0018.5778,S,07827.8874,W,1,06,1.23,2494.9,M,13.7,M,,*52

$GPGSA,A,3,21,18,31,10,25,14,,,,,,,1.56,1.23,0.96*04

$GPGSA,A,3,21,18,31,10,25,14,,,,,,,1.56,1.23,0.96*04

$GPRMC,120854.000,A,0018.5778,S,07827.8875,W,0.07,249.87,140417,,,A*67

$GPGSV,3,1,10,51,56,270,42,21,55,187,39,18,55,041,34,31,55,256,43*76

$GPGSV,3,2,10,25,44,091,40,10,41,003,38,14,19,315,19,29,11,144,26*72

$GPGGA,120856.000,0018.5778,S,07827.8875,W,1,06,1.23,2494.9,M,13.7,M,,*56

$GPGSA,A,3,21,18,31,10,25,14,,,,,,,1.56,1.23,0.96*04

$GPGSA,A,3,21,18,31,10,25,14,,,,,,,1.56,1.23,0.96*04

$GPRMC,120857.000,A,0018.5778,S,07827.8875,W,0.05,289.70,140417,,,A*62

$GPRMC,120858.000,A,0018.5778,S,07827.8875,W,0.02,12.54,140417,,,A*5C

$GPVTG,12.54,T,,M,0.02,N,0.04,K,A*09

$GPVTG,146.49,T,,M,0.04,N,0.08,K,A*3F

$GPGGA,120900.000,0018.5778,S,07827.8875,W,1,06,1.23,2494.9,M,13.7,M,,*54

$GPGSV,3,3,10,12,,,35,04,,,27*7C

$GPRMC,120900.000,A,0018.5778,S,07827.8875,W,0.01,99.46,140417,,,A*53

$GPRMC,120901.000,A,0018.5778,S,07827.8875,W,0.04,356.27,140417,,,A*60

$GPVTG,356.27,T,,M,0.04,N,0.07,K,A*3B

$GPVTG,75.23,T,,M,0.08,N,0.14,K,A*03

$GPGGA,120903.000,0018.5777,S,07827.8875,W,1,06,1.23,2494.9,M,13.7,M,,*58

$GPGGA,120904.000,0018.5778,S,07827.8874,W,1,06,1.23,2494.9,M,13.7,M,,*51

$GPGSA,A,3,21,18,31,10,25,14,,,,,,,1.56,1.23,0.96*04

$GPGSA,A,3,21,18,31,10,25,14,,,,,,,1.56,1.23,0.96*04

$GPGSV,3,1,10,51,56,270,33,18,55,042,41,31,55,256,36,21,54,186,34*7E

$GPVTG,179.71,T,,M,0.26,N,0.48,K,A*3C

$GPGGA,120906.000,0018.5779,S,07827.8875,W,1,06,1.23,2494.9,M,13.7,M,,*53

$GPGGA,120907.000,0018.5780,S,07827.8873,W,2,06,1.23,2495.0,M,13.7,M,0000,0000*59

$GPGSA,A,3,21,18,31,10,25,14,,,,,,,1.56,1.23,0.96*04

$GPGSA,A,3,21,18,31,10,25,14,,,,,,,1.56,1.23,0.96*04

$GPRMC,120908.000,A,0018.5780,S,07827.8873,W,0.20,66.68,140417,,,D*50

$GPRMC,120909.000,A,0018.5781,S,07827.8873,W,0.23,153.15,140417,,,D*6E

$GPVTG,153.15,T,,M,0.23,N,0.44,K,D*3A

$GPGSV,3,2,10,25,44,090,37,10,41,003,35,14,19,315,19,29,11,144,36*7F

$GPGSV,3,3,10,12,,,29,04,,,20*76

$GPGSA,A,3,21,18,31,10,25,14,,,,,,,1.56,1.23,0.96*04

$GPRMC,120911.000,A,0018.5783,S,07827.8874,W,0.29,194.73,140417,,,D*63

$GPRMC,120912.000,A,0018.5784,S,07827.8874,W,0.31,189.92,140417,,,D*6D

$GPVTG,189.92,T,,M,0.31,N,0.58,K,D*3C

$GPVTG,223.83,T,,M,0.10,N,0.18,K,D*38

$GPGGA,120914.000,0018.5783,S,07827.8876,W,2,06,1.23,2495.9,M,13.7,M,0000,0000*54

$GPGGA,120915.000,0018.5783,S,07827.8876,W,2,06,1.23,2496.0,M,13.7,M,0000,0000*5F

$GPGSA,A,3,21,18,31,10,25,14,,,,,,,1.56,1.23,0.96*04

$GPRMC,120915.000,A,0018.5783,S,07827.8876,W,0.12,333.73,140417,,,D*62

$GPVTG,333.73,T,,M,0.12,N,0.23,K,D*3D

$GPVTG,235.76,T,,M,0.13,N,0.24,K,D*39

$GPGGA,120917.000,0018.5785,S,07827.8876,W,2,06,1.23,2496.3,M,13.7,M,0000,0000*58

$GPGGA,120918.000,0018.5785,S,07827.8877,W,2,06,1.23,2496.5,M,13.7,M,0000,0000*50

$GPGSA,A,3,21,18,31,10,25,14,,,,,,,1.56,1.23,0.96*04

$GPGSA,A,3,21,18,31,10,25,14,,,,,,,1.56,1.23,0.96*04

$GPRMC,120919.000,A,0018.5784,S,07827.8878,W,0.06,309.64,140417,,,D*6D

$GPGSV,3,1,10,51,56,270,29,18,55,042,40,31,55,257,37,21,54,186,35*75

$GPGSV,3,2,10,25,44,090,35,10,41,003,35,14,19,315,18,29,11,144,34*7E

$GPGGA,120921.000,0018.5784,S,07827.8879,W,2,06,1.23,2497.1,M,13.7,M,0000,0000*50

$GPGSA,A,3,21,18,31,10,25,14,,,,,,,1.56,1.23,0.96*04

$GPGSA,A,3,21,18,31,10,25,,,,,,,,1.78,1.47,0.99*00

$GPRMC,120922.000,A,0018.5785,S,07827.8880,W,0.09,245.55,140417,,,D*67

$GPRMC,120923.000,A,0018.5785,S,07827.8880,W,0.14,227.28,140417,,,D*64

$GPVTG,227.28,T,,M,0.14,N,0.26,K,D*34

$GPVTG,120.11,T,,M,0.30,N,0.56,K,D*3B

$GPGGA,120925.000,0018.5786,S,07827.8879,W,2,07,1.13,2497.6,M,13.7,M,0000,0000*53

$GPGSV,3,3,10,29,11,144,35,04,,,25*47

$GPRMC,120925.000,A,0018.5786,S,07827.8879,W,0.14,248.35,140417,,,D*62

$GPRMC,120926.000,A,0018.5787,S,07827.8880,W,0.35,198.65,140417,,,D*6E

$GPVTG,198.65,T,,M,0.35,N,0.64,K,D*3F

$GPVTG,152.69,T,,M,1.23,N,2.28,K,D*39

$GPGGA,120928.000,0018.5795,S,07827.8875,W,2,07,1.13,2497.6,M,13.7,M,0000,0000*50

$GPGGA,120929.000,0018.5800,S,07827.8872,W,2,07,1.13,2497.6,M,13.7,M,0000,0000*55

$GPGSA,A,3,21,12,18,31,10,25,14,,,,,,1.44,1.13,0.90*01

$GPGSA,A,3,21,12,18,31,10,25,14,,,,,,1.44,1.13,0.90*01

$GPGSV,3,1,10,51,56,270,38,18,55,042,41,31,55,257,42,21,54,186,38*7B

$GPVTG,134.11,T,,M,2.43,N,4.51,K,D*3B

$GPGGA,120931.000,0018.5810,S,07827.8862,W,2,07,1.13,2497.5,M,13.7,M,0000,0000*5F

$GPGGA,120932.000,0018.5812,S,07827.8855,W,2,07,1.13,2497.4,M,13.7,M,0000,0000*5B

$GPGSA,A,3,21,12,18,31,10,25,14,,,,,,1.44,1.13,0.90*01

$GPGSA,A,3,21,12,18,31,10,25,14,,,,,,1.44,1.13,0.90*01

$GPRMC,120933.000,A,0018.5811,S,07827.8845,W,3.44,72.98,140417,,,D*51

$GPRMC,120934.000,A,0018.5809,S,07827.8835,W,3.59,75.47,140417,,,D*51

$GPVTG,75.47,T,,M,3.59,N,6.65,K,D*03

$GPGSV,3,2,10,25,44,090,26,10,41,003,41,14,19,316,31,12,12,058,32*76

$GPGSV,3,3,10,29,11,144,25,04,,,29*4A

$GPGSA,A,3,21,12,18,31,10,25,14,,,,,,2.38,1.26,2.02*06

$GPRMC,120936.000,A,0018.5805,S,07827.8812,W,4.26,73.12,140417,,,D*53

$GPRMC,120937.000,A,0018.5802,S,07827.8799,W,4.70,72.23,140417,,,D*59

$GPVTG,72.23,T,,M,4.70,N,8.70,K,D*00

$GPVTG,64.84,T,,M,4.79,N,8.87,K,D*0B

$GPGGA,120939.000,0018.5791,S,07827.8775,W,2,07,1.26,2493.3,M,13.7,M,0000,0000*5C

$GPGGA,120940.000,0018.5782,S,07827.8769,W,2,07,1.26,2493.2,M,13.7,M,0000,0000*5C

$GPGSA,A,3,21,12,18,31,10,25,14,,,,,,2.38,1.26,2.02*06

$GPRMC,120940.000,A,0018.5782,S,07827.8769,W,4.18,13.03,140417,,,D*5A

$GPVTG,13.03,T,,M,4.18,N,7.75,K,D*01

$GPVTG,328.89,T,,M,3.94,N,7.29,K,D*32

$GPGGA,120942.000,0018.5766,S,07827.8778,W,2,07,1.26,2492.5,M,13.7,M,0000,0000*52

$GPGGA,120943.000,0018.5766,S,07827.8789,W,2,07,1.13,2492.4,M,13.7,M,0000,0000*5A

$GPGSA,A,3,21,12,18,31,10,25,14,,,,,,1.44,1.13,0.90*01

$GPGSA,A,3,21,12,18,31,10,25,14,,,,,,2.38,1.26,2.02*06

$GPRMC,120944.000,A,0018.5772,S,07827.8798,W,3.95,226.96,140417,,,D*65

$GPGSV,3,1,11,18,56,042,39,51,56,270,38,31,55,257,41,21,54,186,30*7D

$GPGSV,3,2,11,25,44,090,39,10,41,003,41,32,22,339,,14,19,316,30*7C

$GPGGA,120946.000,0018.5792,S,07827.8811,W,2,07,1.26,2491.9,M,13.7,M,0000,0000*52

$GPGSA,A,3,21,12,18,31,10,25,14,,,,,,2.38,1.26,2.02*06

$GPGSA,A,3,21,12,18,31,10,25,14,,,,,,2.38,1.26,2.02*06

$GPRMC,120947.000,A,0018.5802,S,07827.8817,W,4.22,216.95,140417,,,D*6D

$GPRMC,120948.000,A,0018.5811,S,07827.8825,W,4.38,231.42,140417,,,D*65

$GPVTG,231.42,T,,M,4.38,N,8.11,K,D*39

$GPVTG,249.62,T,,M,4.37,N,8.10,K,D*3A

$GPGGA,120950.000,0018.5821,S,07827.8846,W,2,07,1.25,2490.9,M,13.7,M,0000,0000*52

$GPGSV,3,3,11,12,12,058,40,29,11,144,33,04,,,36*7B

$GPRMC,120950.000,A,0018.5821,S,07827.8846,W,3.95,256.17,140417,,,D*6B

$GPRMC,120951.000,A,0018.5823,S,07827.8856,W,3.80,255.09,140417,,,D*61

$GPVTG,255.09,T,,M,3.80,N,7.05,K,D*3A

$GPVTG,251.02,T,,M,3.51,N,6.50,K,D*38

$GPGGA,120953.000,0018.5828,S,07827.8875,W,2,07,1.13,2490.4,M,13.7,M,0000,0000*50

$GPGGA,120954.000,0018.5828,S,07827.8885,W,2,07,1.13,2490.3,M,13.7,M,0000,0000*5F

$GPGSA,A,3,21,12,18,31,10,25,14,,,,,,1.44,1.13,0.90*01

$GPGSA,A,3,21,12,18,31,10,25,14,,,,,,1.44,1.13,0.90*01

$GPGSV,3,1,11,18,56,042,41,31,56,258,41,51,56,270,39,21,54,186,36*79

$GPVTG,269.78,T,,M,3.98,N,7.38,K,D*34

$GPGGA,120956.000,0018.5828,S,07827.8908,W,2,07,1.26,2490.2,M,13.7,M,0000,0000*5E

$GPGGA,120957.000,0018.5827,S,07827.8920,W,2,07,1.26,2490.1,M,13.7,M,0000,0000*59

$GPGSA,A,3,21,12,18,31,10,25,14,,,,,,2.38,1.26,2.02*06

$GPRMC,120958.000,A,0018.5823,S,07827.8933,W,4.59,291.91,140417,,,D*60

$GPVTG,291.91,T,,M,4.59,N,8.51,K,D*3E

$GPVTG,301.17,T,,M,4.72,N,8.74,K,D*36

$GPGGA,121000.000,0018.5811,S,07827.8956,W,2,07,1.26,2490.0,M,13.7,M,0000,0000*56

$GPGSV,3,3,11,12,12,058,32,29,11,144,34,04,,,39*76

$GPRMC,121000.000,A,0018.5811,S,07827.8956,W,4.64,292.13,140417,,,D*60

$GPRMC,121001.000,A,0018.5807,S,07827.8969,W,4.72,283.16,140417,,,D*68

$GPVTG,283.16,T,,M,4.72,N,8.74,K,D*3C

$GPVTG,283.69,T,,M,4.66,N,8.64,K,D*30

$GPGGA,121003.000,0018.5800,S,07827.8994,W,2,07,1.26,2490.0,M,13.7,M,0000,0000*5B

$GPGGA,121004.000,0018.5795,S,07827.9005,W,2,07,1.26,2490.0,M,13.7,M,0000,0000*5F

$GPGSA,A,3,21,12,18,31,10,25,14,,,,,,2.37,1.26,2.02*09

$GPGSA,A,3,21,12,18,31,10,25,14,,,,,,2.38,1.26,2.02*06

$GPGSV,3,1,10,18,56,042,40,31,56,258,41,51,56,270,37,21,54,186,41*77

$GPVTG,297.31,T,,M,3.97,N,7.36,K,D*39

$GPGGA,121006.000,0018.5784,S,07827.9025,W,2,07,1.25,2490.4,M,13.7,M,0000,0000*58

$GPGGA,121007.000,0018.5779,S,07827.9034,W,2,07,1.13,2490.5,M,13.7,M,0000,0000*5F

$GPGSA,A,3,21,12,18,31,10,25,14,,,,,,1.44,1.13,0.90*01

$GPGSA,A,3,21,12,18,31,10,25,14,,,,,,1.44,1.13,0.90*01

$GPRMC,121008.000,A,0018.5773,S,07827.9043,W,3.76,303.09,140417,,,D*69

$GPRMC,121009.000,A,0018.5766,S,07827.9052,W,4.09,306.00,140417,,,D*6F

$GPVTG,306.00,T,,M,4.09,N,7.58,K,D*3A

$GPGSV,3,2,10,25,44,090,39,10,41,003,38,32,22,339,32,14,19,316,28*7B

$GPGSV,3,3,10,12,12,058,30,29,11,144,36*79

$GPGSA,A,3,21,12,18,31,10,25,14,,,,,,1.44,1.13,0.90*01

$GPRMC,121011.000,A,0018.5754,S,07827.9069,W,3.75,297.94,140417,,,D*67

$GPRMC,121012.000,A,0018.5750,S,07827.9078,W,3.70,294.47,140417,,,D*68

$GPVTG,294.47,T,,M,3.70,N,6.86,K,D*38

$GPVTG,294.22,T,,M,3.61,N,6.69,K,D*3A

$GPGGA,121014.000,0018.5741,S,07827.9096,W,2,07,1.13,2491.2,M,13.7,M,0000,0000*58

$GPGGA,121015.000,0018.5737,S,07827.9106,W,2,07,1.13,2491.2,M,13.7,M,0000,0000*50

$GPGSA,A,3,21,12,18,31,10,25,14,,,,,,1.44,1.13,0.90*01

$GPRMC,121015.000,A,0018.5737,S,07827.9106,W,3.72,285.00,140417,,,D*67

$GPVTG,285.00,T,,M,3.72,N,6.89,K,D*36

$GPVTG,288.68,T,,M,3.81,N,7.05,K,D*3C

$GPGGA,121017.000,0018.5730,S,07827.9125,W,2,07,1.13,2491.1,M,13.7,M,0000,0000*57

$GPGGA,121018.000,0018.5725,S,07827.9133,W,2,07,1.13,2491.0,M,13.7,M,0000,0000*5A

$GPGSA,A,3,21,12,18,31,10,25,14,,,,,,1.44,1.13,0.90*01

$GPGSA,A,3,21,12,18,31,10,25,14,,,,,,1.44,1.13,0.90*01

$GPRMC,121019.000,A,0018.5721,S,07827.9142,W,3.60,291.93,140417,,,D*60

$GPGSV,3,1,11,18,56,043,39,31,56,258,41,51,56,270,38,21,54,186,41*76

$GPGSV,3,2,11,25,44,089,39,10,41,003,38,32,22,339,22,14,19,316,27*7C

$GPGGA,121021.000,0018.5717,S,07827.9162,W,2,07,1.13,2491.0,M,13.7,M,0000,0000*55

$GPGSA,A,3,21,12,18,31,10,25,14,,,,,,1.44,1.13,0.90*01

$GPGSA,A,3,21,12,18,31,10,25,14,,,,,,1.44,1.13,0.90*01

$GPRMC,121022.000,A,0018.5714,S,07827.9172,W,3.52,293.90,140417,,,D*6D

$GPRMC,121023.000,A,0018.5710,S,07827.9180,W,3.65,299.92,140417,,,D*69

$GPVTG,299.92,T,,M,3.65,N,6.77,K,D*37

$GPVTG,290.46,T,,M,3.61,N,6.70,K,D*34

$GPGGA,121025.000,0018.5702,S,07827.9199,W,2,07,1.13,2491.0,M,13.7,M,0000,0000*51

$GPGSV,3,3,11,12,12,058,36,29,11,143,37,20,,,34*7D

$GPRMC,121025.000,A,0018.5702,S,07827.9199,W,3.57,281.07,140417,,,D*60

$GPRMC,121026.000,A,0018.5701,S,07827.9209,W,3.47,281.47,140417,,,D*6F

$GPVTG,281.47,T,,M,3.47,N,6.43,K,D*31

$GPVTG,292.35,T,,M,3.35,N,6.20,K,D*36

$GPGGA,121028.000,0018.5694,S,07827.9227,W,2,07,1.13,2491.4,M,13.7,M,0000,0000*50

$GPGGA,121029.000,0018.5690,S,07827.9236,W,2,07,1.13,2491.5,M,13.7,M,0000,0000*54

$GPGSA,A,3,21,12,18,31,10,25,14,,,,,,1.44,1.13,0.90*01

$GPGSA,A,3,21,12,18,31,10,25,14,,,,,,1.44,1.13,0.90*01

$GPGSV,3,1,11,18,56,043,38,31,56,258,40,51,56,270,38,21,54,186,41*76

$GPVTG,287.57,T,,M,3.35,N,6.20,K,D*36

$GPGGA,121031.000,0018.5683,S,07827.9253,W,2,07,1.13,2491.9,M,13.7,M,0000,0000*50

$GPGGA,121032.000,0018.5681,S,07827.9262,W,2,07,1.13,2492.2,M,13.7,M,0000,0000*5B

$GPGSA,A,3,21,12,18,31,10,25,14,,,,,,1.44,1.13,0.90*01

$GPGSA,A,3,21,12,18,31,10,25,14,,,,,,1.44,1.13,0.90*01

$GPRMC,121033.000,A,0018.5678,S,07827.9271,W,3.39,286.33,140417,,,D*66

$GPRMC,121034.000,A,0018.5675,S,07827.9279,W,3.08,287.40,140417,,,D*63

$GPVTG,287.40,T,,M,3.08,N,5.71,K,D*39

$GPGSV,3,2,11,25,44,089,42,10,41,003,37,32,22,339,34,14,19,316,27*78

$GPGSV,3,3,11,12,12,058,29,29,11,143,31,20,,,32*73

$GPGSA,A,3,21,12,18,31,10,25,14,,,,,,1.44,1.13,0.90*01

$GPRMC,121036.000,A,0018.5669,S,07827.9296,W,3.14,291.79,140417,,,D*6D

$GPRMC,121037.000,A,0018.5665,S,07827.9304,W,2.90,300.50,140417,,,D*65

$GPVTG,300.50,T,,M,2.90,N,5.38,K,D*3B

$GPVTG,301.56,T,,M,2.83,N,5.24,K,D*33

$GPGGA,121039.000,0018.5657,S,07827.9318,W,2,07,1.13,2492.8,M,13.7,M,0000,0000*5D

$GPGGA,121040.000,0018.5653,S,07827.9325,W,2,07,1.13,2492.9,M,13.7,M,0000,0000*58

$GPGSA,A,3,21,12,18,31,10,25,14,,,,,,1.44,1.13,0.90*01

$GPRMC,121040.000,A,0018.5653,S,07827.9325,W,2.74,307.11,140417,,,D*6B

$GPVTG,307.11,T,,M,2.74,N,5.07,K,D*3F

$GPVTG,322.92,T,,M,2.84,N,5.26,K,D*3F

$GPGGA,121042.000,0018.5641,S,07827.9334,W,2,07,1.13,2493.0,M,13.7,M,0000,0000*51

$GPGGA,121043.000,0018.5634,S,07827.9339,W,2,07,1.13,2493.1,M,13.7,M,0000,0000*5E

$GPGSA,A,3,21,12,18,31,10,25,14,,,,,,1.44,1.13,0.89*09

$GPGSA,A,3,21,12,18,31,10,25,14,,,,,,1.44,1.13,0.89*09

$GPRMC,121044.000,A,0018.5628,S,07827.9345,W,3.14,310.21,140417,,,D*67

$GPGSV,3,1,11,18,56,043,38,31,56,258,41,51,56,270,37,21,54,186,42*7B

$GPGSV,3,2,11,25,44,089,39,10,41,004,38,32,22,339,25,14,19,316,19*71

$GPGGA,121046.000,0018.5619,S,07827.9359,W,2,07,1.13,2493.5,M,13.7,M,0000,0000*56

$GPGSA,A,3,21,12,18,31,10,25,14,,,,,,1.44,1.13,0.89*09

$GPGSA,A,3,21,12,18,31,10,25,14,,,,,,1.44,1.13,0.89*09

$GPRMC,121047.000,A,0018.5616,S,07827.9366,W,2.78,292.13,140417,,,D*69

$GPRMC,121048.000,A,0018.5614,S,07827.9373,W,2.56,280.25,140417,,,D*6A

$GPVTG,280.25,T,,M,2.56,N,4.74,K,D*33

$GPVTG,267.93,T,,M,2.66,N,4.94,K,D*3A

$GPGGA,121050.000,0018.5614,S,07827.9387,W,2,07,1.13,2493.9,M,13.7,M,0000,0000*53

$GPGSV,3,3,11,12,12,057,29,29,11,143,38,20,,,34*73

$GPRMC,121050.000,A,0018.5614,S,07827.9387,W,2.38,263.53,140417,,,D*6C

$GPRMC,121051.000,A,0018.5614,S,07827.9394,W,2.71,276.25,140417,,,D*67

$GPVTG,276.25,T,,M,2.71,N,5.02,K,D*3F

$GPVTG,292.43,T,,M,2.67,N,4.95,K,D*3D

$GPGGA,121053.000,0018.5609,S,07827.9408,W,2,07,1.13,2494.2,M,13.7,M,0000,0000*50

$GPGGA,121054.000,0018.5605,S,07827.9414,W,2,07,1.13,2494.3,M,13.7,M,0000,0000*57

$GPGSA,A,3,21,12,18,31,10,25,14,,,,,,1.44,1.13,0.89*09

$GPGSA,A,3,21,12,18,31,10,25,14,,,,,,1.44,1.13,0.89*09

$GPGSV,3,1,11,18,56,043,36,31,56,258,40,51,56,270,38,21,53,186,42*7C

$GPVTG,309.95,T,,M,2.81,N,5.21,K,D*33

$GPGGA,121056.000,0018.5596,S,07827.9426,W,2,07,1.13,2494.4,M,13.7,M,0000,0000*5A

$GPGGA,121057.000,0018.5595,S,07827.9433,W,2,07,1.13,2494.4,M,13.7,M,0000,0000*5C

$GPGSA,A,3,21,12,18,31,10,25,14,,,,,,1.44,1.13,0.89*09

$GPGSA,A,3,21,12,18,31,10,25,14,,,,,,1.44,1.13,0.89*09

$GPRMC,121058.000,A,0018.5598,S,07827.9439,W,2.42,230.23,140417,,,D*6D

$GPRMC,121059.000,A,0018.5604,S,07827.9442,W,2.57,184.40,140417,,,D*6B

$GPVTG,184.40,T,,M,2.57,N,4.77,K,D*35

$GPGSV,3,2,11,25,44,089,39,10,41,004,40,32,22,339,35,14,19,316,39*7D

$GPGSV,3,3,11,12,12,057,21,29,11,143,33,20,,,25*70

$GPGSA,A,3,21,12,20,18,31,10,25,14,,,,,1.30,0.99,0.84*06

$GPRMC,121101.000,A,0018.5618,S,07827.9435,W,3.16,123.21,140417,,,D*64

$GPRMC,121102.000,A,0018.5621,S,07827.9426,W,3.35,99.85,140417,,,D*50

$GPVTG,99.85,T,,M,3.35,N,6.20,K,D*04

$GPVTG,97.41,T,,M,3.57,N,6.62,K,D*00

$GPGGA,121104.000,0018.5625,S,07827.9407,W,2,08,0.99,2494.5,M,13.7,M,0000,0000*59

$GPGGA,121105.000,0018.5629,S,07827.9397,W,2,08,0.99,2494.5,M,13.7,M,0000,0000*5A

$GPGSA,A,3,21,12,20,18,31,10,25,14,,,,,1.30,0.99,0.84*06

$GPRMC,121105.000,A,0018.5629,S,07827.9397,W,4.01,116.48,140417,,,D*65

$GPVTG,116.48,T,,M,4.01,N,7.44,K,D*30

$GPVTG,122.24,T,,M,3.88,N,7.19,K,D*33

$GPGGA,121107.000,0018.5641,S,07827.9378,W,2,08,0.99,2494.5,M,13.7,M,0000,0000*57

$GPGGA,121108.000,0018.5645,S,07827.9370,W,2,08,0.99,2494.5,M,13.7,M,0000,0000*54

$GPGSA,A,3,21,12,20,18,31,10,25,14,,,,,1.30,0.99,0.84*06

$GPGSA,A,3,21,12,20,18,31,10,25,14,,,,,1.30,0.99,0.84*06

$GPRMC,121109.000,A,0018.5650,S,07827.9361,W,3.24,117.81,140417,,,D*6A

$GPGSV,3,1,11,18,56,043,39,31,56,259,42,51,56,270,33,21,53,186,40*79

$GPGSV,3,2,11,25,44,089,37,10,41,004,40,32,22,339,34,14,19,316,33*78

$GPGGA,121111.000,0018.5659,S,07827.9347,W,2,08,0.99,2495.3,M,13.7,M,0000,0000*52

$GPGSA,A,3,21,12,20,18,31,10,25,14,,,,,1.30,0.99,0.84*06

$GPGSA,A,3,21,12,20,18,31,10,25,14,,,,,1.30,0.99,0.84*06

$GPRMC,121112.000,A,0018.5663,S,07827.9341,W,2.79,116.09,140417,,,D*6A

$GPRMC,121113.000,A,0018.5666,S,07827.9333,W,2.96,110.86,140417,,,D*6B

$GPVTG,110.86,T,,M,2.96,N,5.48,K,D*32

$GPVTG,115.28,T,,M,2.75,N,5.09,K,D*3B

$GPGGA,121115.000,0018.5674,S,07827.9319,W,2,08,0.99,2496.5,M,13.7,M,0000,0000*57

$GPGSV,3,3,11,20,16,125,28,12,12,057,33,29,11,143,24*49

$GPRMC,121115.000,A,0018.5674,S,07827.9319,W,2.91,119.52,140417,,,D*61

$GPRMC,121116.000,A,0018.5678,S,07827.9312,W,3.00,107.46,140417,,,D*66

$GPVTG,107.46,T,,M,3.00,N,5.56,K,D*39

$GPVTG,80.72,T,,M,3.01,N,5.58,K,D*0F

$GPGGA,121118.000,0018.5676,S,07827.9297,W,2,08,0.99,2496.8,M,13.7,M,0000,0000*52

$GPGGA,121119.000,0018.5671,S,07827.9292,W,2,08,0.99,2496.9,M,13.7,M,0000,0000*50

$GPGSA,A,3,21,12,20,18,31,10,25,14,,,,,1.30,0.99,0.84*06

$GPGSA,A,3,21,12,20,18,31,10,25,14,,,,,1.30,0.99,0.84*06

$GPGSV,3,1,11,18,56,043,39,31,56,259,42,51,56,270,40,21,53,186,41*7C

$GPVTG,353.97,T,,M,2.28,N,4.23,K,D*3E

$GPGGA,121121.000,0018.5660,S,07827.9293,W,2,08,1.03,2497.1,M,13.7,M,0000,0000*51

$GPGGA,121122.000,0018.5657,S,07827.9299,W,2,08,0.99,2497.2,M,13.7,M,0000,0000*5D

$GPGSA,A,3,21,12,20,18,31,10,25,14,,,,,1.30,0.99,0.84*06

$GPGSA,A,3,21,12,20,18,31,10,25,14,,,,,1.30,0.99,0.84*06

$GPRMC,121123.000,A,0018.5656,S,07827.9305,W,2.42,281.48,140417,,,D*6E

$GPRMC,121124.000,A,0018.5654,S,07827.9313,W,2.72,279.94,140417,,,D*69

$GPVTG,279.94,T,,M,2.72,N,5.04,K,D*3F

$GPGSV,3,2,11,25,44,089,39,10,42,004,39,32,22,339,29,14,19,316,29*7C

$GPGSV,3,3,11,20,16,125,34,12,11,057,30,29,11,143,24*44

$GPGSA,A,3,21,12,20,18,31,10,25,14,,,,,1.30,0.99,0.84*06

$GPRMC,121126.000,A,0018.5654,S,07827.9329,W,3.13,263.88,140417,,,D*62

$GPRMC,121127.000,A,0018.5654,S,07827.9338,W,3.35,279.63,140417,,,D*69

$GPVTG,279.63,T,,M,3.35,N,6.20,K,D*30

$GPVTG,295.78,T,,M,3.66,N,6.77,K,D*3C

$GPGGA,121129.000,0018.5645,S,07827.9357,W,2,08,0.99,2498.2,M,13.7,M,0000,0000*59

$GPGGA,121130.000,0018.5641,S,07827.9367,W,2,08,0.99,2498.3,M,13.7,M,0000,0000*57

$GPGSA,A,3,21,12,20,18,31,10,25,14,,,,,1.30,0.99,0.84*06

$GPRMC,121130.000,A,0018.5641,S,07827.9367,W,3.92,288.83,140417,,,D*6C

$GPVTG,288.83,T,,M,3.92,N,7.26,K,D*3A

$GPVTG,291.39,T,,M,3.93,N,7.29,K,D*3D

$GPGGA,121132.000,0018.5633,S,07827.9388,W,2,08,1.03,2498.4,M,13.7,M,0000,0000*54

$GPGGA,121133.000,0018.5628,S,07827.9398,W,2,08,1.03,2498.6,M,13.7,M,0000,0000*5C

$GPGSA,A,3,21,12,20,18,31,10,25,14,,,,,1.87,1.03,1.56*06

$GPGSA,A,3,21,12,20,18,31,10,25,14,,,,,1.87,1.03,1.56*06

$GPRMC,121134.000,A,0018.5624,S,07827.9409,W,4.28,289.52,140417,,,D*6F

$GPGSV,3,1,11,18,56,044,38,31,56,259,40,51,56,270,38,21,53,185,40*75

$GPGSV,3,2,11,25,44,088,39,10,42,004,37,32,22,339,37,14,19,316,28*7D

$GPGGA,121136.000,0018.5615,S,07827.9430,W,2,08,1.02,2498.4,M,13.7,M,0000,0000*51

$GPGSA,A,3,21,12,20,18,31,10,25,14,,,,,1.87,1.02,1.56*07

$GPGSA,A,3,21,12,20,18,31,10,25,14,,,,,1.30,0.99,0.84*06

$GPRMC,121137.000,A,0018.5611,S,07827.9440,W,3.85,286.66,140417,,,D*6F

$GPRMC,121138.000,A,0018.5608,S,07827.9451,W,3.90,285.83,140417,,,D*64

$GPVTG,285.83,T,,M,3.90,N,7.22,K,D*31

$GPVTG,287.35,T,,M,3.91,N,7.24,K,D*39

$GPGGA,121140.000,0018.5601,S,07827.9472,W,2,08,1.03,2498.2,M,13.7,M,0000,0000*54

$GPGSV,3,3,11,20,16,125,32,12,11,057,37,29,11,143,30*40

$GPRMC,121140.000,A,0018.5601,S,07827.9472,W,4.03,289.65,140417,,,D*6A

$GPRMC,121141.000,A,0018.5596,S,07827.9482,W,3.98,293.84,140417,,,D*68

$GPVTG,293.84,T,,M,3.98,N,7.38,K,D*32

$GPVTG,296.63,T,,M,3.87,N,7.16,K,D*3C

$GPGGA,121143.000,0018.5587,S,07827.9501,W,2,08,0.99,2498.1,M,13.7,M,0000,0000*5E

$GPGGA,121144.000,0018.5582,S,07827.9511,W,2,08,0.99,2498.0,M,13.7,M,0000,0000*5C

$GPGSA,A,3,21,12,20,18,31,10,25,14,,,,,1.30,0.99,0.84*06

$GPGSA,A,3,21,12,20,18,31,10,25,14,,,,,1.30,0.99,0.84*06

$GPGSV,3,1,11,18,56,044,38,31,56,259,42,51,56,270,39,21,53,185,40*76

$GPVTG,306.16,T,,M,3.85,N,7.13,K,D*31

$GPGGA,121146.000,0018.5570,S,07827.9528,W,2,08,0.99,2497.9,M,13.7,M,0000,0000*5F

$GPGGA,121147.000,0018.5564,S,07827.9539,W,2,08,1.03,2498.0,M,13.7,M,0000,0000*5F

$GPGSA,A,3,21,12,20,18,31,10,25,14,,,,,1.86,1.03,1.56*07

$GPGSA,A,3,21,12,20,18,31,10,25,14,,,,,1.86,1.03,1.56*07

$GPRMC,121148.000,A,0018.5558,S,07827.9551,W,4.80,291.72,140417,,,D*69

$GPRMC,121149.000,A,0018.5554,S,07827.9564,W,5.05,285.46,140417,,,D*6C

$GPVTG,285.46,T,,M,5.05,N,9.35,K,D*3A

$GPGSV,3,2,11,25,44,088,40,10,42,004,38,32,22,340,34,14,19,316,27*7E

$GPGSV,3,3,11,20,16,125,34,12,11,057,31,29,11,143,36*46

$GPGSA,A,3,21,12,20,18,31,10,25,14,,,,,1.86,1.03,1.56*07

$GPRMC,121151.000,A,0018.5545,S,07827.9591,W,5.19,291.46,140417,,,D*67

$GPRMC,121152.000,A,0018.5539,S,07827.9605,W,5.16,291.34,140417,,,D*6B

$GPVTG,291.34,T,,M,5.16,N,9.57,K,D*3C

$GPVTG,291.93,T,,M,5.11,N,9.47,K,D*37

$GPGGA,121154.000,0018.5528,S,07827.9631,W,2,08,1.03,2497.7,M,13.7,M,0000,0000*56

$GPGGA,121155.000,0018.5523,S,07827.9645,W,2,08,1.02,2497.6,M,13.7,M,0000,0000*5F

$GPGSA,A,3,21,12,20,18,31,10,25,14,,,,,1.86,1.02,1.56*06

$GPRMC,121155.000,A,0018.5523,S,07827.9645,W,5.20,290.15,140417,,,D*64

$GPVTG,290.15,T,,M,5.20,N,9.64,K,D*3B

$GPVTG,290.24,T,,M,5.27,N,9.77,K,D*3C

$GPGGA,121157.000,0018.5512,S,07827.9672,W,2,08,1.03,2497.8,M,13.7,M,0000,0000*54

$GPGGA,121158.000,0018.5507,S,07827.9686,W,2,08,1.02,2497.7,M,13.7,M,0000,0000*5A

$GPGSA,A,3,21,12,20,18,31,10,25,14,,,,,1.86,1.02,1.56*06

$GPGSA,A,3,21,12,20,18,31,10,25,14,,,,,1.86,1.02,1.55*05

$GPRMC,121159.000,A,0018.5501,S,07827.9700,W,5.67,293.01,140417,,,D*6D

$GPGSV,3,1,11,18,56,044,39,31,56,259,41,51,56,270,38,21,53,185,41*74

$GPGSV,3,2,11,25,44,088,41,10,42,004,37,32,22,340,34,14,19,317,29*7F

$GPGGA,121201.000,0018.5488,S,07827.9729,W,2,08,1.02,2498.0,M,13.7,M,0000,0000*5F

$GPGSA,A,3,21,12,20,18,31,10,25,14,,,,,1.86,1.02,1.55*05

$GPGSA,A,3,21,12,20,18,31,10,25,14,,,,,1.86,1.02,1.55*05

$GPRMC,121202.000,A,0018.5481,S,07827.9743,W,5.74,296.00,140417,,,D*68

$GPRMC,121203.000,A,0018.5474,S,07827.9758,W,5.79,294.55,140417,,,D*66

$GPVTG,294.55,T,,M,5.79,N,10.74,K,D*0E

$GPVTG,295.37,T,,M,5.80,N,10.75,K,D*0C

$GPGGA,121205.000,0018.5460,S,07827.9787,W,2,08,1.02,2497.9,M,13.7,M,0000,0000*5F

$GPGSV,3,3,11,20,16,125,33,12,11,057,24,29,11,143,39*4A

$GPRMC,121205.000,A,0018.5460,S,07827.9787,W,5.88,296.08,140417,,,D*63

$GPRMC,121206.000,A,0018.5452,S,07827.9802,W,6.01,296.91,140417,,,D*61

$GPVTG,296.91,T,,M,6.01,N,11.14,K,D*0F

$GPVTG,296.05,T,,M,6.01,N,11.14,K,D*02

$GPGGA,121208.000,0018.5438,S,07827.9832,W,2,08,1.02,2497.9,M,13.7,M,0000,0000*5E

$GPGGA,121209.000,0018.5431,S,07827.9848,W,2,08,1.02,2497.8,M,13.7,M,0000,0000*5A

$GPGSA,A,3,21,12,20,18,31,10,25,14,,,,,1.86,1.02,1.55*05

$GPGSA,A,3,21,12,20,18,31,10,25,14,,,,,1.86,1.02,1.55*05

$GPGSV,3,1,11,18,56,044,38,31,56,259,41,51,56,270,37,21,53,185,42*79

$GPVTG,290.37,T,,M,6.05,N,11.20,K,D*06

$GPGGA,121211.000,0018.5420,S,07827.9879,W,2,08,1.02,2497.9,M,13.7,M,0000,0000*50

$GPGGA,121212.000,0018.5414,S,07827.9895,W,2,08,1.02,2498.1,M,13.7,M,0000,0000*51

$GPGSA,A,3,21,12,20,18,31,10,25,14,,,,,1.86,1.02,1.55*05

$GPGSA,A,3,21,12,20,18,31,10,25,14,,,,,1.86,1.02,1.55*05

$GPRMC,121213.000,A,0018.5408,S,07827.9910,W,5.81,292.20,140417,,,D*6D

$GPRMC,121214.000,A,0018.5402,S,07827.9924,W,5.72,295.52,140417,,,D*69

$GPVTG,295.52,T,,M,5.72,N,10.60,K,D*06

$GPGSV,3,2,11,25,44,088,40,10,42,004,36,32,22,340,31,14,19,317,25*76

$GPGSV,3,3,11,20,16,125,35,12,11,057,25,29,11,143,39*4D

$GPGSA,A,3,21,12,20,18,31,10,25,14,,,,,1.86,1.02,1.55*05

$GPRMC,121216.000,A,0018.5388,S,07827.9951,W,5.01,293.76,140417,,,D*68

$GPRMC,121217.000,A,0018.5383,S,07827.9964,W,4.46,290.10,140417,,,D*65

$GPVTG,290.10,T,,M,4.46,N,8.27,K,D*39

$GPVTG,288.77,T,,M,4.29,N,7.95,K,D*3E

$GPGGA,121219.000,0018.5375,S,07827.9988,W,2,08,1.02,2498.2,M,13.7,M,0000,0000*54

$GPGGA,121220.000,0018.5372,S,07828.0002,W,2,08,1.02,2498.2,M,13.7,M,0000,0000*54

$GPGSA,A,3,21,12,20,18,31,10,25,14,,,,,1.86,1.02,1.55*05

$GPRMC,121220.000,A,0018.5372,S,07828.0002,W,5.16,284.26,140417,,,D*64

$GPVTG,284.26,T,,M,5.16,N,9.55,K,D*39

$GPVTG,291.24,T,,M,5.50,N,10.19,K,D*0D

$GPGGA,121222.000,0018.5361,S,07828.0030,W,2,08,1.02,2498.3,M,13.7,M,0000,0000*54

$GPGGA,121223.000,0018.5354,S,07828.0045,W,2,08,1.02,2498.4,M,13.7,M,0000,0000*56

$GPGSA,A,3,21,12,20,18,31,10,25,14,,,,,1.86,1.02,1.55*05

$GPGSA,A,3,21,12,20,18,31,10,25,14,,,,,1.86,1.02,1.55*05

$GPRMC,121224.000,A,0018.5347,S,07828.0060,W,5.99,295.82,140417,,,D*6B

$GPGSV,3,1,11,18,56,044,39,31,56,260,41,51,56,270,38,21,53,185,41*7E

$GPGSV,3,2,11,25,44,088,40,10,42,004,38,32,22,340,35,14,19,317,28*71

$GPGGA,121226.000,0018.5333,S,07828.0090,W,2,08,1.02,2498.6,M,13.7,M,0000,0000*58

$GPGSA,A,3,21,12,20,18,31,10,25,14,,,,,1.86,1.02,1.55*05

$GPGSA,A,3,21,12,20,18,31,10,25,14,,,,,1.86,1.02,1.55*05

$GPRMC,121227.000,A,0018.5326,S,07828.0106,W,6.23,294.47,140417,,,D*64

$GPRMC,121228.000,A,0018.5319,S,07828.0122,W,6.24,293.90,140417,,,D*6B

$GPVTG,293.90,T,,M,6.24,N,11.57,K,D*0B

$GPVTG,291.58,T,,M,6.24,N,11.56,K,D*0C

$GPGGA,121230.000,0018.5306,S,07828.0154,W,2,08,1.02,2498.8,M,13.7,M,0000,0000*5E

$GPGSV,3,3,11,20,16,125,36,12,11,057,30,29,11,143,40*44

$GPRMC,121230.000,A,0018.5306,S,07828.0154,W,6.22,292.09,140417,,,D*6A

$GPRMC,121231.000,A,0018.5300,S,07828.0170,W,6.11,293.46,140417,,,D*61

$GPVTG,293.46,T,,M,6.11,N,11.33,K,D*04

$GPVTG,294.91,T,,M,6.18,N,11.45,K,D*01

$GPGGA,121233.000,0018.5286,S,07828.0201,W,2,09,0.94,2499.0,M,13.7,M,0000,0000*51

$GPGGA,121234.000,0018.5278,S,07828.0216,W,2,09,0.94,2499.0,M,13.7,M,0000,0000*51

$GPGSA,A,3,21,12,20,18,31,10,25,14,29,,,,1.65,0.94,1.36*08

$GPGSA,A,3,21,12,20,18,31,10,25,14,29,,,,1.65,0.94,1.36*08

$GPGSV,3,1,11,18,56,044,40,31,56,260,41,51,56,270,38,21,53,185,42*73

$GPVTG,293.68,T,,M,6.45,N,11.95,K,D*05

$GPGGA,121236.000,0018.5264,S,07828.0249,W,2,09,0.94,2498.9,M,13.7,M,0000,0000*5C

$GPGGA,121237.000,0018.5257,S,07828.0266,W,2,09,0.94,2498.9,M,13.7,M,0000,0000*50

$GPGSA,A,3,21,12,20,18,31,10,25,14,29,,,,1.65,0.94,1.36*08

$GPGSA,A,3,21,12,20,18,31,10,25,14,29,,,,1.65,0.94,1.36*08

$GPRMC,121238.000,A,0018.5251,S,07828.0283,W,6.52,289.97,140417,,,D*62

$GPRMC,121239.000,A,0018.5245,S,07828.0300,W,6.47,289.38,140417,,,D*6D

$GPVTG,289.38,T,,M,6.47,N,12.00,K,D*06

$GPGSV,3,2,11,25,44,088,38,10,42,004,37,32,22,340,24,14,19,317,18*72

$GPGSV,3,3,11,20,16,125,38,29,11,143,37,12,11,057,27*4C

$GPGSA,A,3,21,12,20,18,31,10,25,14,29,,,,1.65,0.94,1.36*08

$GPRMC,121241.000,A,0018.5233,S,07828.0334,W,6.48,290.07,140417,,,D*6F

$GPRMC,121242.000,A,0018.5227,S,07828.0351,W,6.60,292.39,140417,,,D*6F

$GPVTG,292.39,T,,M,6.60,N,12.23,K,D*09

$GPVTG,291.00,T,,M,6.59,N,12.21,K,D*08

$GPGGA,121244.000,0018.5214,S,07828.0385,W,2,09,0.94,2499.3,M,13.7,M,0000,0000*54

$GPGGA,121245.000,0018.5207,S,07828.0402,W,2,09,0.94,2499.5,M,13.7,M,0000,0000*59

$GPGSA,A,3,21,12,20,18,31,10,25,14,29,,,,1.65,0.94,1.36*08

$GPRMC,121245.000,A,0018.5207,S,07828.0402,W,6.47,293.62,140417,,,D*61

$GPVTG,293.62,T,,M,6.47,N,12.00,K,D*02

$GPVTG,293.06,T,,M,6.48,N,12.00,K,D*0F

$GPGGA,121247.000,0018.5192,S,07828.0435,W,2,09,0.94,2499.4,M,13.7,M,0000,0000*51

$GPGGA,121248.000,0018.5186,S,07828.0452,W,2,09,0.94,2499.4,M,13.7,M,0000,0000*5A

$GPGSA,A,3,21,12,20,18,31,10,25,14,29,,,,1.65,0.94,1.36*08

$GPGSA,A,3,21,12,20,18,31,10,25,14,29,,,,1.65,0.94,1.36*08

$GPRMC,121249.000,A,0018.5179,S,07828.0469,W,6.45,290.66,140417,,,D*6F

$GPGSV,3,1,11,18,56,045,38,31,56,260,41,51,56,270,38,21,53,185,42*7D

$GPGSV,3,2,11,25,43,088,40,10,42,004,38,32,22,340,36,14,19,317,29*74

$GPGGA,121251.000,0018.5166,S,07828.0503,W,2,09,0.94,2499.4,M,13.7,M,0000,0000*59

$GPGSA,A,3,21,12,20,18,31,10,25,14,29,,,,1.65,0.94,1.36*08

$GPGSA,A,3,21,12,20,18,31,10,25,14,29,,,,1.65,0.94,1.36*08

$GPRMC,121252.000,A,0018.5159,S,07828.0520,W,6.62,291.67,140417,,,D*6E

$GPRMC,121253.000,A,0018.5153,S,07828.0537,W,6.69,290.26,140417,,,D*6C

$GPVTG,290.26,T,,M,6.69,N,12.39,K,D*07

$GPVTG,293.42,T,,M,6.64,N,12.31,K,D*03

$GPGGA,121255.000,0018.5139,S,07828.0572,W,2,09,0.94,2499.6,M,13.7,M,0000,0000*53

$GPGSV,3,3,11,20,16,125,38,29,11,142,32,12,11,057,29*46

$GPRMC,121255.000,A,0018.5139,S,07828.0572,W,6.86,292.61,140417,,,D*67

$GPRMC,121256.000,A,0018.5132,S,07828.0590,W,6.90,289.22,140417,,,D*69

$GPVTG,289.22,T,,M,6.90,N,12.79,K,D*09

$GPVTG,287.85,T,,M,7.05,N,13.07,K,D*0F

$GPGGA,121258.000,0018.5119,S,07828.0628,W,2,09,0.94,2499.7,M,13.7,M,0000,0000*51

$GPGGA,121259.000,0018.5111,S,07828.0646,W,2,09,0.94,2499.7,M,13.7,M,0000,0000*50

$GPGSA,A,3,21,12,20,18,31,10,25,14,29,,,,1.65,0.94,1.36*08

$GPGSA,A,3,21,12,20,18,31,10,25,14,29,,,,1.65,0.94,1.36*08

$GPGSV,3,1,11,18,56,045,37,31,56,260,40,51,56,270,38,21,53,185,40*71

$GPVTG,292.26,T,,M,7.31,N,13.54,K,D*03

$GPGGA,121301.000,0018.5095,S,07828.0684,W,2,09,0.94,2499.6,M,13.7,M,0000,0000*5E

$GPGGA,121302.000,0018.5088,S,07828.0703,W,2,09,0.94,2499.5,M,13.7,M,0000,0000*5C

$GPGSA,A,3,21,12,20,18,31,10,25,14,29,,,,1.65,0.94,1.36*08

$GPGSA,A,3,21,12,20,18,31,10,25,14,29,,,,1.65,0.94,1.36*08

$GPRMC,121303.000,A,0018.5080,S,07828.0721,W,7.24,291.19,140417,,,D*67

$GPRMC,121304.000,A,0018.5073,S,07828.0740,W,7.10,291.53,140417,,,D*62

$GPVTG,291.53,T,,M,7.10,N,13.16,K,D*07

$GPGSV,3,2,11,25,43,088,41,10,42,004,38,32,22,340,36,14,19,317,27*7B

$GPGSV,3,3,11,20,16,125,28,29,11,142,30,12,11,057,21*4D

$GPGSA,A,3,21,12,20,18,31,10,25,14,29,,,,1.65,0.94,1.36*08

$GPRMC,121306.000,A,0018.5058,S,07828.0777,W,7.09,290.29,140417,,,D*69

$GPRMC,121307.000,A,0018.5051,S,07828.0795,W,7.15,290.67,140417,,,D*6A

$GPVTG,290.67,T,,M,7.15,N,13.25,K,D*04

$GPVTG,292.05,T,,M,7.29,N,13.51,K,D*0E

$GPGGA,121309.000,0018.5036,S,07828.0833,W,2,09,0.94,2499.0,M,13.7,M,0000,0000*5B

$GPGGA,121310.000,0018.5028,S,07828.0852,W,2,09,0.94,2499.1,M,13.7,M,0000,0000*5A

$GPGSA,A,3,21,12,20,18,31,10,25,14,29,,,,1.65,0.94,1.36*08

$GPRMC,121310.000,A,0018.5028,S,07828.0852,W,7.44,291.96,140417,,,D*6D

$GPVTG,291.96,T,,M,7.44,N,13.78,K,D*07

$GPVTG,292.36,T,,M,7.50,N,13.90,K,D*0D

$GPGGA,121312.000,0018.5012,S,07828.0892,W,2,09,0.94,2498.8,M,13.7,M,0000,0000*55

$GPGGA,121313.000,0018.5004,S,07828.0911,W,2,09,0.94,2498.7,M,13.7,M,0000,0000*56

$GPGSA,A,3,21,12,20,18,31,10,25,14,29,,,,1.65,0.94,1.36*08

$GPGSA,A,3,21,12,20,18,31,10,25,14,29,,,,1.65,0.94,1.36*08

$GPRMC,121314.000,A,0018.4996,S,07828.0932,W,7.68,291.23,140417,,,D*63

$GPGSV,3,1,11,18,57,045,38,31,56,260,41,51,56,270,38,21,53,185,42*7C

$GPGSV,3,2,11,25,43,088,41,10,42,004,37,32,22,340,26,14,19,317,27*75

$GPGGA,121316.000,0018.4980,S,07828.0971,W,2,09,0.94,2498.5,M,13.7,M,0000,0000*53

$GPGSA,A,3,21,12,20,18,31,10,25,14,29,,,,1.65,0.94,1.36*08

$GPGSA,A,3,21,12,20,18,31,10,25,14,29,,,,1.65,0.94,1.36*08

$GPRMC,121317.000,A,0018.4972,S,07828.0990,W,7.41,295.29,140417,,,D*67

$GPRMC,121318.000,A,0018.4963,S,07828.1009,W,7.24,292.40,140417,,,D*6B

$GPVTG,292.40,T,,M,7.24,N,13.41,K,D*03

$GPVTG,289.70,T,,M,7.09,N,13.14,K,D*05

$GPGGA,121320.000,0018.4949,S,07828.1045,W,2,09,0.94,2497.9,M,13.7,M,0000,0000*5F

$GPGSV,3,3,11,20,15,125,34,29,11,142,29,12,11,056,27*4C

$GPRMC,121320.000,A,0018.4949,S,07828.1045,W,6.91,292.34,140417,,,D*6C

$GPRMC,121321.000,A,0018.4941,S,07828.1062,W,6.27,294.10,140417,,,D*6D

$GPVTG,294.10,T,,M,6.27,N,11.61,K,D*02

$GPVTG,295.79,T,,M,5.61,N,10.39,K,D*01

$GPGGA,121323.000,0018.4928,S,07828.1090,W,2,09,0.94,2497.9,M,13.7,M,0000,0000*53

$GPGGA,121324.000,0018.4921,S,07828.1101,W,2,09,0.94,2497.9,M,13.7,M,0000,0000*54

$GPGSA,A,3,21,12,20,18,31,10,25,14,29,,,,1.65,0.94,1.36*08

$GPGSA,A,3,21,12,20,18,31,10,25,14,29,,,,1.65,0.94,1.36*08

$GPGSV,3,1,11,18,57,045,39,31,56,260,40,51,56,270,39,21,52,185,42*7C

$GPVTG,298.73,T,,M,3.70,N,6.85,K,D*30

$GPGGA,121326.000,0018.4911,S,07828.1119,W,2,09,0.92,2498.0,M,13.7,M,0000,0000*5C

$GPGGA,121327.000,0018.4908,S,07828.1127,W,2,09,0.92,2498.1,M,13.7,M,0000,0000*59

$GPGSA,A,3,21,12,20,18,31,10,25,14,29,,,,1.22,0.92,0.80*01

$GPGSA,A,3,21,12,20,18,31,10,25,14,29,,,,1.22,0.92,0.80*01

$GPRMC,121328.000,A,0018.4906,S,07828.1135,W,3.14,273.63,140417,,,D*6C

$GPRMC,121329.000,A,0018.4908,S,07828.1144,W,3.68,252.47,140417,,,D*6B

$GPVTG,252.47,T,,M,3.68,N,6.81,K,D*3C

$GPGSV,3,2,11,25,43,087,39,10,42,004,40,32,21,340,34,14,19,317,32*71

$GPGSV,3,3,11,20,15,125,33,12,11,056,24,29,10,142,23*43

$GPGSA,A,3,21,12,20,18,31,10,25,14,29,,,,1.65,0.94,1.35*0B

$GPRMC,121331.000,A,0018.4920,S,07828.1164,W,4.93,237.49,140417,,,D*64

$GPRMC,121332.000,A,0018.4929,S,07828.1176,W,5.48,236.96,140417,,,D*69

$GPVTG,236.96,T,,M,5.48,N,10.16,K,D*0F

$GPVTG,231.55,T,,M,5.47,N,10.14,K,D*0A

$GPGGA,121334.000,0018.4948,S,07828.1200,W,2,09,0.94,2498.5,M,13.7,M,0000,0000*5B

$GPGGA,121335.000,0018.4960,S,07828.1211,W,2,09,0.94,2498.8,M,13.7,M,0000,0000*5D

$GPGSA,A,3,21,12,20,18,31,10,25,14,29,,,,1.65,0.94,1.35*0B

$GPRMC,121335.000,A,0018.4960,S,07828.1211,W,5.40,221.54,140417,,,D*61

$GPVTG,221.54,T,,M,5.40,N,10.00,K,D*08

$GPVTG,214.95,T,,M,5.33,N,9.88,K,D*3F

$GPGGA,121337.000,0018.4985,S,07828.1228,W,2,09,0.94,2499.1,M,13.7,M,0000,0000*56

$GPGGA,121338.000,0018.4998,S,07828.1234,W,2,09,0.94,2499.0,M,13.7,M,0000,0000*59

$GPGSA,A,3,21,12,20,18,31,10,25,14,29,,,,1.65,0.94,1.35*0B

$GPGSA,A,3,21,12,20,18,31,10,25,14,29,,,,1.65,0.94,1.35*0B

$GPRMC,121339.000,A,0018.5012,S,07828.1240,W,5.35,203.33,140417,,,D*67

$GPGSV,3,1,11,18,57,045,40,31,56,261,40,51,56,270,32,21,52,185,39*74

$GPGSV,3,2,11,25,43,087,41,10,43,005,42,32,21,340,21,14,19,317,24*7F

$GPGGA,121341.000,0018.5039,S,07828.1252,W,2,09,0.94,2498.4,M,13.7,M,0000,0000*51

$GPGSA,A,3,21,12,20,18,31,10,25,14,29,,,,1.65,0.94,1.35*0B

$GPGSA,A,3,21,12,20,18,31,10,25,14,29,,,,1.65,0.94,1.35*0B

$GPRMC,121342.000,A,0018.5053,S,07828.1258,W,5.50,204.15,140417,,,D*67

$GPRMC,121343.000,A,0018.5068,S,07828.1264,W,5.70,203.91,140417,,,D*68

$GPVTG,203.91,T,,M,5.70,N,10.56,K,D*01

$GPVTG,201.61,T,,M,5.85,N,10.84,K,D*09

$GPGGA,121345.000,0018.5098,S,07828.1276,W,2,09,0.94,2497.9,M,13.7,M,0000,0000*5A

$GPGSV,3,3,11,20,15,125,31,12,11,056,36,29,10,142,28*49

$GPRMC,121345.000,A,0018.5098,S,07828.1276,W,5.99,199.47,140417,,,D*6E

$GPRMC,121346.000,A,0018.5113,S,07828.1282,W,6.05,201.69,140417,,,D*6C

$GPVTG,201.69,T,,M,6.05,N,11.20,K,D*05

$GPVTG,201.71,T,,M,6.13,N,11.35,K,D*0F

$GPGGA,121348.000,0018.5145,S,07828.1293,W,2,09,0.94,2497.6,M,13.7,M,0000,0000*52

$GPGGA,121349.000,0018.5161,S,07828.1300,W,2,09,0.94,2497.5,M,13.7,M,0000,0000*5D

$GPGSA,A,3,21,12,20,18,31,10,25,14,29,,,,1.65,0.94,1.35*0B

$GPGSA,A,3,21,12,20,18,31,10,25,14,29,,,,1.65,0.94,1.35*0B

$GPGSV,3,1,11,18,57,046,40,31,56,261,38,51,56,270,34,21,52,185,38*7F

$GPVTG,204.06,T,,M,6.20,N,11.48,K,D*00

$GPGGA,121351.000,0018.5193,S,07828.1314,W,2,09,0.92,2497.5,M,13.7,M,0000,0000*5A

$GPGGA,121352.000,0018.5209,S,07828.1320,W,2,09,0.94,2497.6,M,13.7,M,0000,0000*5B

$GPGSA,A,3,21,12,20,18,31,10,25,14,29,,,,1.65,0.94,1.35*0B

$GPGSA,A,3,21,12,20,18,31,10,25,14,29,,,,1.65,0.94,1.35*0B

$GPRMC,121353.000,A,0018.5225,S,07828.1326,W,6.04,201.86,140417,,,D*61

$GPRMC,121354.000,A,0018.5241,S,07828.1332,W,5.94,199.40,140417,,,D*63

$GPVTG,199.40,T,,M,5.94,N,11.01,K,D*04

$GPGSV,3,2,11,25,43,087,42,10,43,005,42,32,21,340,38,14,19,317,37*76

$GPGSV,3,3,11,20,15,126,20,12,11,056,37,29,10,142,24*47

$GPGSA,A,3,21,12,18,31,10,25,14,29,,,,,1.71,0.98,1.40*02

$GPRMC,121356.000,A,0018.5273,S,07828.1343,W,5.88,198.18,140417,,,D*67

$GPRMC,121357.000,A,0018.5289,S,07828.1348,W,6.06,200.96,140417,,,D*69

$GPVTG,200.96,T,,M,6.06,N,11.23,K,D*04

$GPVTG,204.26,T,,M,6.05,N,11.22,K,D*09

$GPGGA,121359.000,0018.5321,S,07828.1361,W,2,09,0.94,2497.8,M,13.7,M,0000,0000*50

$GPGGA,121400.000,0018.5336,S,07828.1368,W,2,09,0.94,2498.0,M,13.7,M,0000,0000*53

$GPGSA,A,3,21,12,20,18,31,10,25,14,29,,,,1.65,0.94,1.35*0B

$GPRMC,121400.000,A,0018.5336,S,07828.1368,W,6.08,204.40,140417,,,D*6A

$GPVTG,204.40,T,,M,6.08,N,11.27,K,D*01

$GPVTG,204.04,T,,M,6.03,N,11.18,K,D*06

$GPGGA,121402.000,0018.5367,S,07828.1381,W,2,10,0.90,2498.5,M,13.7,M,0000,0000*5B

$GPGGA,121403.000,0018.5382,S,07828.1388,W,2,10,0.90,2498.6,M,13.7,M,0000,0000*5B

$GPGSA,A,3,21,12,20,18,31,10,25,14,29,32,,,1.57,0.90,1.29*02

$GPGSA,A,3,21,12,20,18,31,10,25,14,29,32,,,1.57,0.90,1.29*02

$GPRMC,121404.000,A,0018.5396,S,07828.1395,W,5.60,209.28,140417,,,D*68

$GPGSV,3,1,11,18,57,046,42,31,56,261,34,51,56,270,31,21,52,185,38*74

$GPGSV,3,2,11,25,43,087,40,10,43,005,40,32,21,341,37,14,19,317,31*7E

$GPGGA,121406.000,0018.5424,S,07828.1407,W,2,10,0.90,2498.4,M,13.7,M,0000,0000*57

$GPGSA,A,3,21,12,20,18,31,10,25,14,29,32,,,1.57,0.90,1.29*02

$GPGSA,A,3,21,12,20,18,31,10,25,14,29,32,,,1.57,0.90,1.29*02

$GPRMC,121407.000,A,0018.5436,S,07828.1412,W,4.73,212.38,140417,,,D*66

$GPRMC,121408.000,A,0018.5445,S,07828.1421,W,4.62,237.72,140417,,,D*64

$GPVTG,237.72,T,,M,4.62,N,8.56,K,D*30

$GPVTG,269.43,T,,M,4.74,N,8.79,K,D*33

$GPGGA,121410.000,0018.5445,S,07828.1446,W,2,10,0.90,2498.8,M,13.7,M,0000,0000*5E

$GPGSV,3,3,11,20,15,126,34,12,11,056,37,29,10,142,30*47

$GPRMC,121410.000,A,0018.5445,S,07828.1446,W,5.01,288.71,140417,,,D*6F

$GPRMC,121411.000,A,0018.5439,S,07828.1461,W,5.61,288.23,140417,,,D*61

$GPVTG,288.23,T,,M,5.61,N,10.39,K,D*02

$GPVTG,285.69,T,,M,5.81,N,10.76,K,D*04

$GPGGA,121413.000,0018.5429,S,07828.1492,W,2,10,0.90,2498.9,M,13.7,M,0000,0000*5F

$GPGGA,121414.000,0018.5423,S,07828.1508,W,2,10,0.90,2498.9,M,13.7,M,0000,0000*50

$GPGSA,A,3,21,12,20,18,31,10,25,14,29,32,,,1.57,0.90,1.29*02

$GPGSA,A,3,21,12,20,18,31,10,25,14,29,32,,,1.57,0.90,1.29*02

$GPGSV,3,1,11,18,57,046,38,31,56,261,41,51,56,270,38,21,52,185,42*7F

$GPVTG,296.14,T,,M,6.06,N,11.23,K,D*01

$GPGGA,121416.000,0018.5409,S,07828.1539,W,2,10,0.90,2498.9,M,13.7,M,0000,0000*58

$GPGGA,121417.000,0018.5402,S,07828.1555,W,2,10,0.90,2499.0,M,13.7,M,0000,0000*50

$GPGSA,A,3,21,12,20,18,31,10,25,14,29,32,,,1.57,0.90,1.29*02

$GPGSA,A,3,21,12,20,18,31,10,25,14,29,32,,,1.57,0.90,1.29*02

$GPRMC,121418.000,A,0018.5396,S,07828.1572,W,6.36,289.99,140417,,,D*68

$GPRMC,121419.000,A,0018.5389,S,07828.1588,W,6.37,290.95,140417,,,D*67

$GPVTG,290.95,T,,M,6.37,N,11.81,K,D*04

$GPGSV,3,2,11,25,43,087,41,10,43,005,37,32,21,341,33,14,19,318,23*77

$GPGSV,3,3,11,20,15,126,36,12,11,056,30,29,10,142,40*45

$GPGSA,A,3,21,12,20,18,31,10,25,14,29,32,,,1.57,0.90,1.29*02

$GPRMC,121421.000,A,0018.5377,S,07828.1622,W,6.43,289.53,140417,,,D*6F

$GPRMC,121422.000,A,0018.5370,S,07828.1638,W,6.41,290.66,140417,,,D*6C

$GPVTG,290.66,T,,M,6.41,N,11.88,K,D*00

$GPVTG,291.35,T,,M,6.44,N,11.94,K,D*0F

$GPGGA,121424.000,0018.5357,S,07828.1672,W,2,10,0.90,2499.1,M,13.7,M,0000,0000*50

$GPGGA,121425.000,0018.5349,S,07828.1689,W,2,10,0.88,2499.1,M,13.7,M,0000,0000*53

$GPGSA,A,3,21,12,20,18,31,10,25,14,29,32,,,1.18,0.88,0.79*04

$GPRMC,121425.000,A,0018.5349,S,07828.1689,W,6.57,294.79,140417,,,D*66

$GPVTG,294.79,T,,M,6.57,N,12.18,K,D*07

$GPVTG,298.29,T,,M,6.65,N,12.32,K,D*07

$GPGGA,121427.000,0018.5332,S,07828.1722,W,2,10,0.90,2499.1,M,13.7,M,0000,0000*54

$GPGGA,121428.000,0018.5323,S,07828.1739,W,2,10,0.90,2499.0,M,13.7,M,0000,0000*50

$GPGSA,A,3,21,12,20,18,31,10,25,14,29,32,,,1.57,0.90,1.29*02

$GPGSA,A,3,21,12,20,18,31,10,25,14,29,32,,,1.57,0.90,1.29*02

$GPRMC,121429.000,A,0018.5315,S,07828.1756,W,6.62,296.67,140417,,,D*6B

$GPGSV,3,1,11,18,57,046,37,31,56,261,40,51,56,270,38,21,52,184,42*70

$GPGSV,3,2,11,25,43,087,41,10,43,005,39,32,21,341,30,14,19,318,30*78

$GPGGA,121431.000,0018.5300,S,07828.1790,W,2,10,0.90,2499.0,M,13.7,M,0000,0000*5A

$GPGSA,A,3,21,12,20,18,31,10,25,14,29,32,,,1.57,0.90,1.29*02

$GPGSA,A,3,21,12,20,18,31,10,25,14,29,32,,,1.57,0.90,1.29*02

$GPRMC,121432.000,A,0018.5293,S,07828.1807,W,6.44,291.46,140417,,,D*65

$GPRMC,121433.000,A,0018.5287,S,07828.1824,W,6.37,291.77,140417,,,D*66

$GPVTG,291.77,T,,M,6.37,N,11.81,K,D*09

$GPVTG,293.28,T,,M,6.29,N,11.66,K,D*07

$GPGGA,121435.000,0018.5272,S,07828.1856,W,2,10,0.90,2499.0,M,13.7,M,0000,0000*5F

$GPGSV,3,3,11,20,15,126,37,12,11,056,24,29,10,142,29*4E

$GPRMC,121435.000,A,0018.5272,S,07828.1856,W,6.46,294.45,140417,,,D*6D

$GPRMC,121436.000,A,0018.5265,S,07828.1873,W,6.38,291.88,140417,,,D*62

$GPVTG,291.88,T,,M,6.38,N,11.82,K,D*05

$GPVTG,289.26,T,,M,6.33,N,11.73,K,D*0D

$GPGGA,121438.000,0018.5254,S,07828.1906,W,2,10,0.90,2499.2,M,13.7,M,0000,0000*50

$GPGGA,121439.000,0018.5247,S,07828.1923,W,2,10,0.90,2499.2,M,13.7,M,0000,0000*54

$GPGSA,A,3,21,12,20,18,31,10,25,14,29,32,,,1.57,0.90,1.29*02

$GPGSA,A,3,21,12,20,18,31,10,25,14,29,32,,,1.57,0.90,1.29*02

$GPGSV,3,1,11,18,57,046,38,31,56,262,40,51,56,270,38,21,52,184,43*7D

$GPVTG,292.13,T,,M,6.22,N,11.52,K,D*02

$GPGGA,121441.000,0018.5234,S,07828.1954,W,2,10,0.90,2499.4,M,13.7,M,0000,0000*59

$GPGGA,121442.000,0018.5228,S,07828.1970,W,2,10,0.90,2499.5,M,13.7,M,0000,0000*50

$GPGSA,A,3,21,12,20,18,31,10,25,14,29,32,,,1.57,0.90,1.29*02

$GPRMC,121443.000,A,0018.5221,S,07828.1986,W,6.26,291.28,140417,,,D*6E

$GPVTG,291.28,T,,M,6.26,N,11.59,K,D*06

$GPVTG,293.13,T,,M,6.23,N,11.54,K,D*04

$GPGGA,121445.000,0018.5208,S,07828.2018,W,2,10,0.90,2499.7,M,13.7,M,0000,0000*53

$GPGSV,3,3,11,20,15,126,35,12,11,056,31,29,10,142,40*47

$GPRMC,121445.000,A,0018.5208,S,07828.2018,W,6.22,293.59,140417,,,D*6E

$GPRMC,121446.000,A,0018.5201,S,07828.2034,W,6.28,291.66,140417,,,D*6E

$GPVTG,291.66,T,,M,6.28,N,11.63,K,D*0B

$GPVTG,292.00,T,,M,6.41,N,11.89,K,D*03

$GPGGA,121448.000,0018.5187,S,07828.2066,W,2,10,0.90,2499.8,M,13.7,M,0000,0000*5C

$GPGGA,121449.000,0018.5180,S,07828.2083,W,2,10,0.90,2499.8,M,13.7,M,0000,0000*51

$GPGSA,A,3,21,12,20,18,31,10,25,14,29,32,,,1.57,0.90,1.29*02

$GPGSA,A,3,21,12,20,18,31,10,25,14,29,32,,,1.57,0.90,1.29*02

$GPGSV,3,1,11,18,57,046,37,31,56,262,40,51,56,270,38,21,52,184,42*73

$GPVTG,291.55,T,,M,6.36,N,11.79,K,D*0F

$GPGGA,121451.000,0018.5166,S,07828.2115,W,2,10,0.88,2499.8,M,13.7,M,0000,0000*57

$GPGGA,121452.000,0018.5160,S,07828.2131,W,2,10,0.90,2499.9,M,13.7,M,0000,0000*5C

$GPGSA,A,3,21,12,20,18,31,10,25,14,29,32,,,1.57,0.90,1.29*02

$GPGSA,A,3,21,12,20,18,31,10,25,14,29,32,,,1.57,0.90,1.29*02

$GPRMC,121453.000,A,0018.5154,S,07828.2147,W,6.05,291.54,140417,,,D*62

$GPRMC,121454.000,A,0018.5147,S,07828.2162,W,6.09,291.54,140417,,,D*6C

$GPVTG,291.54,T,,M,6.09,N,11.29,K,D*07

$GPGSV,3,2,11,25,43,086,39,10,43,005,37,32,21,341,32,14,19,318,28*73

$GPGSV,3,3,11,20,15,126,36,12,11,056,23,29,10,142,39*49

$GPGSA,A,3,21,12,20,18,31,10,25,14,29,32,,,1.57,0.90,1.29*02

$GPRMC,121456.000,A,0018.5135,S,07828.2194,W,6.15,290.51,140417,,,D*6B

$GPRMC,121457.000,A,0018.5129,S,07828.2210,W,6.29,290.96,140417,,,D*6C

$GPVTG,290.96,T,,M,6.29,N,11.65,K,D*02

$GPVTG,292.94,T,,M,6.43,N,11.92,K,D*06

$GPGGA,121459.000,0018.5115,S,07828.2243,W,2,10,0.88,2500.4,M,13.7,M,0000,0000*56

$GPGGA,121500.000,0018.5107,S,07828.2260,W,2,10,0.90,2500.4,M,13.7,M,0000,0000*50

$GPGSA,A,3,21,12,20,18,31,10,25,14,29,32,,,1.57,0.90,1.29*02

$GPRMC,121500.000,A,0018.5107,S,07828.2260,W,6.67,292.62,140417,,,D*67

$GPVTG,292.62,T,,M,6.67,N,12.35,K,D*07

$GPVTG,292.95,T,,M,6.75,N,12.50,K,D*0F

$GPGGA,121502.000,0018.5093,S,07828.2294,W,2,10,0.90,2500.4,M,13.7,M,0000,0000*55

$GPGGA,121503.000,0018.5086,S,07828.2311,W,2,10,0.90,2500.4,M,13.7,M,0000,0000*5C

$GPGSA,A,3,21,12,20,18,31,10,25,14,29,32,,,1.57,0.90,1.29*02

$GPGSA,A,3,21,12,20,18,31,10,25,14,29,32,,,1.57,0.90,1.29*02

$GPRMC,121504.000,A,0018.5079,S,07828.2328,W,6.64,292.16,140417,,,D*66

$GPGSV,3,1,11,18,57,047,37,31,56,262,40,51,56,270,38,21,52,184,42*72

$GPGSV,3,2,11,25,43,086,38,10,43,005,38,32,21,341,23,14,19,318,24*71

$GPGGA,121506.000,0018.5064,S,07828.2361,W,2,10,0.90,2500.7,M,13.7,M,0000,0000*51

$GPGSA,A,3,21,12,20,18,31,10,25,14,29,32,,,1.57,0.90,1.29*02

$GPGSA,A,3,21,12,20,18,31,10,25,14,29,32,,,1.57,0.90,1.28*03

$GPRMC,121507.000,A,0018.5057,S,07828.2378,W,6.42,290.86,140417,,,D*63

$GPRMC,121508.000,A,0018.5051,S,07828.2394,W,6.54,291.60,140417,,,D*66

$GPVTG,291.60,T,,M,6.54,N,12.12,K,D*03

$GPVTG,291.60,T,,M,6.48,N,12.01,K,D*0C

$GPGGA,121510.000,0018.5038,S,07828.2428,W,2,10,0.90,2501.1,M,13.7,M,0000,0000*52

$GPGSV,3,3,11,20,15,126,34,12,11,056,26,29,10,141,38*4C

$GPRMC,121510.000,A,0018.5038,S,07828.2428,W,6.55,292.03,140417,,,D*67

$GPRMC,121511.000,A,0018.5031,S,07828.2445,W,6.67,292.42,140417,,,D*60

$GPVTG,292.42,T,,M,6.67,N,12.36,K,D*06

$GPVTG,291.89,T,,M,6.44,N,11.93,K,D*0F

$GPGGA,121513.000,0018.5018,S,07828.2477,W,2,10,0.90,2501.0,M,13.7,M,0000,0000*58

$GPGGA,121514.000,0018.5011,S,07828.2493,W,2,10,0.90,2501.1,M,13.7,M,0000,0000*5D

$GPGSA,A,3,21,12,20,18,31,10,25,14,29,32,,,1.57,0.90,1.28*03

$GPGSA,A,3,21,12,20,18,31,10,25,14,29,32,,,1.57,0.90,1.28*03

$GPGSV,3,1,11,18,57,047,39,31,56,263,40,51,56,270,37,21,52,184,42*72

$GPVTG,289.64,T,,M,5.89,N,10.92,K,D*07

$GPGGA,121516.000,0018.5000,S,07828.2523,W,2,10,0.90,2501.2,M,13.7,M,0000,0000*56

$GPGGA,121517.000,0018.4995,S,07828.2538,W,2,10,0.90,2501.5,M,13.7,M,0000,0000*5E

$GPGSA,A,3,21,12,20,18,31,10,25,14,29,32,,,1.57,0.90,1.28*03

$GPGSA,A,3,21,12,20,18,31,10,25,14,29,32,,,1.57,0.90,1.28*03

$GPRMC,121518.000,A,0018.4990,S,07828.2551,W,5.35,291.00,140417,,,D*6F

$GPRMC,121519.000,A,0018.4985,S,07828.2565,W,5.09,292.55,140417,,,D*61

$GPVTG,292.55,T,,M,5.09,N,9.44,K,D*34

$GPGSV,3,2,11,25,43,086,38,10,43,005,36,32,21,341,34,14,19,318,25*78

$GPGSV,3,3,11,20,15,126,39,12,11,056,29,29,10,141,34*42

$GPGSA,A,3,21,12,20,18,31,10,25,14,29,32,,,1.57,0.90,1.28*03

$GPRMC,121521.000,A,0018.4975,S,07828.2590,W,4.86,292.70,140417,,,D*6E

$GPRMC,121522.000,A,0018.4970,S,07828.2602,W,4.76,288.01,140417,,,D*62

$GPVTG,288.01,T,,M,4.76,N,8.82,K,D*3C

$GPVTG,279.75,T,,M,4.42,N,8.19,K,D*34

$GPGGA,121524.000,0018.4965,S,07828.2626,W,2,10,0.90,2502.4,M,13.7,M,0000,0000*5F

$GPGGA,121525.000,0018.4965,S,07828.2637,W,2,10,0.88,2502.4,M,13.7,M,0000,0000*57

$GPGSA,A,3,21,12,20,18,31,10,25,14,29,32,,,1.18,0.88,0.79*04

$GPRMC,121525.000,A,0018.4965,S,07828.2637,W,3.62,274.54,140417,,,D*66

$GPVTG,274.54,T,,M,3.62,N,6.72,K,D*3C

$GPVTG,275.32,T,,M,4.08,N,7.55,K,D*32

$GPGGA,121527.000,0018.4962,S,07828.2659,W,2,10,0.90,2502.4,M,13.7,M,0000,0000*53

$GPGGA,121528.000,0018.4958,S,07828.2671,W,2,10,0.90,2502.4,M,13.7,M,0000,0000*5F

$GPGSA,A,3,21,12,20,18,31,10,25,14,29,32,,,1.57,0.90,1.28*03

$GPGSA,A,3,21,12,20,18,31,10,25,14,29,32,,,1.57,0.90,1.28*03

$GPRMC,121529.000,A,0018.4955,S,07828.2684,W,4.68,287.28,140417,,,D*6B

$GPGSV,3,1,11,18,57,047,39,31,56,263,41,51,56,270,38,21,52,184,42*7C

$GPGSV,3,2,11,25,43,086,41,10,43,005,39,32,21,341,32,14,19,318,27*7D

$GPGGA,121531.000,0018.4948,S,07828.2709,W,2,10,0.90,2502.5,M,13.7,M,0000,0000*59

$GPGSA,A,3,21,12,20,18,31,10,25,14,29,32,,,1.57,0.90,1.28*03

$GPGSA,A,3,21,12,20,18,31,10,25,14,29,32,,,1.57,0.90,1.28*03

$GPRMC,121532.000,A,0018.4950,S,07828.2723,W,5.15,247.89,140417,,,D*64

$GPRMC,121533.000,A,0018.4959,S,07828.2734,W,5.29,225.79,140417,,,D*6E

$GPVTG,225.79,T,,M,5.29,N,9.81,K,D*3D

$GPVTG,217.48,T,,M,5.20,N,9.64,K,D*3C

$GPGGA,121535.000,0018.4982,S,07828.2752,W,2,10,0.90,2503.1,M,13.7,M,0000,0000*50

$GPGSV,3,3,11,20,15,126,24,12,11,056,33,29,10,141,29*49

$GPRMC,121535.000,A,0018.4982,S,07828.2752,W,5.26,213.04,140417,,,D*6E

$GPRMC,121536.000,A,0018.4995,S,07828.2759,W,5.15,202.80,140417,,,D*6C

$GPVTG,202.80,T,,M,5.15,N,9.54,K,D*39

$GPVTG,201.58,T,,M,5.13,N,9.51,K,D*3C

$GPGGA,121538.000,0018.5022,S,07828.2771,W,2,10,0.90,2503.6,M,13.7,M,0000,0000*59

$GPGGA,121539.000,0018.5036,S,07828.2777,W,2,10,0.90,2503.7,M,13.7,M,0000,0000*5A

$GPGSA,A,3,21,12,20,18,31,10,25,14,29,32,,,1.57,0.90,1.28*03

$GPGSA,A,3,21,12,20,18,31,10,25,14,29,32,,,1.57,0.90,1.28*03

$GPGSV,3,1,11,18,57,047,41,31,56,263,42,51,56,270,37,21,51,184,39*70

$GPVTG,204.54,T,,M,5.40,N,10.00,K,D*0F

$GPGGA,121541.000,0018.5064,S,07828.2789,W,2,10,0.90,2503.7,M,13.7,M,0000,0000*53

$GPGGA,121542.000,0018.5079,S,07828.2795,W,2,10,0.90,2503.8,M,13.7,M,0000,0000*5E

$GPGSA,A,3,21,12,20,18,31,10,25,14,29,32,,,1.57,0.90,1.28*03

$GPGSA,A,3,21,12,20,18,31,10,25,14,29,32,,,1.57,0.90,1.28*03

$GPRMC,121543.000,A,0018.5093,S,07828.2801,W,5.50,204.27,140417,,,D*68

$GPRMC,121544.000,A,0018.5107,S,07828.2808,W,5.44,203.55,140417,,,D*6D

$GPVTG,203.55,T,,M,5.44,N,10.09,K,D*04

$GPGSV,3,2,11,25,43,086,41,10,43,005,42,32,21,341,42,14,19,318,34*74

$GPGSV,3,3,11,20,15,126,36,12,11,056,39,29,10,141,34*4C

$GPGSA,A,3,21,12,20,18,31,10,25,14,29,32,,,1.57,0.90,1.28*03

$GPRMC,121546.000,A,0018.5135,S,07828.2820,W,5.43,200.75,140417,,,D*62

$GPRMC,121547.000,A,0018.5150,S,07828.2825,W,5.53,200.98,140417,,,D*67

$GPVTG,200.98,T,,M,5.53,N,10.25,K,D*0E

$GPVTG,201.98,T,,M,5.65,N,10.46,K,D*0F

$GPGGA,121549.000,0018.5179,S,07828.2836,W,2,10,0.90,2504.5,M,13.7,M,0000,0000*58

$GPGGA,121550.000,0018.5194,S,07828.2842,W,2,10,0.90,2504.6,M,13.7,M,0000,0000*53

$GPGSA,A,3,21,12,20,18,31,10,25,14,29,32,,,1.57,0.90,1.28*03

$GPRMC,121550.000,A,0018.5194,S,07828.2842,W,5.78,201.50,140417,,,D*64

$GPVTG,201.50,T,,M,5.78,N,10.71,K,D*03

$GPVTG,199.86,T,,M,5.77,N,10.68,K,D*0D

$GPGGA,121552.000,0018.5225,S,07828.2854,W,2,10,0.90,2504.7,M,13.7,M,0000,0000*5E

$GPGGA,121553.000,0018.5241,S,07828.2861,W,2,10,0.90,2504.8,M,13.7,M,0000,0000*54

$GPGSA,A,3,21,12,20,18,31,10,25,14,29,32,,,1.57,0.90,1.28*03

$GPGSA,A,3,21,12,20,18,31,10,25,14,29,32,,,1.57,0.90,1.28*03

$GPRMC,121554.000,A,0018.5257,S,07828.2869,W,6.51,206.07,140417,,,D*68

$GPGSV,3,1,11,18,57,047,41,31,56,263,41,51,56,270,36,21,51,184,39*72

$GPGSV,3,2,11,25,43,086,41,10,43,005,41,32,21,341,40,14,19,318,27*77

$GPGGA,121556.000,0018.5289,S,07828.2883,W,2,10,0.90,2505.7,M,13.7,M,0000,0000*57

$GPGSA,A,3,21,12,20,18,31,10,25,14,29,32,,,1.57,0.90,1.28*03

$GPGSA,A,3,21,12,20,18,31,10,25,14,29,32,,,1.57,0.90,1.28*03

$GPRMC,121557.000,A,0018.5305,S,07828.2888,W,6.04,200.30,140417,,,D*60

$GPRMC,121558.000,A,0018.5321,S,07828.2895,W,5.80,203.51,140417,,,D*6E

$GPVTG,203.51,T,,M,5.80,N,10.74,K,D*02

$GPVTG,202.24,T,,M,5.87,N,10.88,K,D*05

$GPGGA,121600.000,0018.5350,S,07828.2907,W,2,10,0.90,2507.3,M,13.7,M,0000,0000*59

$GPGSV,3,3,11,20,15,126,28,12,11,056,30,29,10,141,31*4F

$GPRMC,121600.000,A,0018.5350,S,07828.2907,W,5.74,201.93,140417,,,D*6B

$GPRMC,121601.000,A,0018.5365,S,07828.2912,W,5.64,199.09,140417,,,D*68

$GPVTG,199.09,T,,M,5.64,N,10.45,K,D*07

$GPVTG,200.93,T,,M,5.51,N,10.22,K,D*00

$GPGGA,121603.000,0018.5394,S,07828.2922,W,2,10,0.90,2508.4,M,13.7,M,0000,0000*5D

$GPGGA,121604.000,0018.5409,S,07828.2928,W,2,10,0.90,2508.6,M,13.7,M,0000,0000*51

$GPGSA,A,3,21,12,20,18,31,10,25,14,29,32,,,1.57,0.90,1.28*03

$GPGSA,A,3,21,12,20,18,31,10,25,14,29,32,,,1.56,0.90,1.28*02

$GPGSV,3,1,11,18,57,047,41,31,56,263,42,51,56,270,38,21,51,184,39*7F

$GPVTG,203.59,T,,M,5.80,N,10.75,K,D*0B

$GPGGA,121606.000,0018.5439,S,07828.2941,W,2,10,0.90,2509.0,M,13.7,M,0000,0000*58

$GPGGA,121607.000,0018.5454,S,07828.2947,W,2,10,0.90,2509.2,M,13.7,M,0000,0000*56

$GPGSA,A,3,21,12,20,18,31,10,25,14,29,32,,,1.57,0.90,1.28*03

$GPGSA,A,3,21,12,20,18,31,10,25,14,29,32,,,1.56,0.90,1.28*02

$GPRMC,121608.000,A,0018.5470,S,07828.2954,W,6.26,200.77,140417,,,D*6F

$GPRMC,121609.000,A,0018.5487,S,07828.2960,W,6.24,199.83,140417,,,D*6B

$GPVTG,199.83,T,,M,6.24,N,11.56,K,D*01

$GPGSV,3,2,11,25,43,086,40,10,43,005,42,32,21,341,38,14,19,318,37*7B

$GPGSV,3,3,11,20,15,126,33,29,10,141,31,12,10,055,27*41

$GPGSA,A,3,21,12,20,18,31,10,25,14,29,32,,,1.56,0.90,1.28*02

$GPRMC,121611.000,A,0018.5520,S,07828.2973,W,6.41,203.66,140417,,,D*64

$GPRMC,121612.000,A,0018.5536,S,07828.2980,W,6.47,203.51,140417,,,D*6E

$GPVTG,203.51,T,,M,6.47,N,11.99,K,D*08

$GPVTG,200.21,T,,M,6.57,N,12.18,K,D*07

$GPGGA,121614.000,0018.5570,S,07828.2993,W,2,10,0.90,2509.9,M,13.7,M,0000,0000*51

$GPGGA,121615.000,0018.5587,S,07828.2999,W,2,10,0.90,2510.1,M,13.7,M,0000,0000*52

$GPGSA,A,3,21,12,20,18,31,10,25,14,29,32,,,1.56,0.90,1.28*02

$GPVTG,201.53,T,,M,6.70,N,12.42,K,D*09

$GPGGA,121616.000,0018.5605,S,07828.3006,W,2,10,0.90,2510.2,M,13.7,M,0000,0000*55

$GPGGA,121617.000,0018.5621,S,07828.3012,W,2,10,0.90,2510.2,M,13.7,M,0000,0000*57

$GPGSA,A,3,21,12,20,18,31,10,25,14,29,32,,,1.56,0.90,1.28*02

$GPGSA,A,3,21,12,20,18,31,10,25,14,32,,,,1.75,0.98,1.45*0B

$GPRMC,121618.000,A,0018.5639,S,07828.3018,W,6.71,198.05,140417,,,D*64

$GPRMC,121619.000,A,0018.5657,S,07828.3024,W,6.80,199.59,140417,,,D*64

$GPVTG,199.59,T,,M,6.80,N,12.60,K,D*0E

$GPGSV,3,2,11,25,43,085,39,10,43,005,42,32,21,341,34,14,19,318,26*7A

$GPGSV,3,3,11,20,15,126,21,29,10,141,20,12,10,055,25*40

$GPGSA,A,3,21,12,18,31,10,25,14,29,32,,,,1.22,0.92,0.80*02

$GPRMC,121621.000,A,0018.5693,S,07828.3040,W,7.04,203.04,140417,,,D*60

$GPRMC,121622.000,A,0018.5710,S,07828.3047,W,6.77,204.39,140417,,,D*62

$GPVTG,204.39,T,,M,6.77,N,12.55,K,D*01

$GPVTG,201.29,T,,M,7.06,N,13.08,K,D*0B

$GPGGA,121624.000,0018.5747,S,07828.3062,W,2,10,0.90,2510.5,M,13.7,M,0000,0000*56

