
$GPRMC,214506.000,A,0010.7725,S,07828.9466,W,0.14,15.2101,,*D
$GPGGA,214507.000,0010.7726,S,07828.9466,W,1,08,0.96,2802.4,M,13.7,M,,*55
$GPRMC,214507.000,A,0010.7726,S,07828.9466,W,0.10,15.9,027,A6$GPGGA,214508.000,0010.7726,S,07828.9466,W,1,08,0.96,280
$GPRMC,214508.000,A,0010.7726,S,07828.9466,W,0.09,23.9101,,*F
$GPGGA,214509.000,0010.7726,S,07828.9466,W,1,08,0.96,2802.4,M,13.7,M,,*5B
$GPRMC,214509.000,A,0010.7726,S,07828.9466,W,0.03,3224,027,A6$GPGGA,214510.000,0010.7726,S,07828.9466,W,1,08,0.96,280
$GPRMC,214510.000,A,0010.7726,S,07828.9466,W,0.04,1823,027,A6$GPGGA,214511.000,0010.7726,S,07828.9466,W,1,08,0.96,280
$GPRMC,214511.000,A,0010.7726,S,07828.9466,W,0.07,2127,027,A6$GPGGA,214512.000,0010.7726,S,07828.9466,W,1,08,0.96,280
$GPRMC,214512.000,A,0010.7726,S,07828.9466,W,0.03,36.5101,,*9
$GPGGA,214513.000,0010.7726,S,07828.9466,W,1,08,0.96,2802.4,M,13.7,M,,*50
$GPRMC,214513.000,A,0010.7726,S,07828.9466,W,0.16,15.7,027,A6$GPGGA,214514.000,0010.7727,S,07828.9466,W,1,08,0.96,280
$GPRMC,214514.000,A,0010.7727,S,07828.9466,W,0.07,2324,027,A6$GPGGA,214515.000,0010.7727,S,07828.9466,W,1,08,0.96,280
$GPRMC,214515.000,A,0010.7727,S,07828.9466,W,0.03,1040,027,A6$GPGGA,214516.000,0010.7727,S,07828.9466,W,1,08,0.96,280
$GPRMC,214516.000,A,0010.7727,S,07828.9466,W,0.02,91.0101,,A5$GPGGA,214517.000,0010.7727,S,07828.9466,W,1,08,0.96,280
$GPRMC,214517.000,A,0010.7727,S,07828.9466,W,0.02,28.4101,,*4$GPGGA,214518.000,0010.7727,S,07828.9466,W,1,08,0.96,280
$GPRMC,214518.000,A,0010.7727,S,07828.9466,W,0.02,2384,027,A6$GPGGA,214519.000,0010.7727,S,07828.9466,W,1,08,0.96,280
$GPRMC,214519.000,A,0010.7727,S,07828.9466,W,0.02,2632,027,A6$GPGGA,214520.000,0010.7727,S,07828.9466,W,1,08,0.96,280
$GPRMC,214520.000,A,0010.7727,S,07828.9466,W,0.07,3546,027,A*2
$GPGGA,214521.000,0010.7727,S,07828.9466,W,1,08,1.02,2802.4,M,13.7,M,,*5C
$GPRMC,214521.000,A,0010.7727,S,07828.9466,W,0.08,605,027,A5$GPGGA,214522.000,0010.7727,S,07828.9466,W,1,08,0.96,2802
$GPRMC,214522.000,A,0010.7727,S,07828.9466,W,0.01,685,027,A5$GPGGA,214523.000,0010.7727,S,07828.9466,W,1,08,0.96,2802
$GPRMC,214523.000,A,0010.7727,S,07828.9466,W,0.10,31.0,027,A6$GPGGA,214524.000,0010.7726,S,07828.9466,W,1,08,0.96,280
$GPRMC,214524.000,A,0010.7726,S,07828.9466,W,0.11,22.8101,,*C
$GPGGA,214525.000,0010.7726,S,07828.9466,W,1,08,1.02,2802.5,M,13.7,M,,*58
$GPRMC,214525.000,A,0010.7726,S,07828.9466,W,0.15,34.4101,,*4
$GPGGA,214526.000,0010.7726,S,07828.9466,W,1,08,1.02,2802.5,M,13.7,M,,*5B
$GPRMC,214526.000,A,0010.7726,S,07828.9466,W,0.02,328.0101,,*6
$GPGGA,214527.000,0010.7726,S,07828.9466,W,1,08,1.02,2802.5,M,13.7,M,,*5A
$GPRMC,214527.000,A,0010.7726,S,07828.9466,W,0.01,30.2101,,*E
$GPGGA,214528.000,0010.7726,S,07828.9466,W,1,08,1.02,2802.5,M,13.7,M,,*55
$GPRMC,214528.000,A,0010.7726,S,07828.9466,W,0.02,859,027,A5$GPGGA,214529.000,0010.7726,S,07828.9466,W,1,08,1.02,2802
$GPRMC,214529.000,A,0010.7726,S,07828.9466,W,0.02,21.7101,,*9
$GPGGA,214530.000,0010.7726,S,07828.9466,W,1,08,1.02,2802.5,M,13.7,M,,*5C
$GPRMC,214530.000,A,0010.7726,S,07828.9466,W,0.03,22.4101,,*C
$GPGGA,214531.000,0010.7726,S,07828.9466,W,1,08,1.02,2802.5,M,13.7,M,,*5D
$GPRMC,214531.000,A,0010.7726,S,07828.9466,W,0.09,28.4101,,*A
$GPGGA,214532.000,0010.7726,S,07828.9466,W,1,08,1.02,2802.5,M,13.7,M,,*5E
$GPRMC,214532.000,A,0010.7726,S,07828.9466,W,0.10,26.0101,,*E
$GPGGA,214533.000,0010.7726,S,07828.9466,W,1,08,1.02,2802.5,M,13.7,M,,*5F
$GPRMC,214533.000,A,0010.7726,S,07828.9466,W,0.13,2443,027,A6$GPGGA,214534.000,0010.7726,S,07828.9467,W,1,08,1.02,280
$GPRMC,214534.000,A,0010.7726,S,07828.9467,W,0.15,2330,027,A6$GPGGA,214535.000,0010.7727,S,07828.9467,W,1,08,1.02,280
$GPRMC,214535.000,A,0010.7727,S,07828.9467,W,0.19,2311,027,A6$GPGGA,214536.000,0010.7727,S,07828.9467,W,1,08,1.02,280
$GPRMC,214536.000,A,0010.7727,S,07828.9467,W,0.20,22.1101,,*6$GPGGA,214537.000,0010.7727,S,07828.9468,W,1,08,1.02,280
$GPRMC,214537.000,A,0010.7727,S,07828.9468,W,0.23,2244,027,A6$GPGGA,214538.000,0010.7728,S,07828.9468,W,1,08,1.02,280
$GPRMC,214538.000,A,0010.7728,S,07828.9468,W,0.26,2173,027,A6$GPGGA,214539.000,0010.7728,S,07828.9469,W,1,08,1.02,280
$GPRMC,214539.000,A,0010.7728,S,07828.9469,W,0.29,214.7101,,*8
$GPGGA,214540.000,0010.7729,S,07828.9469,W,1,08,1.02,2802.5,M,13.7,M,,*5B
$GPRMC,214540.000,A,0010.7729,S,07828.9469,W,0.32,210.3101,,*9
$GPGGA,214541.000,0010.7730,S,07828.9470,W,1,08,1.02,2802.5,M,13.7,M,,*5A
$GPRMC,214541.000,A,0010.7730,S,07828.9470,W,0.35,21.9101,,*5
$GPGGA,214542.000,0010.7731,S,07828.9470,W,1,08,1.02,2802.5,M,13.7,M,,*58
$GPRMC,214542.000,A,0010.7731,S,07828.9470,W,0.43,2097,027,A6$GPGGA,214543.000,0010.7732,S,07828.9471,W,1,08,1.02,280
$GPRMC,214543.000,A,0010.7732,S,07828.9471,W,0.50,20.0,027,A6$GPGGA,214544.000,0010.7733,S,07828.9471,W,1,08,1.02,280
$GPRMC,214544.000,A,0010.7733,S,07828.9471,W,0.59,2027,027,A6$GPGGA,214545.000,0010.7737,S,07828.9472,W,1,08,1.02,280
$GPRMC,214545.000,A,0010.7737,S,07828.9472,W,0.66,20.4101,,*1
$GPGGA,214546.000,0010.7741,S,07828.9474,W,1,08,1.02,2802.2,M,13.7,M,,*58
$GPRMC,214546.000,A,0010.7741,S,07828.9474,W,0.71,20.0101,,*D
$GPGGA,214547.000,0010.7744,S,07828.9476,W,1,08,1.02,2802.0,M,13.7,M,,*5C
$GPRMC,214547.000,A,0010.7744,S,07828.9476,W,0.76,20.4101,,*B
$GPGGA,214548.000,0010.7748,S,07828.9478,W,1,08,1.02,2801.7,M,13.7,M,,*55
$GPRMC,214548.000,A,0010.7748,S,07828.9478,W,0.81,20.4101,,*D
$GPGGA,214549.000,0010.7752,S,07828.9480,W,1,08,1.02,2801.5,M,13.7,M,,*5A
$GPRMC,214549.000,A,0010.7752,S,07828.9480,W,0.88,20.3101,,*9
$GPGGA,214550.000,0010.7756,S,07828.9482,W,1,08,1.02,2801.3,M,13.7,M,,*52
$GPRMC,214550.000,A,0010.7756,S,07828.9482,W,0.93,20.6101,,*A
$GPGGA,214551.000,0010.7761,S,07828.9484,W,1,08,1.02,2801.1,M,13.7,M,,*53
$GPRMC,214551.000,A,0010.7761,S,07828.9484,W,1.02,2007,027,A6$GPGGA,214552.000,0010.7770,S,07828.9483,W,1,08,1.02,280
$GPRMC,214552.000,A,0010.7770,S,07828.9483,W,1.17,197.5101,,*B
$GPGGA,214553.000,0010.7783,S,07828.9487,W,1,08,0.96,2800.3,M,13.7,M,,*51
$GPRMC,214553.000,A,0010.7783,S,07828.9487,W,1.80,19.71027,A6$GPGGA,214554.000,0010.7797,S,07828.9487,W,1,08,0.96,280
$GPRMC,214554.000,A,0010.7797,S,07828.9487,W,2.51,1868,027,A*9
$GPGGA,214555.000,0010.7805,S,07828.9489,W,1,08,0.96,2800.2,M,13.7,M,,*59
$GPRMC,214555.000,A,0010.7805,S,07828.9489,W,1.97,185.6101,,*8
$GPGGA,214556.000,0010.7812,S,07828.9489,W,1,08,0.96,2800.1,M,13.7,M,,*5F
$GPRMC,214556.000,A,0010.7812,S,07828.9489,W,2.42,1884,027,A6$GPGGA,214557.000,0010.7820,S,07828.9491,W,1,08,0.96,280
$GPRMC,214557.000,A,0010.7820,S,07828.9491,W,2.49,1905,021,,*3
$GPGGA,214558.000,0010.7830,S,07828.9495,W,1,08,0.96,2799.8,M,13.7,M,,*5A
$GPRMC,214558.000,A,0010.7830,S,07828.9495,W,2.33,1919,027,A6$GPGGA,214559.000,0010.7839,S,07828.9497,W,1,08,0.96,279
$GPRMC,214559.000,A,0010.7839,S,07828.9497,W,2.50,17.9101,,*7
$GPGGA,214600.000,0010.7846,S,07828.9498,W,1,08,0.96,2799.3,M,13.7,M,,*53
$GPRMC,214600.000,A,0010.7846,S,07828.9498,W,2.13,18.0101,,*6$GPGGA,214601.000,0010.7854,S,07828.9502,W,1,08,0.96,279
$GPRMC,214601.000,A,0010.7854,S,07828.9502,W,2.03,199.1,027,A6$GPGGA,214602.000,0010.7862,S,07828.9505,W,1,08,0.96,27
$GPRMC,214602.000,A,0010.7862,S,07828.9505,W,1.81,1930,101,,*7
$GPGGA,214603.000,0010.7869,S,07828.9509,W,1,08,0.96,2798.7,M,13.7,M,,*51
$GPRMC,214603.000,A,0010.7869,S,07828.9509,W,2.03,196.7101,,*7
$GPGGA,214604.000,0010.7876,S,07828.9512,W,1,08,0.96,2798.7,M,13.7,M,,*52
$GPRMC,214604.000,A,0010.7876,S,07828.9512,W,2.33,204.8101,,*1
$GPGGA,214605.000,0010.7882,S,07828.9517,W,1,08,0.96,2798.6,M,13.7,M,,*5C
$GPRMC,214605.000,A,0010.7882,S,07828.9517,W,2.63,221.21017,A6$GPGGA,214606.000,0010.7887,S,07828.9523,W,1,08,0.96,27
$GPRMC,214606.000,A,0010.7887,S,07828.9523,W,2.77,237.9,027,A6$GPGGA,214607.000,0010.7892,S,07828.9531,W,1,08,0.96,27
$GPRMC,214607.000,A,0010.7892,S,07828.9531,W,2.98,253.9,027,A6$GPGGA,214608.000,0010.7894,S,07828.9539,W,1,08,0.96,27
$GPRMC,214608.000,A,0010.7894,S,07828.9539,W,2.80,299.4,027,A6$GPGGA,214609.000,0010.7892,S,07828.9541,W,1,08,0.96,27
$GPRMC,214609.000,A,0010.7892,S,07828.9541,W,1.77,343.8101,,*8
$GPGGA,214610.000,0010.7891,S,07828.9542,W,1,08,0.96,2798.0,M,13.7,M,,*5C
$GPRMC,214610.000,A,0010.7891,S,07828.9542,W,1.76,10.45101,,*D
$GPGGA,214611.000,0010.7894,S,07828.9539,W,1,08,1.02,2797.9,M,13.7,M,,*5E
$GPRMC,214611.000,A,0010.7894,S,07828.9539,W,2.06,66.1101,,*0$GPGGA,214612.000,0010.7896,S,07828.9534,W,1,08,0.96,279
$GPRMC,214612.000,A,0010.7896,S,07828.9534,W,1.99,82.4,101,,*F
$GPGGA,214613.000,0010.7897,S,07828.9531,W,1,08,0.96,2797.7,M,13.7,M,,*55
$GPRMC,214613.000,A,0010.7897,S,07828.9531,W,1.68,55.2101,,A5$GPGGA,214614.000,0010.7894,S,07828.9525,W,1,08,0.96,279
$GPRMC,214614.000,A,0010.7894,S,07828.9525,W,2.98,34.70101,,*E
$GPGGA,214615.000,0010.7889,S,07828.9522,W,1,08,0.96,2797.5,M,13.7,M,,*5C
$GPRMC,214615.000,A,0010.7889,S,07828.9522,W,3.76,21.7,027,A5$GPGGA,214616.000,0010.7882,S,07828.9518,W,1,08,0.96,279
$GPRMC,214616.000,A,0010.7882,S,07828.9518,W,4.25,19.12101,,*E
$GPGGA,214617.000,0010.7873,S,07828.9513,W,1,08,1.02,2797.5,M,13.7,M,,*55
$GPRMC,214617.000,A,0010.7873,S,07828.9513,W,4.90,19.0,027,A5$GPGGA,214618.000,0010.7861,S,07828.9509,W,1,08,1.02,279
$GPRMC,214618.000,A,0010.7861,S,07828.9509,W,5.52,14.01101,,*3
$GPGGA,214619.000,0010.7846,S,07828.9506,W,1,08,1.02,2797.4,M,13.7,M,,*58
$GPRMC,214619.000,A,0010.7846,S,07828.9506,W,6.13,12.01027,A5$GPGGA,214620.000,0010.7830,S,07828.9503,W,1,08,1.02,279
$GPRMC,214620.000,A,0010.7830,S,07828.9503,W,6.53,9.73101,,A6$GPGGA,214621.000,0010.7816,S,07828.9500,W,1,08,1.02,279
$GPRMC,214621.000,A,0010.7816,S,07828.9500,W,6.22,10.21017,A5$GPGGA,214622.000,0010.7799,S,07828.9498,W,1,08,1.02,279
$GPRMC,214622.000,A,0010.7799,S,07828.9498,W,6.37,7.69101,,*7
$GPGGA,214623.000,0010.7784,S,07828.9495,W,1,08,1.02,2797.3,M,13.7,M,,*5C
$GPRMC,214623.000,A,0010.7784,S,07828.9495,W,6.17,9.13101,,*6
$GPGGA,214624.000,0010.7768,S,07828.9491,W,1,08,1.02,2797.3,M,13.7,M,,*5D
$GPRMC,214624.000,A,0010.7768,S,07828.9491,W,6.11,14.40101,,*B
$GPGGA,214625.000,0010.7754,S,07828.9485,W,1,08,1.02,2797.4,M,13.7,M,,*51
$GPRMC,214625.000,A,0010.7754,S,07828.9485,W,5.43,17.45101,,*2
$GPGGA,214626.000,0010.7742,S,07828.9480,W,1,08,1.02,2797.5,M,13.7,M,,*51
$GPRMC,214626.000,A,0010.7742,S,07828.9480,W,4.81,21.33101,,*8
$GPGGA,214627.000,0010.7731,S,07828.9476,W,1,08,1.02,2797.5,M,13.7,M,,*5D
$GPRMC,214627.000,A,0010.7731,S,07828.9476,W,4.45,19.8101,,*5$GPGGA,214628.000,0010.7721,S,07828.9474,W,1,08,1.02,279
$GPRMC,214628.000,A,0010.7721,S,07828.9474,W,3.72,18.50101,,*C
$GPGGA,214629.000,0010.7714,S,07828.9473,W,1,08,0.96,2797.3,M,13.7,M,,*5B
$GPRMC,214629.000,A,0010.7714,S,07828.9473,W,3.05,12.3,027,A5$GPGGA,214630.000,0010.7709,S,07828.9469,W,1,08,1.02,279
$GPRMC,214630.000,A,0010.7709,S,07828.9469,W,2.60,23.21101,,*F
$GPGGA,214631.000,0010.7711,S,07828.9467,W,1,08,0.96,2797.1,M,13.7,M,,*50
$GPRMC,214631.000,A,0010.7711,S,07828.9467,W,1.52,63.5101,,*0$GPGGA,214632.000,0010.7709,S,07828.9465,W,1,08,0.96,279
$GPRMC,214632.000,A,0010.7709,S,07828.9465,W,0.69,85.00101,,*5
$GPGGA,214633.000,0010.7709,S,07828.9464,W,1,08,0.96,2796.9,M,13.7,M,,*51
$GPRMC,214633.000,A,0010.7709,S,07828.9464,W,0.46,115.2101,,*3
$GPGGA,214634.000,0010.7711,S,07828.9464,W,1,08,0.96,2797.2,M,13.7,M,,*55
$GPRMC,214634.000,A,0010.7711,S,07828.9464,W,0.82,108.7101,,*D$GPGGA,214635.000,0010.7712,S,07828.9462,W,1,08,0.96,27
$GPRMC,214635.000,A,0010.7712,S,07828.9462,W,0.51,317.4,027,A6$GPGGA,214636.000,0010.7711,S,07828.9463,W,1,08,0.96,27
$GPRMC,214636.000,A,0010.7711,S,07828.9463,W,0.15,66.7,027,A5$GPGGA,214637.000,0010.7710,S,07828.9462,W,1,08,0.96,279
$GPRMC,214637.000,A,0010.7710,S,07828.9462,W,0.16,17.9,101,,*1
$GPGGA,214638.000,0010.7710,S,07828.9462,W,1,08,0.96,2797.1,M,13.7,M,,*5D
$GPRMC,214638.000,A,0010.7710,S,07828.9462,W,0.31,173.4,027,A6$GPGGA,214639.000,0010.7711,S,07828.9462,W,1,08,0.96,27
$GPRMC,214639.000,A,0010.7711,S,07828.9462,W,0.35,152.5101,,*2
$GPGGA,214640.000,0010.7712,S,07828.9462,W,1,08,0.96,2797.1,M,13.7,M,,*50
$GPRMC,214640.000,A,0010.7712,S,07828.9462,W,0.21,127.8101,,*2
$GPGGA,214641.000,0010.7712,S,07828.9461,W,1,08,0.96,2797.0,M,13.7,M,,*53
$GPRMC,214641.000,A,0010.7712,S,07828.9461,W,0.22,97.4101,,*3
$GPGGA,214642.000,0010.7712,S,07828.9460,W,1,08,0.96,2797.0,M,13.7,M,,*51
$GPRMC,214642.000,A,0010.7712,S,07828.9460,W,0.30,124.6101,,*4
$GPGGA,214643.000,0010.7713,S,07828.9460,W,1,08,0.96,2797.0,M,13.7,M,,*51
$GPRMC,214643.000,A,0010.7713,S,07828.9460,W,0.63,120.1101,,*8$GPGGA,214644.000,0010.7714,S,07828.9458,W,1,08,0.96,27
$GPRMC,214644.000,A,0010.7714,S,07828.9458,W,0.51,1210,101,,*3