
$GPVTG,340.32,T,,M,2.92,N,5.41,K,A*32

$GPGGA,192625.000,0010.7379,S,07828.7972,W,1,04,3.45,2703.5,M,13.7,M,,*5D

$GPGGA,192626.000,0010.7354,S,07828.7930,W,1,04,4.68,2723.2,M,13.7,M,,*5A

$GPGSA,A,3,31,16,26,14,,,,,,,,,6.58,4.68,4.63*06

$GPGSA,A,3,31,16,26,14,,,,,,,,,3.58,3.45,0.98*0B

$GPGSV,2,1,06,16,76,268,35,26,61,003,41,51,56,270,,14,41,044,39*7D

$GPGGA,192628.000,0010.7303,S,07828.7903,W,1,04,4.68,2743.8,M,13.7,M,,*5A

$GPGSA,A,3,31,16,26,14,,,,,,,,,6.58,4.68,4.63*06

$GPGSA,A,3,31,16,26,14,,,,,,,,,3.58,3.45,0.98*0B

$GPRMC,192629.000,A,0010.7292,S,07828.7895,W,1.76,349.25,160217,,,A*65

$GPRMC,192630.000,A,0010.7279,S,07828.7889,W,1.93,350.65,160217,,,A*62

$GPVTG,350.65,T,,M,1.93,N,3.57,K,A*32

$GPVTG,3.96,T,,M,2.38,N,4.41,K,A*39

$GPGGA,192632.000,0010.7252,S,07828.7883,W,1,04,4.68,2758.1,M,13.7,M,,*5E

$GPRMC,192632.000,A,0010.7252,S,07828.7883,W,2.43,358.64,160217,,,A*64

$GPVTG,358.64,T,,M,2.43,N,4.50,K,A*35

$GPVTG,1.86,T,,M,1.89,N,3.51,K,A*35

$GPGGA,192634.000,0010.7232,S,07828.7880,W,1,04,4.68,2761.6,M,13.7,M,,*50

$GPGGA,192635.000,0010.7219,S,07828.7876,W,1,04,4.69,2763.8,M,13.7,M,,*5C

$GPGSA,A,3,31,16,26,14,,,,,,,,,6.59,4.69,4.63*06

$GPGSA,A,3,31,16,26,14,,,,,,,,,6.58,4.68,4.63*06

$GPRMC,192636.000,A,0010.7211,S,07828.7873,W,1.95,10.85,160217,,,A*50

$GPGSV,2,1,07,16,76,268,37,26,61,003,40,14,41,044,36,27,34,177,*71

$GPGSV,2,2,07,48,27,270,,31,17,017,39,03,16,317,*4B

$GPGSA,A,3,31,16,26,14,,,,,,,,,6.58,4.68,4.63*06

$GPRMC,192638.000,A,0010.7188,S,07828.7870,W,2.37,10.21,160217,,,A*5B

$GPRMC,192639.000,A,0010.7177,S,07828.7866,W,1.96,12.66,160217,,,A*54

$GPVTG,12.66,T,,M,1.96,N,3.64,K,A*01

$GPVTG,7.92,T,,M,2.15,N,3.98,K,A*35

$GPGGA,192641.000,0010.7156,S,07828.7866,W,1,04,4.68,2770.3,M,13.7,M,,*5E

$GPGGA,192642.000,0010.7146,S,07828.7867,W,1,04,4.68,2770.8,M,13.7,M,,*56

$GPGSA,A,3,31,16,26,14,,,,,,,,,6.58,4.68,4.63*06

$GPVTG,4.98,T,,M,2.22,N,4.11,K,A*3E

$GPGGA,192643.000,0010.7135,S,07828.7867,W,1,04,4.68,2771.4,M,13.7,M,,*5E

$GPGGA,192644.000,0010.7127,S,07828.7865,W,1,04,4.68,2772.0,M,13.7,M,,*5F

$GPGSA,A,3,31,16,26,14,,,,,,,,,6.58,4.68,4.63*06

$GPGSA,A,3,31,16,26,14,,,,,,,,,6.58,4.68,4.63*06

$GPRMC,192645.000,A,0010.7120,S,07828.7863,W,2.27,10.47,160217,,,A*50

$GPRMC,192646.000,A,0010.7110,S,07828.7863,W,2.37,8.10,160217,,,A*6A

$GPVTG,8.10,T,,M,2.37,N,4.39,K,A*3C

$GPGSV,2,2,08,33,18,090,31,31,17,017,40,03,16,317,,32,,,30*46

$GPRMC,192647.000,A,0010.7101,S,07828.7868,W,2.45,359.37,160217,,,A*67

$GPRMC,192648.000,A,0010.7094,S,07828.7867,W,2.41,0.16,160217,,,A*62

$GPVTG,0.16,T,,M,2.41,N,4.47,K,A*3A

$GPVTG,352.77,T,,M,2.84,N,5.27,K,A*37

$GPGGA,192650.000,0010.7076,S,07828.7875,W,1,04,4.68,2772.9,M,13.7,M,,*57

$GPGGA,192651.000,0010.7068,S,07828.7876,W,1,04,4.68,2773.1,M,13.7,M,,*53

$GPGSA,A,3,31,16,26,14,,,,,,,,,6.59,4.68,4.63*07

$GPGSA,A,3,31,16,26,14,,,,,,,,,6.58,4.68,4.63*06

$GPGSV,2,1,08,16,76,268,37,26,61,003,42,14,41,044,45,27,34,177,34*7F

$GPGGA,192653.000,0010.7059,S,07828.7871,W,1,04,4.68,2772.6,M,13.7,M,,*52

$GPGSA,A,3,31,16,26,14,,,,,,,,,6.58,4.68,4.63*06

$GPGSA,A,3,31,16,26,14,,,,,,,,,6.58,4.68,4.63*06

$GPRMC,192654.000,A,0010.7050,S,07828.7873,W,2.16,359.95,160217,,,A*64

$GPRMC,192655.000,A,0010.7044,S,07828.7871,W,2.18,2.46,160217,,,A*6F

$GPVTG,2.46,T,,M,2.18,N,4.04,K,A*36

$GPVTG,4.92,T,,M,2.22,N,4.11,K,A*34

$GPGGA,192657.000,0010.7033,S,07828.7868,W,1,04,4.68,2773.1,M,13.7,M,,*54

$GPRMC,192657.000,A,0010.7033,S,07828.7868,W,2.21,2.85,160217,,,A*60

$GPVTG,2.85,T,,M,2.21,N,4.10,K,A*36

$GPVTG,6.72,T,,M,2.28,N,4.23,K,A*33

$GPGGA,192659.000,0010.7024,S,07828.7865,W,1,04,4.68,2773.3,M,13.7,M,,*53

$GPGGA,192700.000,0010.7018,S,07828.7861,W,1,04,4.68,2773.5,M,13.7,M,,*53

$GPGSA,A,3,31,16,26,14,,,,,,,,,6.59,4.68,4.63*07

$GPGSA,A,3,31,16,26,14,,,,,,,,,6.59,4.68,4.63*07

$GPRMC,192701.000,A,0010.7013,S,07828.7860,W,1.96,2.78,160217,,,A*65

$GPGSV,2,1,08,16,76,270,17,26,61,003,38,51,56,270,,14,41,044,41*7B

$GPGSV,2,2,08,27,34,177,28,31,17,017,40,03,16,317,,32,,,28*44

$GPGSA,A,3,31,16,26,14,,,,,,,,,6.58,4.68,4.63*06

$GPRMC,192703.000,A,0010.7003,S,07828.7856,W,1.90,7.58,160217,,,A*62

$GPRMC,192704.000,A,0010.6997,S,07828.7852,W,1.95,17.25,160217,,,A*5A

$GPVTG,17.25,T,,M,1.95,N,3.61,K,A*05

$GPVTG,23.07,T,,M,1.96,N,3.63,K,A*03

$GPGGA,192706.000,0010.6985,S,07828.7845,W,1,04,3.43,2774.7,M,13.7,M,,*54

$GPGGA,192707.000,0010.6978,S,07828.7842,W,1,04,3.43,2774.9,M,13.7,M,,*5E

$GPGSA,A,3,31,16,26,14,,,,,,,,,3.56,3.43,0.98*03

$GPVTG,21.14,T,,M,2.12,N,3.93,K,A*03

$GPGGA,192708.000,0010.6972,S,07828.7843,W,1,04,3.43,2775.1,M,13.7,M,,*53

$GPGGA,192709.000,0010.6964,S,07828.7839,W,1,04,4.68,2775.3,M,13.7,M,,*54

$GPGSA,A,3,31,16,26,14,,,,,,,,,6.58,4.68,4.63*06

$GPGSA,A,3,31,16,26,14,,,,,,,,,6.59,4.68,4.64*00

$GPRMC,192710.000,A,0010.6955,S,07828.7838,W,2.43,11.79,160217,,,A*5A

$GPRMC,192711.000,A,0010.6946,S,07828.7837,W,2.48,9.85,160217,,,A*67

$GPVTG,9.85,T,,M,2.48,N,4.59,K,A*3F

$GPGSV,2,2,08,48,27,270,28,31,17,017,44,03,16,317,,32,,,21*46

$GPRMC,192712.000,A,0010.6939,S,07828.7834,W,2.31,15.41,160217,,,A*54

$GPRMC,192713.000,A,0010.6933,S,07828.7832,W,2.33,16.69,160217,,,A*52

$GPVTG,16.69,T,,M,2.33,N,4.32,K,A*02

$GPVTG,13.74,T,,M,2.35,N,4.35,K,A*0A

$GPGGA,192715.000,0010.6920,S,07828.7830,W,1,04,4.68,2776.3,M,13.7,M,,*53

$GPGGA,192716.000,0010.6916,S,07828.7830,W,1,04,4.68,2776.3,M,13.7,M,,*55

$GPGSA,A,3,31,16,26,14,,,,,,,,,6.59,4.68,4.64*00

$GPGSA,A,3,31,16,26,14,,,,,,,,,6.59,4.68,4.64*00

$GPGSV,2,1,08,16,76,270,30,26,60,003,43,14,41,044,42,27,34,177,25*76

$GPGGA,192718.000,0010.6906,S,07828.7828,W,1,04,4.68,2776.5,M,13.7,M,,*55

$GPGSA,A,3,31,16,26,14,,,,,,,,,6.59,4.68,4.64*00

$GPGSA,A,3,31,16,26,14,,,,,,,,,6.59,4.68,4.64*00

$GPRMC,192719.000,A,0010.6902,S,07828.7827,W,1.82,4.76,160217,,,A*6A

$GPRMC,192720.000,A,0010.6895,S,07828.7827,W,2.10,5.99,160217,,,A*67

$GPVTG,5.99,T,,M,2.10,N,3.90,K,A*31

$GPVTG,11.49,T,,M,1.88,N,3.48,K,A*0E

$GPGGA,192722.000,0010.6885,S,07828.7823,W,1,04,4.68,2777.0,M,13.7,M,,*59

$GPRMC,192722.000,A,0010.6885,S,07828.7823,W,1.92,11.90,160217,,,A*55

$GPVTG,11.90,T,,M,1.92,N,3.55,K,A*0D

$GPGSA,A,3,31,16,26,14,,,,,,,,,6.59,4.68,4.63*07

$GPRMC,192726.000,A,0010.6863,S,07828.7820,W,1.86,2.07,160217,,,A*63

$GPGSV,2,1,08,16,76,270,19,26,60,003,42,14,41,044,43,27,34,177,27*7F

$GPGSV,2,2,08,31,17,018,44,03,16,317,26,34,,,,32,,,42*79

$GPRMC,192729.000,A,0010.6845,S,07828.7815,W,1.82,7.78,160217,,,A*67

$GPVTG,7.78,T,,M,1.82,N,3.38,K,A*36

$GPVTG,7.31,T,,M,1.76,N,3.27,K,A*3E

$GPGGA,192731.000,0010.6833,S,07828.7812,W,6,03,80.34,2778.6,M,13.7,M,,*68

$GPVTG,7.96,T,,M,1.47,N,2.73,K,A*31

$GPGGA,192733.000,0010.6827,S,07828.7811,W,1,04,4.68,2778.9,M,13.7,M,,*56

$GPGGA,192734.000,0010.6819,S,07828.7806,W,1,04,4.68,2779.3,M,13.7,M,,*51

$GPGSA,A,3,31,16,26,14,,,,,,,,,6.59,4.68,4.64*00

$GPGSA,A,3,31,16,26,14,,,,,,,,,3.55,3.41,0.98*02

$GPRMC,192735.000,A,0010.6814,S,07828.7806,W,1.74,12.39,160217,,,A*54

$GPRMC,192736.000,A,0010.6808,S,07828.7803,W,1.56,14.55,160217,,,A*53

$GPVTG,14.55,T,,M,1.56,N,2.89,K,A*09

$GPGSV,2,2,08,31,17,018,43,03,16,317,22,36,,,,32,,,41*7B

$GPRMC,192737.000,A,0010.6804,S,07828.7802,W,1.57,11.21,160217,,,A*58

$GPRMC,192738.000,A,0010.6799,S,07828.7801,W,1.56,10.18,160217,,,A*55

$GPVTG,10.18,T,,M,1.56,N,2.89,K,A*04

$GPGSA,A,1,31,26,14,,,,,,,,,,99.99,80.38,65.71*35

$GPGSV,2,1,07,16,76,271,21,26,60,003,40,14,41,045,41,27,34,177,29*75

$GPRMC,192747.000,A,0010.6751,S,07828.7792,W,1.99,4.02,160217,,,A*61

$GPVTG,4.02,T,,M,1.99,N,3.69,K,A*36

$GPGSA,A,3,31,16,26,14,,,,,,,,,6.60,4.68,4.65*0B

$GPRMC,192751.000,A,0010.6727,S,07828.7786,W,2.14,11.48,160217,,,A*5E

$GPGSV,2,1,08,16,76,271,29,26,60,003,39,14,41,045,39,27,35,176,25*7F

$GPGSV,2,2,08,31,17,018,44,03,16,317,33,46,,,,32,,,41*7B

$GPGSA,A,3,31,16,26,14,,,,,,,,,6.59,4.68,4.64*00

$GPRMC,192753.000,A,0010.6717,S,07828.7781,W,1.92,18.20,160217,,,A*52

$GPRMC,192754.000,A,0010.6711,S,07828.7779,W,1.76,19.67,160217,,,A*5C

$GPVTG,19.67,T,,M,1.76,N,3.26,K,A*03

$GPVTG,17.23,T,,M,1.94,N,3.60,K,A*03

$GPGGA,192756.000,0010.6697,S,07828.7777,W,1,04,3.40,2781.0,M,13.7,M,,*5D

$GPGGA,192757.000,0010.6686,S,07828.7776,W,1,04,4.68,2781.8,M,13.7,M,,*58

$GPGSA,A,3,31,16,26,14,,,,,,,,,6.59,4.68,4.64*00

$GPVTG,5.51,T,,M,1.96,N,3.63,K,A*34

$GPGGA,192758.000,0010.6677,S,07828.7774,W,1,04,4.68,2782.2,M,13.7,M,,*52

$GPGGA,192759.000,0010.6668,S,07828.7773,W,1,04,4.68,2782.6,M,13.7,M,,*5E

$GPGSA,A,3,31,16,26,14,,,,,,,,,6.59,4.68,4.64*00

$GPGSA,A,3,31,16,26,14,,,,,,,,,6.59,4.68,4.64*00

$GPRMC,192800.000,A,0010.6658,S,07828.7772,W,2.76,7.97,160217,,,A*66

$GPRMC,192801.000,A,0010.6648,S,07828.7772,W,2.61,2.55,160217,,,A*6B

$GPVTG,2.55,T,,M,2.61,N,4.84,K,A*32

$GPGSV,2,2,08,31,17,018,44,03,17,317,20,47,,,,32,,,39*76

$GPRMC,192802.000,A,0010.6642,S,07828.7770,W,2.46,8.16,160217,,,A*68

$GPRMC,192803.000,A,0010.6633,S,07828.7768,W,2.48,9.87,160217,,,A*61

$GPVTG,9.87,T,,M,2.48,N,4.60,K,A*37

$GPVTG,10.54,T,,M,2.56,N,4.74,K,A*0B

$GPGGA,192805.000,0010.6618,S,07828.7765,W,1,04,4.68,2783.8,M,13.7,M,,*57

$GPGGA,192806.000,0010.6610,S,07828.7763,W,1,04,4.68,2784.0,M,13.7,M,,*55

$GPGSA,A,3,31,16,26,14,,,,,,,,,6.59,4.68,4.65*01

$GPGSA,A,3,31,16,26,14,,,,,,,,,6.59,4.68,4.64*00

$GPGSV,2,1,08,16,76,271,37,26,60,003,42,14,41,045,40,27,35,176,31*77

$GPGGA,192808.000,0010.6597,S,07828.7762,W,1,04,4.68,2784.4,M,13.7,M,,*52

$GPGSA,A,3,31,16,26,14,,,,,,,,,6.59,4.68,4.65*01

$GPGSA,A,3,31,16,26,14,,,,,,,,,6.59,4.68,4.65*01

$GPRMC,192809.000,A,0010.6588,S,07828.7764,W,2.45,358.28,160217,,,A*6B

$GPRMC,192810.000,A,0010.6583,S,07828.7762,W,2.58,5.47,160217,,,A*60

$GPVTG,5.47,T,,M,2.58,N,4.77,K,A*30

$GPVTG,4.27,T,,M,2.36,N,4.38,K,A*34

$GPGGA,192812.000,0010.6574,S,07828.7762,W,1,04,4.68,2784.2,M,13.7,M,,*52

$GPRMC,192812.000,A,0010.6574,S,07828.7762,W,2.19,0.86,160217,,,A*67

$GPVTG,0.86,T,,M,2.19,N,4.05,K,A*38

$GPVTG,5.97,T,,M,2.09,N,3.87,K,A*31

$GPGGA,192814.000,0010.6564,S,07828.7758,W,1,04,4.68,2784.0,M,13.7,M,,*5E

$GPGGA,192815.000,0010.6561,S,07828.7754,W,1,04,4.68,2783.9,M,13.7,M,,*58

$GPGSA,A,3,31,16,26,14,,,,,,,,,6.59,4.68,4.65*01

$GPGSA,A,3,31,16,26,14,,,,,,,,,3.53,3.39,0.98*0B

$GPRMC,192816.000,A,0010.6555,S,07828.7753,W,1.87,16.27,160217,,,A*5A

$GPGSV,2,1,08,16,76,273,36,26,60,003,42,51,56,270,34,14,41,045,42*72

$GPGSV,2,2,08,27,35,176,35,31,17,018,45,03,17,317,22,32,,,39*43

$GPGSA,A,3,31,16,26,14,,,,,,,,,6.59,4.68,4.65*01

$GPRMC,192818.000,A,0010.6545,S,07828.7751,W,2.10,11.18,160217,,,A*51

$GPRMC,192819.000,A,0010.6540,S,07828.7750,W,2.12,10.91,160217,,,A*56

$GPVTG,10.91,T,,M,2.12,N,3.93,K,A*0C

$GPVTG,11.62,T,,M,2.09,N,3.88,K,A*01

$GPGGA,192821.000,0010.6529,S,07828.7746,W,1,04,4.67,2783.4,M,13.7,M,,*52

$GPGGA,192822.000,0010.6524,S,07828.7745,W,1,04,4.67,2783.3,M,13.7,M,,*58

$GPGSA,A,3,31,16,26,14,,,,,,,,,6.59,4.67,4.65*0E

$GPRMC,192822.000,A,0010.6524,S,07828.7745,W,2.18,8.12,160217,,,A*60

$GPVTG,8.12,T,,M,2.18,N,4.03,K,A*3A

$GPVTG,7.99,T,,M,2.14,N,3.96,K,A*31

$GPGGA,192824.000,0010.6513,S,07828.7745,W,1,04,4.67,2783.1,M,13.7,M,,*58

$GPGGA,192825.000,0010.6507,S,07828.7745,W,1,04,4.67,2783.1,M,13.7,M,,*5C

$GPGSA,A,3,31,16,26,14,,,,,,,,,6.59,4.67,4.65*0E

$GPGSA,A,3,31,16,26,14,,,,,,,,,6.59,4.67,4.65*0E

$GPRMC,192826.000,A,0010.6502,S,07828.7744,W,2.00,3.96,160217,,,A*6F

$GPGSV,2,1,08,16,76,273,24,26,60,003,40,14,41,045,42,27,35,176,33*75

$GPGSV,2,2,08,31,17,018,45,03,17,317,21,32,,,41,22,,,22*7A

$GPGSA,A,3,31,16,26,14,,,,,,,,,6.60,4.68,4.65*0B

$GPRMC,192828.000,A,0010.6494,S,07828.7743,W,1.78,6.16,160217,,,A*69

$GPRMC,192829.000,A,0010.6489,S,07828.7743,W,1.90,5.58,160217,,,A*6B

$GPVTG,5.58,T,,M,1.90,N,3.52,K,A*39

$GPVTG,356.08,T,,M,1.90,N,3.53,K,A*38

$GPGGA,192831.000,0010.6465,S,07828.7751,W,1,05,3.00,2784.4,M,13.7,M,,*5C

$GPGGA,192832.000,0010.6455,S,07828.7756,W,1,05,3.00,2784.9,M,13.7,M,,*56

$GPGSA,A,3,31,32,16,26,14,,,,,,,,5.02,3.00,4.02*05

$GPRMC,192832.000,A,0010.6455,S,07828.7756,W,1.97,338.36,160217,,,A*66

$GPVTG,338.36,T,,M,1.97,N,3.65,K,A*3F

$GPVTG,343.97,T,,M,2.24,N,4.16,K,A*30

$GPGGA,192834.000,0010.6422,S,07828.7770,W,1,05,1.97,2787.6,M,13.7,M,,*54

$GPGGA,192835.000,0010.6415,S,07828.7773,W,1,05,1.97,2787.8,M,13.7,M,,*5C

$GPGSA,A,3,31,32,16,26,14,,,,,,,,2.20,1.97,0.97*06

$GPGSA,A,3,31,32,16,26,14,,,,,,,,2.20,1.97,0.97*06

$GPRMC,192836.000,A,0010.6409,S,07828.7776,W,1.96,339.67,160217,,,A*6D

$GPGSV,3,1,09,16,76,273,37,26,60,003,39,14,41,045,39,32,39,081,40*70

$GPGSV,3,2,09,27,35,176,24,33,18,090,26,31,17,018,46,03,17,317,39*75

$GPGGA,192838.000,0010.6394,S,07828.7783,W,1,05,1.97,2788.7,M,13.7,M,,*50

$GPGSA,A,3,31,32,16,26,14,,,,,,,,2.20,1.97,0.97*06

$GPGSA,A,3,31,32,16,26,14,,,,,,,,2.20,1.97,0.97*06

$GPRMC,192839.000,A,0010.6389,S,07828.7787,W,1.96,322.07,160217,,,A*6F

$GPRMC,192840.000,A,0010.6388,S,07828.7793,W,1.90,312.02,160217,,,A*65

$GPVTG,312.02,T,,M,1.90,N,3.53,K,A*32

$GPVTG,305.94,T,,M,1.92,N,3.57,K,A*3D

$GPGGA,192842.000,0010.6380,S,07828.7804,W,1,05,1.97,2788.8,M,13.7,M,,*57

$GPGSV,3,3,09,22,,,42*76

$GPRMC,192842.000,A,0010.6380,S,07828.7804,W,2.13,301.52,160217,,,A*61

$GPRMC,192843.000,A,0010.6376,S,07828.7809,W,2.11,300.24,160217,,,A*66

$GPVTG,300.24,T,,M,2.11,N,3.91,K,A*31

$GPVTG,292.04,T,,M,2.12,N,3.92,K,A*39

$GPGGA,192845.000,0010.6372,S,07828.7821,W,1,05,1.97,2788.8,M,13.7,M,,*5A

$GPGGA,192846.000,0010.6370,S,07828.7827,W,1,05,1.97,2788.7,M,13.7,M,,*52

$GPGSA,A,3,31,32,16,26,14,,,,,,,,2.20,1.97,0.97*06

$GPGSA,A,3,31,32,16,26,14,,,,,,,,2.20,1.97,0.97*06

$GPGSV,3,1,10,16,76,273,37,26,60,003,42,14,41,045,37,32,39,081,32*7F

$GPVTG,300.84,T,,M,1.87,N,3.46,K,A*3D

$GPGGA,192848.000,0010.6365,S,07828.7837,W,1,05,1.97,2788.4,M,13.7,M,,*5A

$GPGGA,192849.000,0010.6362,S,07828.7842,W,1,05,1.97,2788.6,M,13.7,M,,*5C

$GPGSA,A,3,31,32,16,26,14,,,,,,,,2.20,1.97,0.97*06

$GPGSA,A,3,31,32,16,26,14,,,,,,,,2.20,1.97,0.97*06

$GPRMC,192850.000,A,0010.6358,S,07828.7847,W,1.84,288.79,160217,,,A*64

$GPRMC,192851.000,A,0010.6357,S,07828.7853,W,1.91,292.83,160217,,,A*65

$GPVTG,292.83,T,,M,1.91,N,3.55,K,A*35

$GPGSV,3,2,10,27,35,176,36,31,17,018,39,03,17,317,43,08,11,206,*73

$GPGSV,3,3,10,35,,,,22,,,43*79

$GPGSA,A,3,31,32,16,26,14,,,,,,,,2.20,1.97,0.97*06

$GPRMC,192853.000,A,0010.6352,S,07828.7864,W,1.71,285.40,160217,,,A*61

$GPRMC,192854.000,A,0010.6348,S,07828.7869,W,1.80,292.32,160217,,,A*6D

$GPVTG,292.32,T,,M,1.80,N,3.34,K,A*38

$GPVTG,284.98,T,,M,1.86,N,3.45,K,A*3F

$GPGGA,192856.000,0010.6345,S,07828.7883,W,1,05,1.97,2789.3,M,13.7,M,,*5E

$GPGGA,192857.000,0010.6343,S,07828.7890,W,1,05,1.97,2789.4,M,13.7,M,,*5C

$GPGSA,A,3,31,32,16,26,14,,,,,,,,2.20,1.97,0.97*06

$GPRMC,192857.000,A,0010.6343,S,07828.7890,W,2.12,279.65,160217,,,A*6C

$GPVTG,279.65,T,,M,2.12,N,3.92,K,A*3B

$GPVTG,277.99,T,,M,1.91,N,3.54,K,A*34

$GPGGA,192859.000,0010.6343,S,07828.7900,W,1,05,1.97,2789.6,M,13.7,M,,*58

$GPGGA,192900.000,0010.6344,S,07828.7905,W,1,05,1.97,2789.6,M,13.7,M,,*57

$GPGSA,A,3,31,32,16,26,14,,,,,,,,2.20,1.97,0.97*06

$GPGSA,A,3,31,03,32,22,16,26,14,,,,,,1.88,1.63,0.93*0B

$GPRMC,192901.000,A,0010.6342,S,07828.7910,W,2.26,273.05,160217,,,A*6D

$GPGSV,3,1,11,16,76,274,34,26,60,003,39,14,41,045,34,32,39,081,36*71

$GPGSV,3,2,11,27,35,176,33,22,34,307,43,03,17,317,41,31,17,018,40*73

$GPGGA,192903.000,0010.6337,S,07828.7919,W,1,07,1.63,2791.2,M,13.7,M,,*59

$GPGSA,A,3,31,03,32,22,16,26,14,,,,,,1.88,1.63,0.93*0B

$GPGSA,A,3,31,03,32,22,16,26,14,,,,,,1.88,1.63,0.93*0B

$GPRMC,192904.000,A,0010.6337,S,07828.7925,W,2.24,282.14,160217,,,A*60

$GPRMC,192905.000,A,0010.6337,S,07828.7930,W,2.13,281.99,160217,,,A*67

$GPVTG,281.99,T,,M,2.13,N,3.95,K,A*39

$GPVTG,280.36,T,,M,2.20,N,4.08,K,A*3E

$GPGGA,192907.000,0010.6334,S,07828.7940,W,1,07,1.63,2791.9,M,13.7,M,,*59

$GPGSV,3,3,11,08,11,206,,38,,,,10,,,33*4F

$GPRMC,192907.000,A,0010.6334,S,07828.7940,W,2.20,286.82,160217,,,A*6C

$GPRMC,192908.000,A,0010.6333,S,07828.7945,W,2.17,284.83,160217,,,A*66

$GPVTG,284.83,T,,M,2.17,N,4.01,K,A*39

$GPVTG,281.07,T,,M,2.08,N,3.85,K,A*35

$GPGGA,192910.000,0010.6330,S,07828.7956,W,1,07,1.63,2792.6,M,13.7,M,,*50

$GPGGA,192911.000,0010.6329,S,07828.7962,W,1,07,1.63,2792.7,M,13.7,M,,*5F

$GPGSA,A,3,31,03,32,22,16,26,14,,,,,,1.88,1.63,0.93*0B

$GPGSA,A,3,31,03,32,22,16,26,14,,,,,,1.88,1.63,0.93*0B

$GPGSV,3,1,11,16,76,274,35,26,59,003,40,14,41,045,33,32,39,082,35*73

$GPVTG,282.49,T,,M,1.96,N,3.64,K,A*37

$GPGGA,192913.000,0010.6327,S,07828.7972,W,1,07,1.63,2793.0,M,13.7,M,,*54

$GPGGA,192914.000,0010.6326,S,07828.7977,W,1,07,1.63,2793.1,M,13.7,M,,*56

$GPGSA,A,3,31,03,32,22,16,26,14,,,,,,1.88,1.63,0.93*0B

$GPGSA,A,3,31,03,32,22,16,26,14,,,,,,1.88,1.63,0.93*0B

$GPRMC,192915.000,A,0010.6325,S,07828.7983,W,2.07,281.35,160217,,,A*6E

$GPRMC,192916.000,A,0010.6322,S,07828.7989,W,2.15,287.28,160217,,,A*69

$GPVTG,287.28,T,,M,2.15,N,3.98,K,A*3E

$GPGSV,3,2,11,27,35,176,15,22,34,307,45,03,17,316,43,31,17,018,41*73

$GPGSV,3,3,11,08,11,206,,43,,,,10,,,20*41

$GPGSA,A,3,31,03,32,22,16,26,14,,,,,,1.88,1.64,0.93*0C

$GPRMC,192918.000,A,0010.6319,S,07828.8000,W,2.18,283.03,160217,,,A*68

$GPRMC,192919.000,A,0010.6318,S,07828.8006,W,2.29,283.17,160217,,,A*69

$GPVTG,283.17,T,,M,2.29,N,4.24,K,A*39

$GPVTG,279.37,T,,M,2.16,N,4.01,K,A*35

$GPGGA,192921.000,0010.6317,S,07828.8018,W,1,07,1.63,2793.4,M,13.7,M,,*58

$GPGGA,192922.000,0010.6317,S,07828.8024,W,1,07,1.64,2793.2,M,13.7,M,,*55

$GPGSA,A,3,31,03,32,22,16,26,14,,,,,,1.88,1.64,0.93*0C

$GPRMC,192922.000,A,0010.6317,S,07828.8024,W,2.07,279.80,160217,,,A*69

$GPVTG,279.80,T,,M,2.07,N,3.83,K,A*34

$GPVTG,279.52,T,,M,1.94,N,3.59,K,A*35

$GPGGA,192924.000,0010.6316,S,07828.8035,W,1,07,1.64,2792.9,M,13.7,M,,*58

$GPGGA,192925.000,0010.6315,S,07828.8042,W,1,07,1.64,2792.7,M,13.7,M,,*54

$GPGSA,A,3,31,03,32,22,16,26,14,,,,,,1.88,1.64,0.93*0C

$GPGSA,A,3,31,03,32,22,16,26,14,,,,,,1.88,1.63,0.93*0B

$GPRMC,192926.000,A,0010.6314,S,07828.8047,W,1.96,284.96,160217,,,A*65

$GPGSV,3,1,11,16,76,274,37,26,59,003,41,14,41,045,35,32,39,082,31*72

$GPGSV,3,2,11,27,35,176,20,22,34,307,44,03,17,316,36,31,17,018,41*76

$GPGGA,192928.000,0010.6310,S,07828.8058,W,1,07,1.63,2792.6,M,13.7,M,,*51

$GPGSA,A,3,31,03,32,22,16,26,14,,,,,,1.88,1.63,0.93*0B

$GPGSA,A,3,31,03,32,22,16,26,14,,,,,,1.88,1.63,0.93*0B

$GPRMC,192929.000,A,0010.6310,S,07828.8064,W,2.10,279.25,160217,,,A*68

$GPRMC,192930.000,A,0010.6308,S,07828.8070,W,2.10,278.77,160217,,,A*6A

$GPVTG,278.77,T,,M,2.10,N,3.90,K,A*39

$GPVTG,282.07,T,,M,2.33,N,4.32,K,A*35

$GPGGA,192932.000,0010.6305,S,07828.8083,W,1,07,1.64,2793.1,M,13.7,M,,*59

$GPGSV,3,3,11,08,11,206,,46,,,37,10,,,23*43

$GPRMC,192932.000,A,0010.6305,S,07828.8083,W,2.25,276.13,160217,,,A*63

$GPRMC,192933.000,A,0010.6304,S,07828.8089,W,2.20,273.47,160217,,,A*68

$GPVTG,273.47,T,,M,2.20,N,4.08,K,A*34

$GPVTG,275.61,T,,M,1.90,N,3.52,K,A*36

$GPGGA,192935.000,0010.6302,S,07828.8099,W,1,07,1.63,2793.4,M,13.7,M,,*50

$GPGGA,192936.000,0010.6300,S,07828.8105,W,1,07,1.63,2793.5,M,13.7,M,,*54

$GPGSA,A,3,31,03,32,22,16,26,14,,,,,,1.88,1.63,0.93*0B

$GPGSA,A,3,31,03,32,22,16,26,14,,,,,,1.88,1.64,0.93*0C

$GPGSV,3,1,11,16,76,276,32,26,59,003,38,14,41,046,32,32,39,082,31*7F

$GPVTG,279.36,T,,M,2.04,N,3.77,K,A*31

$GPGGA,192938.000,0010.6297,S,07828.8117,W,1,07,1.64,2793.8,M,13.7,M,,*5C

$GPGGA,192939.000,0010.6295,S,07828.8123,W,1,07,1.64,2793.8,M,13.7,M,,*58

$GPGSA,A,3,31,03,32,22,16,26,14,,,,,,1.88,1.64,0.93*0C

$GPGSA,A,3,31,03,32,22,16,26,14,,,,,,1.88,1.64,0.93*0C

$GPRMC,192940.000,A,0010.6293,S,07828.8129,W,2.04,286.58,160217,,,A*6A

$GPRMC,192941.000,A,0010.6294,S,07828.8134,W,1.80,279.63,160217,,,A*67

$GPVTG,279.63,T,,M,1.80,N,3.34,K,A*39

$GPGSV,3,2,11,27,35,176,43,22,34,307,45,03,17,316,42,31,17,018,30*77

$GPGSV,3,3,11,08,11,206,,46,,,37,10,,,19*4A

$GPGSA,A,3,31,03,32,22,16,26,14,,,,,,1.88,1.64,0.93*0C

$GPRMC,192943.000,A,0010.6293,S,07828.8145,W,2.02,277.70,160217,,,A*61

$GPRMC,192944.000,A,0010.6293,S,07828.8151,W,1.94,275.94,160217,,,A*67

$GPVTG,275.94,T,,M,1.94,N,3.59,K,A*33

$GPVTG,274.15,T,,M,2.10,N,3.89,K,A*39

$GPGGA,192946.000,0010.6291,S,07828.8163,W,1,07,1.63,2794.4,M,13.7,M,,*5C

$GPGGA,192947.000,0010.6289,S,07828.8169,W,1,07,1.64,2794.4,M,13.7,M,,*59

$GPGSA,A,3,31,03,32,22,16,26,14,,,,,,1.88,1.64,0.93*0C

$GPRMC,192947.000,A,0010.6289,S,07828.8169,W,2.10,278.55,160217,,,A*6B

$GPVTG,278.55,T,,M,2.10,N,3.89,K,A*31

$GPVTG,284.09,T,,M,2.01,N,3.72,K,A*3F

$GPGGA,192949.000,0010.6286,S,07828.8181,W,1,07,1.64,2794.5,M,13.7,M,,*5F

$GPGGA,192950.000,0010.6285,S,07828.8187,W,1,07,1.64,2794.6,M,13.7,M,,*51

$GPGSA,A,3,31,03,32,22,16,26,14,,,,,,1.88,1.64,0.93*0C

$GPGSA,A,3,31,03,32,22,16,26,14,,,,,,1.88,1.64,0.93*0C

$GPRMC,192951.000,A,0010.6283,S,07828.8192,W,1.98,279.92,160217,,,A*6B

$GPGSV,3,1,11,16,76,276,36,26,59,003,38,14,41,046,34,32,39,082,34*78

$GPGSV,3,2,11,27,35,176,21,22,34,307,44,10,31,156,19,03,17,316,39*79

$GPGGA,192953.000,0010.6279,S,07828.8203,W,1,07,1.64,2794.5,M,13.7,M,,*5D

$GPGSA,A,3,31,03,32,22,16,26,14,,,,,,1.88,1.64,0.93*0C

$GPGSA,A,3,31,03,32,22,16,26,14,,,,,,1.88,1.64,0.93*0C

$GPRMC,192954.000,A,0010.6276,S,07828.8210,W,1.97,276.49,160217,,,A*6B

$GPRMC,192955.000,A,0010.6276,S,07828.8216,W,1.99,273.71,160217,,,A*6C

$GPVTG,273.71,T,,M,1.99,N,3.69,K,A*30

$GPVTG,270.82,T,,M,2.12,N,3.93,K,A*3A

$GPGGA,192957.000,0010.6274,S,07828.8227,W,1,07,1.64,2794.9,M,13.7,M,,*5E

$GPGSV,3,3,11,31,17,019,37,08,11,206,,46,,,36*7A

$GPRMC,192957.000,A,0010.6274,S,07828.8227,W,2.09,275.94,160217,,,A*69

$GPRMC,192958.000,A,0010.6272,S,07828.8233,W,2.08,278.38,160217,,,A*6F

$GPVTG,278.38,T,,M,2.08,N,3.86,K,A*3C

$GPVTG,277.41,T,,M,2.07,N,3.84,K,A*30

$GPGGA,193000.000,0010.6268,S,07828.8244,W,1,07,1.64,2794.9,M,13.7,M,,*5C

$GPGGA,193001.000,0010.6259,S,07828.8250,W,1,08,1.03,2795.8,M,13.7,M,,*54

$GPGSA,A,3,31,27,03,32,22,16,26,14,,,,,1.34,1.03,0.86*0B

$GPGSA,A,3,31,27,03,32,22,16,26,14,,,,,1.34,1.03,0.86*0B

$GPGSV,3,1,11,16,76,276,32,26,59,003,38,14,41,046,33,32,39,082,33*7C

$GPVTG,273.03,T,,M,2.11,N,3.90,K,A*30

$GPGGA,193003.000,0010.6254,S,07828.8261,W,1,08,1.03,2795.9,M,13.7,M,,*58

$GPGGA,193004.000,0010.6252,S,07828.8266,W,1,08,1.03,2796.1,M,13.7,M,,*55

$GPGSA,A,3,31,27,03,32,22,16,26,14,,,,,1.34,1.03,0.86*0B

$GPGSA,A,3,31,27,03,32,22,16,26,14,,,,,1.34,1.03,0.86*0B

$GPRMC,193005.000,A,0010.6251,S,07828.8272,W,2.01,275.84,160217,,,A*68

$GPRMC,193006.000,A,0010.6249,S,07828.8277,W,1.98,278.38,160217,,,A*6E

$GPVTG,278.38,T,,M,1.98,N,3.68,K,A*36

$GPGSV,3,2,11,27,35,176,42,22,34,307,42,10,31,156,19,03,17,316,43*77

$GPGSV,3,3,11,31,17,019,37,08,11,205,,46,,,36*79

$GPGSA,A,3,31,27,03,32,22,16,26,14,,,,,1.34,1.03,0.86*0B

$GPRMC,193008.000,A,0010.6246,S,07828.8288,W,1.97,282.18,160217,,,A*67

$GPRMC,193009.000,A,0010.6245,S,07828.8293,W,1.96,277.16,160217,,,A*6A

$GPVTG,277.16,T,,M,1.96,N,3.63,K,A*30

$GPVTG,276.98,T,,M,1.99,N,3.68,K,A*33

$GPGGA,193011.000,0010.6243,S,07828.8304,W,1,08,1.03,2796.3,M,13.7,M,,*56

$GPGGA,193012.000,0010.6242,S,07828.8310,W,1,08,1.03,2796.4,M,13.7,M,,*56

$GPGSA,A,3,31,27,03,32,22,16,26,14,,,,,1.34,1.03,0.86*0B

$GPRMC,193012.000,A,0010.6242,S,07828.8310,W,2.07,277.82,160217,,,A*6B

$GPVTG,277.82,T,,M,2.07,N,3.83,K,A*38

$GPVTG,281.25,T,,M,2.01,N,3.73,K,A*35

$GPGGA,193014.000,0010.6240,S,07828.8321,W,1,08,1.03,2796.5,M,13.7,M,,*51

$GPGGA,193015.000,0010.6239,S,07828.8327,W,1,08,1.02,2796.5,M,13.7,M,,*59

$GPGSA,A,3,31,27,03,32,22,16,26,14,,,,,1.34,1.02,0.86*0A

$GPGSA,A,3,31,27,03,32,22,16,26,14,,,,,1.34,1.03,0.86*0B

$GPRMC,193016.000,A,0010.6238,S,07828.8333,W,2.04,278.59,160217,,,A*69

$GPGSV,3,1,12,16,76,277,34,26,59,004,37,14,42,046,34,32,39,082,37*70

$GPGSV,3,2,12,27,35,176,42,22,34,306,44,10,31,156,29,03,17,316,43*70

$GPGGA,193018.000,0010.6237,S,07828.8344,W,1,08,1.03,2796.6,M,13.7,M,,*5D

$GPGSA,A,3,31,27,03,32,22,16,26,14,,,,,1.34,1.03,0.86*0B

$GPGSA,A,3,31,27,03,32,22,16,26,14,,,,,1.34,1.03,0.86*0B

$GPRMC,193019.000,A,0010.6236,S,07828.8350,W,2.08,277.92,160217,,,A*69

$GPRMC,193020.000,A,0010.6235,S,07828.8356,W,2.05,283.25,160217,,,A*6C

$GPVTG,283.25,T,,M,2.05,N,3.80,K,A*3F

$GPVTG,284.46,T,,M,2.10,N,3.90,K,A*38

$GPGGA,193022.000,0010.6232,S,07828.8368,W,1,08,1.03,2797.0,M,13.7,M,,*58

$GPGSV,3,3,12,31,17,019,41,08,11,205,,11,04,237,,46,,,36*49

$GPRMC,193022.000,A,0010.6232,S,07828.8368,W,2.31,287.11,160217,,,A*60

$GPRMC,193023.000,A,0010.6230,S,07828.8374,W,2.20,283.19,160217,,,A*62

$GPVTG,283.19,T,,M,2.20,N,4.08,K,A*30

$GPVTG,284.24,T,,M,2.05,N,3.80,K,A*39

$GPGGA,193025.000,0010.6227,S,07828.8385,W,1,08,1.03,2797.1,M,13.7,M,,*59

$GPGGA,193026.000,0010.6226,S,07828.8390,W,1,08,1.03,2797.1,M,13.7,M,,*5F

$GPGSA,A,3,31,27,03,32,22,16,26,14,,,,,1.34,1.03,0.86*0B

$GPGSA,A,3,31,27,03,32,22,16,26,14,,,,,1.34,1.03,0.86*0B

$GPGSV,3,1,12,16,76,277,37,26,59,004,37,14,42,046,32,32,39,082,33*71

$GPVTG,276.28,T,,M,1.79,N,3.32,K,A*39

$GPGGA,193028.000,0010.6226,S,07828.8402,W,1,08,1.03,2797.3,M,13.7,M,,*5F

$GPGGA,193029.000,0010.6226,S,07828.8408,W,1,08,1.03,2797.5,M,13.7,M,,*52

$GPGSA,A,3,31,27,03,32,22,16,26,14,,,,,1.34,1.03,0.86*0B

$GPGSA,A,3,31,27,03,32,22,16,26,14,,,,,1.34,1.03,0.86*0B

$GPRMC,193030.000,A,0010.6226,S,07828.8414,W,1.97,272.92,160217,,,A*64

$GPRMC,193031.000,A,0010.6225,S,07828.8420,W,1.96,274.51,160217,,,A*69

$GPVTG,274.51,T,,M,1.96,N,3.64,K,A*37

$GPGSV,3,2,12,27,35,176,33,22,34,306,43,10,31,156,26,03,18,316,40*72

$GPGSV,3,3,12,31,17,019,39,08,11,205,,11,04,237,,46,,,37*47

$GPGSA,A,3,31,27,03,32,22,16,26,14,,,,,1.34,1.03,0.86*0B

$GPRMC,193033.000,A,0010.6225,S,07828.8433,W,1.96,269.02,160217,,,A*63

$GPRMC,193034.000,A,0010.6226,S,07828.8439,W,2.14,268.22,160217,,,A*67

$GPVTG,268.22,T,,M,2.14,N,3.97,K,A*3B

$GPVTG,264.50,T,,M,2.00,N,3.71,K,A*3F

$GPGGA,193036.000,0010.6227,S,07828.8451,W,1,08,1.03,2798.5,M,13.7,M,,*5E

$GPGGA,193037.000,0010.6227,S,07828.8456,W,1,08,1.03,2798.5,M,13.7,M,,*58

$GPGSA,A,3,31,27,03,32,22,16,26,14,,,,,1.34,1.03,0.86*0B

$GPRMC,193037.000,A,0010.6227,S,07828.8456,W,1.56,278.46,160217,,,A*6A

$GPVTG,278.46,T,,M,1.56,N,2.89,K,A*33

$GPVTG,270.56,T,,M,1.62,N,3.00,K,A*3D

$GPGGA,193039.000,0010.6227,S,07828.8466,W,1,08,1.03,2798.4,M,13.7,M,,*54

$GPGGA,193040.000,0010.6227,S,07828.8471,W,1,08,1.03,2798.3,M,13.7,M,,*5B

$GPGSA,A,3,31,27,03,32,22,16,26,14,,,,,1.34,1.03,0.86*0B

$GPGSA,A,3,31,27,03,32,22,16,26,14,,,,,1.34,1.03,0.86*0B

$GPRMC,193041.000,A,0010.6227,S,07828.8476,W,1.89,270.51,160217,,,A*65

$GPGSV,3,1,12,16,76,278,40,26,59,004,38,14,42,046,35,32,39,082,33*76

$GPGSV,3,2,12,27,35,176,18,22,34,306,42,10,31,156,32,03,18,316,37*7F

$GPGGA,193043.000,0010.6230,S,07828.8486,W,1,08,1.03,2798.0,M,13.7,M,,*55

$GPGSA,A,3,31,27,03,32,22,16,26,14,,,,,1.34,1.03,0.86*0B

$GPGSA,A,3,31,27,03,32,22,16,26,14,,,,,1.34,1.03,0.86*0B

$GPRMC,193044.000,A,0010.6231,S,07828.8490,W,1.30,256.23,160217,,,A*6C

$GPRMC,193045.000,A,0010.6232,S,07828.8494,W,1.32,254.86,160217,,,A*65

$GPVTG,254.86,T,,M,1.32,N,2.45,K,A*33

$GPVTG,249.36,T,,M,1.48,N,2.73,K,A*3C

$GPGGA,193047.000,0010.6237,S,07828.8501,W,1,08,1.03,2798.0,M,13.7,M,,*58

$GPGSV,3,3,12,31,17,019,39,08,11,205,26,11,04,237,,46,,,37*43

$GPRMC,193047.000,A,0010.6237,S,07828.8501,W,1.03,240.90,160217,,,A*6F

$GPRMC,193048.000,A,0010.6240,S,07828.8505,W,1.34,241.93,160217,,,A*62

$GPVTG,241.93,T,,M,1.34,N,2.49,K,A*39

$GPVTG,242.82,T,,M,1.58,N,2.92,K,A*36

$GPGGA,193050.000,0010.6248,S,07828.8514,W,1,08,1.03,2798.2,M,13.7,M,,*50

$GPGGA,193051.000,0010.6254,S,07828.8520,W,1,08,1.03,2798.4,M,13.7,M,,*5D

$GPGSA,A,3,31,27,03,32,22,16,26,14,,,,,1.34,1.03,0.86*0B

$GPGSA,A,3,31,27,03,32,22,16,26,14,,,,,1.34,1.03,0.86*0B

$GPGSV,3,1,12,16,76,278,42,26,59,004,39,14,42,046,35,32,39,082,34*72

$GPVTG,231.44,T,,M,2.01,N,3.73,K,A*39

$GPGGA,193053.000,0010.6263,S,07828.8530,W,1,08,1.03,2798.5,M,13.7,M,,*5B

$GPGGA,193054.000,0010.6268,S,07828.8536,W,1,08,1.03,2798.5,M,13.7,M,,*51

$GPGSA,A,3,31,27,03,32,22,16,26,14,,,,,1.34,1.03,0.87*0A

$GPGSA,A,3,31,27,03,32,22,16,26,14,,,,,1.34,1.03,0.86*0B

$GPRMC,193055.000,A,0010.6271,S,07828.8540,W,1.45,232.31,160217,,,A*67

$GPRMC,193056.000,A,0010.6273,S,07828.8543,W,1.38,232.11,160217,,,A*6D

$GPVTG,232.11,T,,M,1.38,N,2.56,K,A*35

$GPGSV,3,2,12,27,36,175,16,22,34,306,43,10,31,156,15,03,18,316,38*7A

$GPGSV,3,3,12,31,17,019,34,08,11,205,33,11,04,237,,46,,,37*4A

$GPGSA,A,3,31,27,03,32,22,16,26,14,,,,,1.34,1.03,0.86*0B

$GPRMC,193058.000,A,0010.6278,S,07828.8549,W,1.41,230.24,160217,,,A*68

$GPRMC,193059.000,A,0010.6280,S,07828.8551,W,1.19,220.72,160217,,,A*68

$GPVTG,220.72,T,,M,1.19,N,2.20,K,A*31

$GPVTG,223.65,T,,M,1.29,N,2.40,K,A*31

$GPGGA,193101.000,0010.6285,S,07828.8558,W,1,08,1.02,2797.1,M,13.7,M,,*51

$GPGGA,193102.000,0010.6287,S,07828.8562,W,1,08,1.03,2796.6,M,13.7,M,,*5E

$GPGSA,A,3,31,27,03,32,22,16,26,14,,,,,1.34,1.03,0.87*0A

$GPRMC,193102.000,A,0010.6287,S,07828.8562,W,1.62,237.49,160217,,,A*62

$GPVTG,237.49,T,,M,1.62,N,3.00,K,A*30

$GPVTG,231.21,T,,M,1.51,N,2.80,K,A*31

$GPGGA,193104.000,0010.6293,S,07828.8569,W,1,08,1.03,2796.1,M,13.7,M,,*51

$GPGGA,193105.000,0010.6295,S,07828.8572,W,1,08,1.03,2795.8,M,13.7,M,,*56

$GPGSA,A,3,31,27,03,32,22,16,26,14,,,,,1.34,1.03,0.87*0A

$GPGSA,A,3,31,27,03,32,22,16,26,14,,,,,1.34,1.03,0.87*0A

$GPRMC,193106.000,A,0010.6298,S,07828.8572,W,0.99,205.35,160217,,,A*66

$GPGSV,3,1,12,16,76,278,30,26,58,004,34,14,42,046,35,32,39,083,40*79

$GPGSV,3,2,12,27,36,175,20,22,34,306,35,10,31,156,17,03,18,316,29*7C

$GPGGA,193108.000,0010.6306,S,07828.8573,W,1,08,1.03,2795.4,M,13.7,M,,*5D

$GPGSA,A,3,31,27,03,32,22,16,26,14,,,,,1.34,1.03,0.87*0A

$GPGSA,A,3,31,27,03,32,22,16,26,14,,,,,1.34,1.03,0.87*0A

$GPRMC,193109.000,A,0010.6308,S,07828.8574,W,1.24,211.27,160217,,,A*66

$GPRMC,193110.000,A,0010.6308,S,07828.8576,W,0.97,219.02,160217,,,A*6A

$GPVTG,219.02,T,,M,0.97,N,1.80,K,A*32

$GPVTG,219.58,T,,M,1.06,N,1.96,K,A*33

$GPGGA,193112.000,0010.6317,S,07828.8579,W,1,08,1.03,2794.6,M,13.7,M,,*5F

$GPGSV,3,3,12,31,17,019,34,08,11,205,28,11,04,237,,46,,,29*4F

$GPRMC,193112.000,A,0010.6317,S,07828.8579,W,1.31,208.22,160217,,,A*66

$GPRMC,193113.000,A,0010.6321,S,07828.8584,W,1.55,223.35,160217,,,A*6D

$GPVTG,223.35,T,,M,1.55,N,2.87,K,A*34

$GPVTG,201.59,T,,M,1.18,N,2.18,K,A*31

$GPGGA,193115.000,0010.6329,S,07828.8584,W,1,08,1.03,2794.1,M,13.7,M,,*50

$GPGGA,193116.000,0010.6334,S,07828.8584,W,1,08,1.03,2793.9,M,13.7,M,,*50

$GPGSA,A,3,31,27,03,32,22,16,26,14,,,,,1.34,1.03,0.87*0A

$GPGSA,A,3,31,27,03,32,22,16,26,14,,,,,1.34,1.03,0.87*0A

$GPGSV,3,1,12,16,76,278,39,26,58,004,38,14,42,047,27,32,39,083,36*7F

$GPVTG,182.94,T,,M,1.22,N,2.25,K,A*3F

$GPGGA,193118.000,0010.6341,S,07828.8583,W,1,08,1.03,2793.3,M,13.7,M,,*51

$GPGGA,193119.000,0010.6348,S,07828.8582,W,1,08,1.03,2793.0,M,13.7,M,,*5B

$GPGSA,A,3,31,27,03,32,22,16,26,14,,,,,1.34,1.03,0.87*0A

$GPGSA,A,3,31,27,03,32,22,16,26,14,,,,,1.34,1.03,0.87*0A

$GPRMC,193120.000,A,0010.6353,S,07828.8583,W,1.53,190.36,160217,,,A*61

$GPRMC,193121.000,A,0010.6360,S,07828.8581,W,1.71,177.46,160217,,,A*6C

$GPVTG,177.46,T,,M,1.71,N,3.17,K,A*3C

$GPGSV,3,2,12,27,36,175,19,22,34,306,35,10,30,156,17,03,18,316,32*7D

$GPGSV,3,3,12,31,17,019,30,08,11,205,30,11,04,237,,46,,,34*4E

$GPGSA,A,3,31,27,03,32,22,16,26,14,,,,,1.34,1.03,0.87*0A

$GPRMC,193123.000,A,0010.6368,S,07828.8584,W,1.38,195.55,160217,,,A*60

$GPRMC,193124.000,A,0010.6374,S,07828.8585,W,1.60,194.17,160217,,,A*61

$GPVTG,194.17,T,,M,1.60,N,2.97,K,A*3C

$GPVTG,196.76,T,,M,1.65,N,3.06,K,A*35

$GPGGA,193126.000,0010.6384,S,07828.8590,W,1,08,1.03,2791.9,M,13.7,M,,*5F

$GPGGA,193127.000,0010.6389,S,07828.8591,W,1,08,1.03,2791.8,M,13.7,M,,*53

$GPGSA,A,3,31,27,03,32,22,16,26,14,,,,,1.34,1.03,0.87*0A

$GPRMC,193127.000,A,0010.6389,S,07828.8591,W,1.54,199.08,160217,,,A*61

$GPVTG,199.08,T,,M,1.54,N,2.86,K,A*38

$GPVTG,190.66,T,,M,1.94,N,3.60,K,A*3C

$GPGGA,193129.000,0010.6407,S,07828.8593,W,1,08,1.03,2791.8,M,13.7,M,,*5E

$GPGGA,193130.000,0010.6413,S,07828.8593,W,1,08,1.03,2791.8,M,13.7,M,,*53

$GPGSA,A,3,31,27,03,32,22,16,26,14,,,,,1.34,1.03,0.87*0A

$GPGSA,A,3,31,27,03,32,22,16,26,14,,,,,1.34,1.03,0.87*0A

$GPRMC,193131.000,A,0010.6421,S,07828.8596,W,1.67,192.69,160217,,,A*68

$GPGSV,3,1,12,16,76,280,41,26,58,004,36,14,42,047,23,32,39,083,18*71

$GPGSV,3,2,12,27,36,175,23,22,34,306,39,10,30,156,17,03,18,316,27*7C

$GPGGA,193133.000,0010.6439,S,07828.8598,W,1,08,1.03,2792.1,M,13.7,M,,*59

$GPGSA,A,3,31,27,03,32,22,16,26,14,,,,,1.34,1.03,0.87*0A

$GPGSA,A,3,31,27,03,32,22,16,26,14,,,,,1.34,1.03,0.87*0A

$GPRMC,193134.000,A,0010.6446,S,07828.8599,W,1.64,195.22,160217,,,A*68

$GPRMC,193135.000,A,0010.6454,S,07828.8600,W,1.63,197.45,160217,,,A*6D

$GPVTG,197.45,T,,M,1.63,N,3.02,K,A*36

$GPVTG,192.47,T,,M,1.85,N,3.43,K,A*3C

$GPGGA,193137.000,0010.6474,S,07828.8601,W,1,08,1.03,2792.8,M,13.7,M,,*5E

$GPGSV,3,3,12,31,17,019,23,08,11,205,36,11,04,237,,46,,,39*47

$GPRMC,193137.000,A,0010.6474,S,07828.8601,W,1.89,189.82,160217,,,A*6C

$GPRMC,193138.000,A,0010.6483,S,07828.8602,W,1.94,189.19,160217,,,A*66

$GPVTG,189.19,T,,M,1.94,N,3.59,K,A*36

$GPVTG,185.65,T,,M,1.88,N,3.48,K,A*3C

$GPGGA,193140.000,0010.6502,S,07828.8607,W,1,08,1.03,2794.3,M,13.7,M,,*55

$GPGGA,193141.000,0010.6510,S,07828.8609,W,1,08,1.03,2795.0,M,13.7,M,,*5B

$GPGSA,A,3,31,27,03,32,22,16,26,14,,,,,1.34,1.03,0.87*0A

$GPGSA,A,3,31,27,03,32,22,16,26,14,,,,,1.34,1.03,0.87*0A

$GPGSV,3,1,12,16,76,280,42,26,58,004,36,14,42,047,22,32,39,083,17*7C

$GPVTG,194.73,T,,M,1.75,N,3.24,K,A*33

$GPGGA,193143.000,0010.6526,S,07828.8612,W,1,08,1.03,2795.6,M,13.7,M,,*50

$GPGGA,193144.000,0010.6534,S,07828.8614,W,1,08,1.03,2795.5,M,13.7,M,,*51

$GPGSA,A,3,31,27,03,32,22,16,26,14,,,,,1.34,1.03,0.87*0A

$GPGSA,A,3,31,27,03,32,22,16,26,14,,,,,1.34,1.03,0.87*0A

$GPRMC,193145.000,A,0010.6541,S,07828.8615,W,2.02,191.58,160217,,,A*65

$GPRMC,193146.000,A,0010.6547,S,07828.8615,W,1.86,193.09,160217,,,A*69

$GPVTG,193.09,T,,M,1.86,N,3.45,K,A*32

$GPGSV,3,2,12,27,36,175,36,22,34,306,35,10,30,156,19,03,18,316,27*7A

$GPGSV,3,3,12,31,17,019,26,08,11,205,36,11,04,237,,46,,,30*4B

$GPGSA,A,3,31,27,03,32,22,16,26,14,,,,,1.34,1.03,0.87*0A

$GPRMC,193148.000,A,0010.6560,S,07828.8616,W,1.94,191.68,160217,,,A*67

$GPRMC,193149.000,A,0010.6567,S,07828.8617,W,1.93,194.10,160217,,,A*6D

$GPVTG,194.10,T,,M,1.93,N,3.57,K,A*3A

$GPVTG,194.94,T,,M,2.04,N,3.79,K,A*37

$GPGGA,193151.000,0010.6578,S,07828.8618,W,1,08,1.03,2794.0,M,13.7,M,,*55

$GPGGA,193152.000,0010.6583,S,07828.8620,W,1,08,1.03,2794.1,M,13.7,M,,*58

$GPGSA,A,3,31,27,03,32,22,16,26,14,,,,,1.34,1.03,0.87*0A

$GPRMC,193152.000,A,0010.6583,S,07828.8620,W,1.79,188.28,160217,,,A*6B

$GPVTG,188.28,T,,M,1.79,N,3.32,K,A*3B

$GPVTG,185.26,T,,M,1.53,N,2.84,K,A*3C

$GPGGA,193154.000,0010.6594,S,07828.8618,W,1,08,1.03,2794.4,M,13.7,M,,*56

$GPGGA,193155.000,0010.6599,S,07828.8619,W,1,08,1.03,2794.8,M,13.7,M,,*57

$GPGSA,A,3,31,27,03,32,22,16,26,14,,,,,1.34,1.03,0.87*0A

$GPGSA,A,3,31,27,03,32,22,16,26,14,,,,,1.34,1.03,0.87*0A

$GPRMC,193156.000,A,0010.6604,S,07828.8621,W,1.30,181.82,160217,,,A*66

$GPGSV,3,1,12,16,76,281,41,26,58,004,37,14,42,047,17,32,39,083,16*78

$GPGSV,3,2,12,27,36,175,18,22,34,306,35,10,30,156,18,03,18,316,21*71

$GPGGA,193158.000,0010.6618,S,07828.8623,W,1,08,1.03,2795.0,M,13.7,M,,*50

$GPGSA,A,3,31,27,03,32,22,16,26,14,,,,,1.34,1.03,0.87*0A

$GPGSA,A,3,31,27,03,32,22,16,26,14,,,,,1.34,1.03,0.87*0A

$GPRMC,193159.000,A,0010.6625,S,07828.8622,W,1.57,180.03,160217,,,A*60

$GPRMC,193200.000,A,0010.6630,S,07828.8625,W,1.50,185.81,160217,,,A*64

$GPVTG,185.81,T,,M,1.50,N,2.79,K,A*30

$GPVTG,184.72,T,,M,1.45,N,2.68,K,A*39

$GPGGA,193202.000,0010.6639,S,07828.8629,W,1,08,1.03,2794.3,M,13.7,M,,*57

$GPGSV,3,3,12,31,17,019,28,08,11,205,41,11,04,237,,46,,,40*42

$GPRMC,193202.000,A,0010.6639,S,07828.8629,W,1.22,192.64,160217,,,A*6B

$GPRMC,193203.000,A,0010.6644,S,07828.8632,W,1.29,189.80,160217,,,A*61

$GPVTG,189.80,T,,M,1.29,N,2.38,K,A*36

$GPVTG,196.06,T,,M,1.46,N,2.70,K,A*33

$GPGGA,193205.000,0010.6656,S,07828.8635,W,1,08,1.03,2793.3,M,13.7,M,,*53

$GPGGA,193206.000,0010.6661,S,07828.8635,W,1,08,1.03,2793.2,M,13.7,M,,*55

$GPGSA,A,3,31,27,03,32,22,16,26,14,,,,,1.34,1.03,0.87*0A

$GPVTG,191.87,T,,M,1.54,N,2.86,K,D*32

$GPGGA,193309.000,0010.6997,S,07828.8712,W,2,08,0.96,2798.5,M,13.7,M,0000,0000*5B

$GPGGA,193310.000,0010.7003,S,07828.8713,W,2,09,0.89,2798.4,M,13.7,M,0000,0000*59

$GPGSA,A,3,31,27,03,32,22,08,16,26,14,,,,1.21,0.89,0.82*00

$GPGSA,A,3,31,27,03,32,22,08,16,26,14,,,,1.21,0.89,0.82*00

$GPRMC,193311.000,A,0010.7010,S,07828.8714,W,1.94,183.70,160217,,,D*66

$GPVTG,206.29,T,,M,1.82,N,3.37,K,D*3B

$GPGGA,193406.000,0010.7311,S,07828.8746,W,2,08,0.96,2796.0,M,13.7,M,0000,0000*5C

$GPGGA,193407.000,0010.7318,S,07828.8742,W,2,08,0.96,2795.8,M,13.7,M,0000,0000*5B

$GPGSA,A,3,27,03,32,22,08,16,26,14,,,,,1.30,0.96,0.87*09

$GPGSV,4,4,13,18,02,146,*43

$GPRMC,193407.000,A,0010.7318,S,07828.8742,W,1.58,205.37,160217,,,D*60

$GPRMC,193408.000,A,0010.7325,S,07828.8741,W,1.58,196.85,160217,,,D*62

$GPVTG,196.85,T,,M,1.58,N,2.93,K,D*3F

$GPGSA,A,3,31,27,03,32,22,08,16,26,,,,,1.25,0.94,0.82*0D

$GPRMC,193604.000,A,0010.8072,S,07828.8878,W,1.23,186.91,160217,,,D*6F

$GPVTG,179.45,T,,M,1.80,N,3.33,K,D*3C

$GPGGA,193636.000,0010.8238,S,07828.8916,W,2,09,0.89,2786.1,M,13.7,M,0000,0000*5C

$GPGGA,193637.000,0010.8245,S,07828.8916,W,2,09,0.89,2786.0,M,13.7,M,0000,0000*56

$GPGSA,A,3,31,27,03,32,22,08,16,26,14,,,,1.21,0.89,0.82*00

$GPGSV,4,4,13,18,01,146,*40

$GPRMC,193637.000,A,0010.8245,S,07828.8916,W,1.95,169.09,160217,,,D*6D

$GPRMC,193638.000,A,0010.8251,S,07828.8918,W,1.84,170.57,160217,,,D*6A

$GPVTG,170.57,T,,M,1.84,N,3.42,K,D*34

$GPVTG,168.39,T,,M,1.76,N,3.26,K,D*3A

$GPGGA,193640.000,0010.8264,S,07828.8920,W,2,08,0.96,2786.0,M,13.7,M,0000,0000*5F

$GPGGA,193641.000,0010.8271,S,07828.8922,W,2,08,0.96,2786.2,M,13.7,M,0000,0000*5A

$GPGSA,A,3,27,03,32,22,08,16,26,14,,,,,1.30,0.96,0.88*06

$GPGSA,A,3,27,03,32,22,08,16,26,14,,,,,1.30,0.96,0.88*06

$GPGSV,3,1,12,16,75,291,40,46,67,267,37,26,56,004,33,14,43,050,22*73

$GPVTG,201.40,T,,M,2.13,N,3.95,K,D*30

$GPGGA,193643.000,0010.8285,S,07828.8925,W,2,09,0.89,2786.3,M,13.7,M,0000,0000*5A

$GPGGA,193644.000,0010.8292,S,07828.8925,W,2,09,0.89,2786.1,M,13.7,M,0000,0000*59

$GPGSA,A,3,31,27,03,32,22,08,16,26,14,,,,1.21,0.89,0.82*00

$GPGSA,A,3,31,27,03,32,22,08,16,26,14,,,,1.21,0.89,0.82*00

$GPRMC,193645.000,A,0010.8299,S,07828.8926,W,1.83,193.13,160217,,,D*63

$GPRMC,193646.000,A,0010.8306,S,07828.8927,W,2.31,187.44,160217,,,D*6B

$GPVTG,187.44,T,,M,2.31,N,4.27,K,D*37

$GPGSV,3,2,12,32,39,086,24,27,38,174,40,22,36,304,39,10,28,156,34*76

$GPGSV,3,3,12,03,20,315,29,31,16,021,18,08,13,204,34,11,04,235,*73

$GPGSA,A,3,31,27,03,22,08,16,26,14,,,,,1.31,1.01,0.82*01

$GPRMC,193648.000,A,0010.8321,S,07828.8929,W,2.33,197.70,160217,,,D*6A

$GPRMC,193649.000,A,0010.8327,S,07828.8931,W,2.21,204.62,160217,,,D*6D

$GPVTG,204.62,T,,M,2.21,N,4.09,K,D*36

$GPGSV,3,3,12,03,20,315,35,31,16,021,19,08,13,204,32,11,04,235,*79

$GPRMC,193657.000,A,0010.8383,S,07828.8930,W,2.03,203.62,160217,,,D*6A

$GPRMC,193658.000,A,0010.8389,S,07828.8931,W,1.78,174.92,160217,,,D*6D

$GPVTG,174.92,T,,M,1.78,N,3.30,K,D*3F

$GPVTG,202.61,T,,M,1.95,N,3.62,K,D*35

$GPGGA,193700.000,0010.8399,S,07828.8937,W,2,09,0.89,2787.8,M,13.7,M,0000,0000*59

$GPGGA,193701.000,0010.8404,S,07828.8937,W,2,08,0.96,2787.9,M,13.7,M,0000,0000*55

$GPGSA,A,3,27,03,32,22,08,16,26,14,,,,,1.30,0.96,0.88*06

$GPGSA,A,3,31,27,03,32,22,08,16,26,14,,,,1.21,0.89,0.82*00

$GPGSV,3,1,12,16,75,291,38,46,67,267,39,26,55,005,36,14,43,050,15*71

$GPVTG,163.33,T,,M,2.06,N,3.81,K,D*32

$GPGGA,193703.000,0010.8416,S,07828.8937,W,2,09,0.89,2787.8,M,13.7,M,0000,0000*5A

$GPGGA,193704.000,0010.8422,S,07828.8938,W,2,09,0.89,2787.9,M,13.7,M,0000,0000*54

$GPGSA,A,3,31,27,03,32,22,08,16,26,14,,,,1.21,0.89,0.82*00

$GPGSA,A,3,31,27,03,22,08,16,26,14,,,,,1.31,1.01,0.82*01

$GPRMC,193705.000,A,0010.8430,S,07828.8937,W,2.49,171.97,160217,,,D*66

$GPRMC,193706.000,A,0010.8435,S,07828.8940,W,1.33,195.55,160217,,,D*6A

$GPVTG,195.55,T,,M,1.33,N,2.46,K,D*34

$GPGSV,3,2,12,27,38,173,23,32,38,086,19,22,36,304,37,10,28,156,17*74

$GPGSV,3,3,12,03,20,314,28,31,16,021,16,08,13,204,31,11,04,235,*78

$GPGSA,A,3,31,27,03,32,22,08,16,26,14,,,,1.21,0.89,0.82*00

$GPRMC,193708.000,A,0010.8443,S,07828.8943,W,1.55,199.62,160217,,,D*6E

$GPRMC,193709.000,A,0010.8448,S,07828.8943,W,1.69,194.87,160217,,,D*6D

$GPVTG,194.87,T,,M,1.69,N,3.13,K,D*34

$GPVTG,186.48,T,,M,1.92,N,3.56,K,D*31

$GPGGA,193711.000,0010.8459,S,07828.8941,W,2,09,0.89,2787.9,M,13.7,M,0000,0000*52

$GPGGA,193712.000,0010.8464,S,07828.8940,W,2,09,0.89,2787.8,M,13.7,M,0000,0000*5F

$GPGSA,A,3,31,27,03,32,22,08,16,26,14,,,,1.21,0.89,0.82*00

$GPRMC,193712.000,A,0010.8464,S,07828.8940,W,1.80,180.38,160217,,,D*6C

$GPVTG,180.38,T,,M,1.80,N,3.34,K,D*37

$GPVTG,178.36,T,,M,1.85,N,3.43,K,D*3B

$GPGGA,193714.000,0010.8476,S,07828.8939,W,2,09,0.89,2787.8,M,13.7,M,0000,0000*54

$GPGGA,193715.000,0010.8484,S,07828.8950,W,2,09,0.89,2787.8,M,13.7,M,0000,0000*57

$GPGSA,A,3,31,27,03,32,22,08,16,26,14,,,,1.21,0.89,0.82*00

$GPGSA,A,3,31,27,03,32,22,08,16,26,14,,,,1.21,0.89,0.82*00

$GPRMC,193716.000,A,0010.8492,S,07828.8959,W,2.27,198.70,160217,,,D*62

$GPGSV,3,1,12,16,75,293,41,46,67,267,32,26,55,005,35,14,43,050,28*7B

$GPGSV,3,2,12,27,38,173,21,32,38,086,42,22,36,304,37,10,28,156,15*7A

$GPGGA,193718.000,0010.8504,S,07828.8965,W,2,09,0.89,2788.1,M,13.7,M,0000,0000*53

$GPGSA,A,3,31,27,03,32,22,08,16,26,14,,,,1.21,0.89,0.82*00

$GPGSA,A,3,31,27,03,32,22,08,16,26,14,,,,1.21,0.89,0.82*00

$GPRMC,193719.000,A,0010.8510,S,07828.8965,W,1.81,184.62,160217,,,D*68

$GPRMC,193720.000,A,0010.8515,S,07828.8966,W,2.10,195.32,160217,,,D*6A

$GPVTG,195.32,T,,M,2.10,N,3.88,K,D*34

$GPVTG,202.71,T,,M,2.22,N,4.11,K,D*38

$GPGGA,193722.000,0010.8529,S,07828.8970,W,2,09,0.89,2788.3,M,13.7,M,0000,0000*53

$GPGSV,3,3,12,03,20,314,28,31,16,021,30,08,13,204,28,11,04,235,*74

$GPRMC,193722.000,A,0010.8529,S,07828.8970,W,2.16,191.95,160217,,,D*6F

$GPRMC,193723.000,A,0010.8535,S,07828.8972,W,1.77,187.04,160217,,,D*6A

$GPVTG,187.04,T,,M,1.77,N,3.28,K,D*3A

$GPVTG,190.60,T,,M,2.00,N,3.71,K,D*31

$GPGGA,193725.000,0010.8547,S,07828.8973,W,2,09,0.89,2788.4,M,13.7,M,0000,0000*58

$GPGGA,193726.000,0010.8556,S,07828.8974,W,2,09,0.89,2788.6,M,13.7,M,0000,0000*5E

$GPGSA,A,3,31,27,03,32,22,08,16,26,14,,,,1.21,0.89,0.82*00

$GPGSA,A,3,31,27,03,32,22,08,16,26,14,,,,1.21,0.89,0.82*00

$GPGSV,3,1,12,16,75,293,41,46,67,267,41,26,55,005,38,14,43,050,24*7E

$GPVTG,194.86,T,,M,2.36,N,4.37,K,D*3D

$GPGGA,193728.000,0010.8569,S,07828.8977,W,2,09,0.89,2788.6,M,13.7,M,0000,0000*5F

$GPGGA,193729.000,0010.8575,S,07828.8977,W,2,09,0.96,2788.6,M,13.7,M,0000,0000*5D

$GPGSA,A,3,31,27,03,32,22,08,16,26,14,,,,1.30,0.96,0.88*04

$GPGSA,A,3,31,27,03,32,22,08,16,26,14,,,,1.21,0.89,0.82*00

$GPRMC,193730.000,A,0010.8582,S,07828.8977,W,2.03,162.18,160217,,,D*67

$GPRMC,193731.000,A,0010.8588,S,07828.8981,W,2.12,191.43,160217,,,D*67

$GPVTG,191.43,T,,M,2.12,N,3.93,K,D*3E

$GPGSV,3,2,12,27,38,173,36,32,38,087,39,22,36,303,34,10,28,156,16*76

$GPGSV,3,3,12,03,20,314,26,31,16,022,22,08,13,204,35,11,04,235,*76

$GPGSA,A,3,31,27,03,32,22,08,16,26,14,,,,1.21,0.89,0.82*00

$GPRMC,193733.000,A,0010.8601,S,07828.8983,W,2.10,195.13,160217,,,D*66

$GPRMC,193734.000,A,0010.8608,S,07828.8986,W,2.39,201.28,160217,,,D*60

$GPVTG,201.28,T,,M,2.39,N,4.43,K,D*3A

$GPVTG,197.05,T,,M,2.21,N,4.10,K,D*36

$GPGGA,193736.000,0010.8622,S,07828.8989,W,2,09,0.89,2789.4,M,13.7,M,0000,0000*5E

$GPGGA,193737.000,0010.8627,S,07828.8991,W,2,09,0.89,2789.6,M,13.7,M,0000,0000*51

$GPGSA,A,3,31,27,03,32,22,08,16,26,14,,,,1.21,0.89,0.82*00

$GPRMC,193737.000,A,0010.8627,S,07828.8991,W,2.14,196.36,160217,,,D*65

$GPVTG,196.36,T,,M,2.14,N,3.96,K,D*38

$GPVTG,182.51,T,,M,1.93,N,3.57,K,D*3D

$GPGGA,193739.000,0010.8639,S,07828.8992,W,2,08,1.01,2790.0,M,13.7,M,0000,0000*5D

$GPGGA,193740.000,0010.8644,S,07828.8993,W,2,08,1.01,2790.1,M,13.7,M,0000,0000*59

$GPGSA,A,3,31,27,03,22,08,16,26,14,,,,,1.30,1.01,0.82*00

$GPGSA,A,3,31,27,03,32,22,08,16,26,14,,,,1.21,0.89,0.82*00

$GPRMC,193741.000,A,0010.8649,S,07828.8992,W,1.85,173.65,160217,,,D*69

$GPGSV,3,1,12,16,75,293,42,46,67,267,40,26,55,005,33,14,43,050,16*76

$GPGSV,3,2,12,27,38,173,23,32,38,087,17,22,36,303,37,10,28,156,18*73

$GPGGA,193743.000,0010.8662,S,07828.8992,W,2,09,0.89,2790.3,M,13.7,M,0000,0000*5D

$GPGSA,A,3,31,27,03,32,22,08,16,26,14,,,,1.21,0.89,0.82*00

$GPGSA,A,3,31,27,03,32,22,08,16,26,14,,,,1.21,0.89,0.82*00

$GPRMC,193744.000,A,0010.8668,S,07828.8992,W,2.05,180.74,160217,,,D*68

$GPRMC,193745.000,A,0010.8674,S,07828.8992,W,2.09,188.91,160217,,,D*6B

$GPVTG,188.91,T,,M,2.09,N,3.88,K,D*39

$GPVTG,180.17,T,,M,2.17,N,4.02,K,D*35

$GPGGA,193747.000,0010.8688,S,07828.8993,W,2,09,0.89,2790.4,M,13.7,M,0000,0000*5B

$GPGSV,4,3,13,03,20,314,32,31,16,022,29,08,13,204,32,01,08,256,*71

$GPGSV,4,4,13,11,04,235,*4B

$GPGSA,A,3,31,27,03,32,22,08,16,26,14,,,,1.21,0.89,0.82*00

$GPRMC,193748.000,A,0010.8694,S,07828.8992,W,2.24,165.90,160217,,,D*65

$GPRMC,193749.000,A,0010.8700,S,07828.8992,W,2.03,168.77,160217,,,D*69

$GPVTG,168.77,T,,M,2.03,N,3.77,K,D*35

$GPVTG,171.00,T,,M,2.23,N,4.12,K,D*3B

$GPGGA,193751.000,0010.8714,S,07828.8995,W,2,09,0.89,2790.5,M,13.7,M,0000,0000*5F

$GPGGA,193752.000,0010.8720,S,07828.8997,W,2,09,0.89,2790.6,M,13.7,M,0000,0000*5A

$GPGSA,A,3,31,27,03,32,22,08,16,26,14,,,,1.21,0.89,0.82*00

$GPGSV,4,4,13,11,04,235,*4B

$GPRMC,193752.000,A,0010.8720,S,07828.8997,W,2.01,186.14,160217,,,D*63

$GPRMC,193753.000,A,0010.8726,S,07828.9000,W,1.88,188.96,160217,,,D*64

$GPVTG,188.96,T,,M,1.88,N,3.48,K,D*38

$GPVTG,204.29,T,,M,1.70,N,3.15,K,D*34

$GPGGA,193755.000,0010.8736,S,07828.9003,W,2,09,0.89,2790.8,M,13.7,M,0000,0000*51

$GPGGA,193756.000,0010.8743,S,07828.9005,W,2,09,0.89,2791.2,M,13.7,M,0000,0000*5D

$GPGSA,A,3,31,27,03,32,22,08,16,26,14,,,,1.21,0.89,0.82*00

$GPGSA,A,3,31,27,03,32,22,08,16,26,14,,,,1.21,0.89,0.82*00

$GPGSV,4,1,13,16,75,294,42,46,67,267,40,26,55,005,35,14,43,051,18*7E

$GPRMC,193757.000,A,0010.8749,S,07828.9008,W,2.02,185.81,160217,,,D*6B

$GPVTG,185.81,T,,M,2.02,N,3.75,K,D*3C

$GPVTG,182.93,T,,M,2.05,N,3.79,K,D*33

$GPGGA,193759.000,0010.8761,S,07828.9011,W,2,09,0.89,2791.6,M,13.7,M,0000,0000*53

$GPGGA,193800.000,0010.8768,S,07828.9012,W,2,09,0.89,2791.7,M,13.7,M,0000,0000*5B

$GPGSA,A,3,31,27,03,32,22,08,16,26,14,,,,1.21,0.89,0.82*00

$GPGSA,A,3,31,27,03,32,22,08,16,26,14,,,,1.21,0.89,0.82*00

$GPRMC,193801.000,A,0010.8773,S,07828.9015,W,1.55,183.46,160217,,,D*6E

$GPGSV,4,1,13,16,75,294,38,46,67,267,37,26,55,005,36,14,43,051,22*79

$GPGSV,4,2,13,27,38,173,21,32,38,087,34,22,36,303,36,10,27,156,17*77

$GPVTG,186.43,T,,M,2.06,N,3.82,K,D*3D

$GPGGA,193803.000,0010.8784,S,07828.9018,W,2,09,0.89,2791.9,M,13.7,M,0000,0000*5E

$GPGGA,193804.000,0010.8791,S,07828.9019,W,2,09,0.89,2791.9,M,13.7,M,0000,0000*5C

$GPGSA,A,3,31,27,03,32,22,08,16,26,14,,,,1.21,0.89,0.82*00

$GPGSA,A,3,31,27,03,32,22,08,16,26,14,,,,1.21,0.89,0.82*00

$GPRMC,193805.000,A,0010.8797,S,07828.9020,W,1.48,176.44,160217,,,D*62

$GPRMC,193806.000,A,0010.8803,S,07828.9020,W,1.80,187.48,160217,,,D*65

$GPVTG,187.48,T,,M,1.80,N,3.34,K,D*37

$GPGSV,4,2,13,27,38,173,20,32,38,087,40,22,36,303,35,10,27,156,17*76

$GPGSV,4,3,13,03,20,314,28,31,16,022,22,08,13,204,30,01,08,256,*73

$GPGGA,193808.000,0010.8812,S,07828.9018,W,2,09,0.89,2791.6,M,13.7,M,0000,0000*5A

$GPGSA,A,3,31,27,03,32,22,08,16,26,14,,,,1.21,0.89,0.82*00

$GPGSA,A,3,31,27,03,32,22,08,16,26,14,,,,1.21,0.89,0.83*01

$GPRMC,193809.000,A,0010.8818,S,07828.9016,W,1.35,143.07,160217,,,D*68

$GPRMC,193810.000,A,0010.8819,S,07828.9014,W,1.30,113.35,160217,,,D*62

$GPVTG,113.35,T,,M,1.30,N,2.41,K,D*38

$GPVTG,114.54,T,,M,1.17,N,2.17,K,D*3E

$GPGGA,193812.000,0010.8823,S,07828.9007,W,2,09,0.89,2791.3,M,13.7,M,0000,0000*58

$GPGSV,4,3,13,03,20,314,27,31,16,022,30,08,13,204,34,01,08,256,*7B

$GPGSV,4,4,13,11,04,235,16*4C

$GPGSA,A,3,31,27,03,32,22,08,16,26,14,,,,1.21,0.89,0.83*01

$GPRMC,193813.000,A,0010.8825,S,07828.9003,W,1.36,89.98,160217,,,D*5B

$GPRMC,193814.000,A,0010.8825,S,07828.8997,W,1.38,88.69,160217,,,D*58

$GPVTG,88.69,T,,M,1.38,N,2.55,K,D*0F

$GPVTG,89.52,T,,M,1.47,N,2.73,K,D*0A

$GPGGA,193816.000,0010.8826,S,07828.8986,W,2,09,0.89,2790.7,M,13.7,M,0000,0000*5D

$GPGGA,193817.000,0010.8830,S,07828.8978,W,2,09,0.89,2790.4,M,13.7,M,0000,0000*59

$GPGSA,A,3,31,27,03,32,22,08,16,26,14,,,,1.21,0.89,0.83*01

$GPGSV,4,4,13,11,04,235,15*4F

$GPRMC,193817.000,A,0010.8830,S,07828.8978,W,1.68,91.96,160217,,,D*53

$GPRMC,193818.000,A,0010.8833,S,07828.8970,W,1.87,89.39,160217,,,D*5A

$GPVTG,89.39,T,,M,1.87,N,3.46,K,D*0C

$GPVTG,89.40,T,,M,1.83,N,3.38,K,D*0F

$GPGGA,193820.000,0010.8839,S,07828.8958,W,2,09,0.89,2789.6,M,13.7,M,0000,0000*5C

$GPGGA,193821.000,0010.8842,S,07828.8951,W,2,08,1.03,2789.2,M,13.7,M,0000,0000*5E

$GPGSA,A,3,31,27,03,32,22,16,26,14,,,,,1.35,1.03,0.87*0B

$GPGSA,A,3,31,27,03,32,22,16,26,14,,,,,1.35,1.03,0.87*0B

$GPGSV,4,1,13,16,75,294,37,46,67,267,34,26,55,005,37,14,43,051,33*74

$GPRMC,193822.000,A,0010.8845,S,07828.8943,W,2.08,98.34,160217,,,D*5B

$GPVTG,98.34,T,,M,2.08,N,3.85,K,D*0A

$GPVTG,97.83,T,,M,2.03,N,3.76,K,D*0E

$GPGGA,193824.000,0010.8847,S,07828.8929,W,2,08,1.03,2788.3,M,13.7,M,0000,0000*51

$GPGGA,193825.000,0010.8848,S,07828.8923,W,2,08,1.03,2788.2,M,13.7,M,0000,0000*54

$GPGSA,A,3,31,27,03,32,22,16,26,14,,,,,1.35,1.03,0.87*0B

$GPGSA,A,3,31,27,03,32,22,16,26,14,,,,,1.36,1.04,0.87*0F

$GPRMC,193826.000,A,0010.8852,S,07828.8916,W,1.89,99.28,160217,,,D*5F

$GPGSV,4,1,13,16,75,295,36,46,67,267,33,26,55,005,38,14,43,051,34*7B

$GPGSV,4,2,13,27,38,173,19,32,38,087,40,22,36,303,25,10,27,156,16*7C

$GPVTG,100.09,T,,M,1.92,N,3.56,K,D*3A

$GPGGA,193828.000,0010.8860,S,07828.8904,W,2,09,0.89,2787.9,M,13.7,M,0000,0000*50

$GPGGA,193829.000,0010.8867,S,07828.8896,W,2,08,1.03,2787.8,M,13.7,M,0000,0000*5F

$GPGSA,A,3,31,27,03,32,22,16,26,14,,,,,1.35,1.03,0.87*0B

$GPGSA,A,3,31,27,03,32,22,16,26,14,,,,,1.36,1.04,0.87*0F

$GPRMC,193830.000,A,0010.8872,S,07828.8891,W,2.07,115.49,160217,,,D*63

$GPRMC,193831.000,A,0010.8875,S,07828.8886,W,2.04,114.40,160217,,,D*68

$GPVTG,114.40,T,,M,2.04,N,3.79,K,D*33

$GPGSV,4,2,13,27,38,173,16,32,38,087,41,22,36,303,23,10,27,156,17*75

$GPGSV,4,3,13,03,20,314,22,31,16,022,27,08,13,204,17,01,08,256,*79

$GPGGA,193833.000,0010.8881,S,07828.8877,W,2,09,0.89,2787.8,M,13.7,M,0000,0000*51

$GPGSA,A,3,31,27,03,32,22,08,16,26,14,,,,1.21,0.89,0.83*01

$GPGSA,A,3,31,27,03,32,22,16,26,14,,,,,1.36,1.04,0.87*0F

$GPRMC,193834.000,A,0010.8885,S,07828.8871,W,1.84,118.65,160217,,,D*6A

$GPRMC,193835.000,A,0010.8886,S,07828.8866,W,1.96,114.47,160217,,,D*61

$GPVTG,114.47,T,,M,1.96,N,3.62,K,D*36

$GPVTG,115.72,T,,M,2.09,N,3.86,K,D*3E

$GPGGA,193837.000,0010.8893,S,07828.8853,W,2,08,1.03,2787.6,M,13.7,M,0000,0000*5C

$GPGSV,4,3,13,03,20,314,20,31,16,022,33,08,13,204,18,01,08,256,*71

$GPGSV,4,4,13,11,04,234,16*4D

$GPGSA,A,3,31,27,03,32,22,16,26,14,,,,,1.35,1.03,0.87*0B

$GPRMC,193838.000,A,0010.8893,S,07828.8847,W,2.04,111.08,160217,,,D*6D

$GPRMC,193839.000,A,0010.8893,S,07828.8841,W,2.01,108.93,160217,,,D*65

$GPVTG,108.93,T,,M,2.01,N,3.73,K,D*3F

$GPVTG,109.47,T,,M,1.93,N,3.57,K,D*39

$GPGGA,193841.000,0010.8898,S,07828.8830,W,2,09,0.89,2788.0,M,13.7,M,0000,0000*58

$GPGGA,193842.000,0010.8901,S,07828.8825,W,2,09,0.89,2788.1,M,13.7,M,0000,0000*5F

$GPGSA,A,3,31,27,03,32,22,08,16,26,14,,,,1.21,0.89,0.83*01

$GPGSV,4,4,13,11,04,234,16*4D

$GPRMC,193842.000,A,0010.8901,S,07828.8825,W,2.19,112.69,160217,,,D*66

$GPRMC,193843.000,A,0010.8901,S,07828.8818,W,2.15,109.67,160217,,,D*61

$GPVTG,109.67,T,,M,2.15,N,3.99,K,D*34

$GPVTG,107.21,T,,M,2.13,N,3.95,K,D*32

$GPGGA,193845.000,0010.8900,S,07828.8807,W,2,09,0.89,2787.8,M,13.7,M,0000,0000*5F

$GPGGA,193846.000,0010.8898,S,07828.8801,W,2,09,0.88,2787.8,M,13.7,M,0000,0000*5B

$GPGSA,A,3,31,27,03,32,22,08,16,26,14,,,,1.21,0.88,0.83*00

$GPGSA,A,3,31,27,03,32,22,08,16,26,14,,,,1.21,0.89,0.83*01

$GPGSV,4,1,13,16,75,295,37,46,67,267,35,26,55,005,39,14,43,051,21*79

$GPRMC,193847.000,A,0010.8898,S,07828.8796,W,1.94,99.08,160217,,,D*56

$GPVTG,99.08,T,,M,1.94,N,3.59,K,D*03

$GPVTG,97.08,T,,M,2.04,N,3.78,K,D*04

$GPGGA,193849.000,0010.8889,S,07828.8784,W,2,09,0.88,2787.3,M,13.7,M,0000,0000*5D

$GPGGA,193850.000,0010.8882,S,07828.8779,W,2,09,0.89,2787.0,M,13.7,M,0000,0000*5E

$GPGSA,A,3,31,27,03,32,22,08,16,26,14,,,,1.21,0.89,0.83*01

$GPGSA,A,3,31,27,03,32,22,08,16,26,14,,,,1.21,0.89,0.83*01

$GPRMC,193851.000,A,0010.8880,S,07828.8775,W,1.72,104.37,160217,,,D*64

$GPGSV,4,1,13,16,75,295,37,46,67,267,33,26,55,005,29,14,43,051,18*74

$GPGSV,4,2,13,27,38,173,42,32,38,088,22,22,36,303,26,10,27,156,21*7E

$GPVTG,106.35,T,,M,1.75,N,3.25,K,D*3E

$GPGGA,193853.000,0010.8882,S,07828.8766,W,2,09,0.89,2786.9,M,13.7,M,0000,0000*5B

$GPGGA,193854.000,0010.8882,S,07828.8764,W,2,09,0.89,2786.8,M,13.7,M,0000,0000*5F

$GPGSA,A,3,31,27,03,32,22,08,16,26,14,,,,1.21,0.89,0.83*01

$GPGSA,A,3,31,27,03,32,22,08,16,26,14,,,,1.21,0.88,0.83*00

$GPRMC,193855.000,A,0010.8883,S,07828.8759,W,1.40,96.57,160217,,,D*50

$GPRMC,193856.000,A,0010.8883,S,07828.8755,W,1.37,98.53,160217,,,D*55

$GPVTG,98.53,T,,M,1.37,N,2.53,K,D*0E

$GPGSV,4,2,13,27,38,173,42,32,38,088,20,22,36,303,25,10,27,156,21*7F

$GPGSV,4,3,13,03,20,314,17,31,16,022,18,08,14,203,23,01,08,256,*74

$GPGGA,193858.000,0010.8885,S,07828.8747,W,2,09,0.88,2786.6,M,13.7,M,0000,0000*5A

$GPGSA,A,3,31,27,03,32,22,08,16,26,14,,,,1.21,0.88,0.83*00

$GPGSA,A,3,31,27,03,32,22,08,16,26,14,,,,1.21,0.88,0.83*00

$GPRMC,193859.000,A,0010.8887,S,07828.8745,W,1.35,103.14,160217,,,D*6D

$GPRMC,193900.000,A,0010.8889,S,07828.8743,W,1.24,107.13,160217,,,D*6B

$GPVTG,107.13,T,,M,1.24,N,2.29,K,D*32

$GPVTG,113.26,T,,M,1.34,N,2.48,K,D*37

$GPGGA,193902.000,0010.8892,S,07828.8736,W,2,09,0.89,2786.8,M,13.7,M,0000,0000*5B

$GPGSV,4,3,13,03,20,314,20,31,16,022,17,08,14,203,24,01,08,256,*78

$GPGSV,4,4,13,11,04,234,12*49

$GPGSA,A,3,31,27,03,32,22,08,16,26,14,,,,1.21,0.88,0.83*00

$GPRMC,193903.000,A,0010.8894,S,07828.8733,W,1.04,101.05,160217,,,D*60

$GPRMC,193904.000,A,0010.8895,S,07828.8730,W,0.93,95.58,160217,,,D*5E

$GPVTG,95.58,T,,M,0.93,N,1.73,K,D*06

$GPVTG,97.32,T,,M,1.04,N,1.94,K,D*0E

$GPGGA,193906.000,0010.8896,S,07828.8720,W,2,09,0.89,2786.8,M,13.7,M,0000,0000*5C

$GPGGA,193907.000,0010.8898,S,07828.8717,W,2,09,0.89,2786.6,M,13.7,M,0000,0000*59

$GPGSA,A,3,31,27,03,32,22,08,16,26,14,,,,1.21,0.89,0.83*01

$GPGSV,4,4,13,11,04,234,13*48

$GPRMC,193907.000,A,0010.8898,S,07828.8717,W,1.19,106.52,160217,,,D*67

$GPRMC,193908.000,A,0010.8899,S,07828.8714,W,1.16,108.90,160217,,,D*65

$GPVTG,108.90,T,,M,1.16,N,2.15,K,D*38

$GPVTG,110.61,T,,M,1.12,N,2.07,K,D*38

$GPGGA,193910.000,0010.8903,S,07828.8709,W,2,09,0.88,2786.3,M,13.7,M,0000,0000*57

$GPGGA,193911.000,0010.8904,S,07828.8706,W,2,09,0.89,2786.3,M,13.7,M,0000,0000*5F

$GPGSA,A,3,31,27,03,32,22,08,16,26,14,,,,1.21,0.89,0.83*01

$GPGSA,A,3,31,27,03,32,22,08,16,26,14,,,,1.21,0.89,0.83*01

$GPGSV,4,1,13,16,75,296,36,46,67,267,35,26,54,005,19,14,43,052,23*79

$GPRMC,193912.000,A,0010.8905,S,07828.8704,W,0.97,119.42,160217,,,D*6C

$GPVTG,119.42,T,,M,0.97,N,1.79,K,D*36

$GPVTG,112.64,T,,M,1.03,N,1.91,K,D*33

$GPGGA,193914.000,0010.8912,S,07828.8695,W,2,09,0.88,2785.9,M,13.7,M,0000,0000*5E

$GPGGA,193915.000,0010.8923,S,07828.8693,W,2,09,0.88,2785.6,M,13.7,M,0000,0000*54

$GPGSA,A,3,31,27,03,32,22,08,16,26,14,,,,1.21,0.88,0.83*00

$GPGSA,A,3,31,27,03,32,22,08,16,26,14,,,,1.21,0.89,0.83*01

$GPRMC,193916.000,A,0010.8923,S,07828.8681,W,1.80,108.97,160217,,,D*6F

$GPGSV,4,1,13,16,75,296,30,46,67,267,33,26,54,005,38,14,43,052,23*7A

$GPGSV,4,2,13,27,39,172,25,32,38,088,25,22,37,303,20,10,27,156,24*7A

$GPVTG,106.60,T,,M,1.79,N,3.32,K,D*34

$GPGGA,193918.000,0010.8926,S,07828.8668,W,2,09,0.88,2785.5,M,13.7,M,0000,0000*5B

$GPGGA,193919.000,0010.8927,S,07828.8661,W,2,09,0.88,2785.5,M,13.7,M,0000,0000*52

$GPGSA,A,3,31,27,03,32,22,08,16,26,14,,,,1.21,0.88,0.83*00

$GPGSA,A,3,31,27,03,32,22,08,16,26,14,,,,1.21,0.88,0.83*00

$GPRMC,193920.000,A,0010.8926,S,07828.8652,W,1.91,101.73,160217,,,D*62

$GPRMC,193921.000,A,0010.8926,S,07828.8640,W,2.28,96.23,160217,,,D*5B

$GPVTG,96.23,T,,M,2.28,N,4.23,K,D*0B

$GPGSV,4,2,13,27,39,172,33,32,38,088,36,22,37,303,22,10,27,156,24*7D

$GPGSV,4,3,13,03,20,314,18,31,16,022,18,08,14,203,23,01,08,255,*78

$GPGGA,193923.000,0010.8926,S,07828.8621,W,2,09,0.88,2785.2,M,13.7,M,0000,0000*59

$GPGSA,A,3,31,27,03,32,22,08,16,26,14,,,,1.21,0.88,0.83*00

$GPGSA,A,3,31,27,03,32,22,08,16,26,14,,,,1.21,0.88,0.83*00

$GPRMC,193924.000,A,0010.8926,S,07828.8608,W,2.16,91.38,160217,,,D*52

$GPRMC,193925.000,A,0010.8925,S,07828.8599,W,2.19,92.68,160217,,,D*52

$GPVTG,92.68,T,,M,2.19,N,4.06,K,D*05

$GPVTG,94.18,T,,M,2.17,N,4.03,K,D*0F

$GPGGA,193927.000,0010.8928,S,07828.8586,W,2,09,0.88,2785.8,M,13.7,M,0000,0000*57

$GPGSV,4,3,13,03,20,314,18,31,16,022,21,08,14,203,23,01,08,255,*72

$GPGSV,4,4,13,11,04,234,*4A

$GPGSA,A,3,31,27,03,32,22,08,16,26,14,,,,1.21,0.88,0.83*00

$GPRMC,193928.000,A,0010.8927,S,07828.8579,W,2.17,88.46,160217,,,D*5A

$GPRMC,193929.000,A,0010.8928,S,07828.8573,W,2.04,90.59,160217,,,D*5B

$GPVTG,90.59,T,,M,2.04,N,3.79,K,D*06

$GPVTG,93.43,T,,M,2.08,N,3.86,K,D*02

$GPGGA,193931.000,0010.8933,S,07828.8562,W,2,09,0.88,2786.2,M,13.7,M,0000,0000*59

$GPGGA,193932.000,0010.8933,S,07828.8556,W,2,09,0.88,2786.1,M,13.7,M,0000,0000*5E

$GPGSA,A,3,31,27,03,32,22,08,16,26,14,,,,1.21,0.88,0.83*00

$GPGSV,4,4,13,11,04,234,*4A

$GPRMC,193932.000,A,0010.8933,S,07828.8556,W,1.94,94.56,160217,,,D*5D

$GPRMC,193933.000,A,0010.8934,S,07828.8550,W,1.98,96.79,160217,,,D*5E

$GPVTG,96.79,T,,M,1.98,N,3.67,K,D*0B

$GPVTG,99.43,T,,M,1.90,N,3.52,K,D*03

$GPGGA,193935.000,0010.8938,S,07828.8544,W,2,09,0.88,2786.4,M,13.7,M,0000,0000*54

$GPGGA,193936.000,0010.8939,S,07828.8540,W,2,09,0.88,2786.3,M,13.7,M,0000,0000*55

$GPGSA,A,3,31,27,03,32,22,08,16,26,14,,,,1.21,0.88,0.83*00

$GPGSA,A,3,31,27,03,32,22,08,16,26,14,,,,1.21,0.88,0.83*00

$GPGSV,4,1,13,16,75,297,34,46,67,267,32,26,54,005,15,14,43,052,28*7A

$GPRMC,193937.000,A,0010.8939,S,07828.8535,W,1.58,94.78,160217,,,D*5B

$GPVTG,94.78,T,,M,1.58,N,2.92,K,D*0F

$GPVTG,93.68,T,,M,1.56,N,2.90,K,D*05

$GPGGA,193939.000,0010.8945,S,07828.8528,W,2,09,0.88,2786.0,M,13.7,M,0000,0000*5C

