
$GPGGA,163220.000,0010.6974,S,07828.8131,W,1,05,1.58,2777.7,M,13.7,M,,*5A

$GPGSA,A,2,26,31,16,10,18,,,,,,,,1.86,1.58,0.97*07

$GPRMC,163221.000,A,0010.6973,S,07828.8129,W,0.33,286.65,220217,,,A*62

$GPVTG,286.65,T,,M,0.33,N,0.60,K,A*34

$GPVTG,222.55,T,,M,0.15,N,0.28,K,A*31

$GPGGA,163223.000,0010.6974,S,07828.8133,W,1,05,1.58,2776.9,M,13.7,M,,*54

$GPRMC,163223.000,A,0010.6974,S,07828.8133,W,0.09,145.12,220217,,,A*69

$GPVTG,145.12,T,,M,0.09,N,0.17,K,A*31

$GPVTG,340.62,T,,M,0.06,N,0.12,K,A*3B

$GPGGA,163225.000,0010.6977,S,07828.8135,W,1,05,1.58,2780.6,M,13.7,M,,*51

$GPGGA,163226.000,0010.6979,S,07828.8135,W,1,05,2.33,2784.1,M,13.7,M,,*51

$GPGSA,A,3,26,31,16,10,18,,,,,,,,4.89,2.33,4.30*0B

$GPGSA,A,3,26,31,16,10,18,,,,,,,,1.86,1.58,0.97*06

$GPRMC,163227.000,A,0010.6983,S,07828.8133,W,0.47,85.56,220217,,,A*52

$GPGSV,2,1,08,10,64,027,37,18,60,099,42,51,56,270,38,31,53,307,38*7B

$GPGSV,2,2,08,26,41,193,38,16,14,204,27,14,,,20,21,,,20*77

$GPGSA,A,3,26,31,16,10,18,,,,,,,,1.86,1.58,0.97*06

$GPRMC,163229.000,A,0010.6985,S,07828.8130,W,0.27,65.61,220217,,,A*55

$GPRMC,163230.000,A,0010.6986,S,07828.8130,W,0.16,85.84,220217,,,A*59

$GPVTG,85.84,T,,M,0.16,N,0.30,K,A*08

$GPVTG,115.25,T,,M,0.47,N,0.88,K,A*3C

$GPGGA,163232.000,0010.6995,S,07828.8128,W,1,05,1.58,2788.5,M,13.7,M,,*5C

$GPGGA,163233.000,0010.7004,S,07828.8130,W,1,05,1.58,2789.1,M,13.7,M,,*51

$GPGSA,A,3,26,31,16,10,18,,,,,,,,1.86,1.58,0.97*06

$GPVTG,179.22,T,,M,1.84,N,3.41,K,A*39

$GPGGA,163234.000,0010.7016,S,07828.8133,W,1,04,2.21,2793.2,M,13.7,M,,*52

$GPGGA,163235.000,0010.7025,S,07828.8138,W,1,04,2.21,2796.2,M,13.7,M,,*5D

$GPGSA,A,3,26,31,16,10,,,,,,,,,2.41,2.21,0.97*0A

$GPGSA,A,3,26,31,16,10,,,,,,,,,2.41,2.21,0.97*0A

$GPRMC,163236.000,A,0010.7036,S,07828.8145,W,2.47,198.29,220217,,,A*62

$GPRMC,163237.000,A,0010.7045,S,07828.8147,W,2.57,194.03,220217,,,A*60

$GPVTG,194.03,T,,M,2.57,N,4.76,K,A*37

$GPGSV,2,2,08,26,41,193,40,16,14,204,30,14,,,20,21,,,18*75

$GPRMC,163238.000,A,0010.7050,S,07828.8154,W,2.41,207.59,220217,,,A*68

$GPRMC,163239.000,A,0010.7056,S,07828.8157,W,2.51,205.45,220217,,,A*62

$GPVTG,205.45,T,,M,2.51,N,4.65,K,A*3A

$GPVTG,204.31,T,,M,2.93,N,5.44,K,A*34

$GPGGA,163241.000,0010.7070,S,07828.8164,W,1,04,2.21,2799.4,M,13.7,M,,*5E

$GPGGA,163242.000,0010.7076,S,07828.8166,W,1,04,2.21,2798.7,M,13.7,M,,*5B

$GPGSA,A,3,26,31,16,10,,,,,,,,,2.41,2.21,0.97*0A

$GPGSA,A,3,26,31,16,10,18,,,,,,,,1.86,1.58,0.97*06

$GPGSV,2,1,08,10,64,027,39,18,60,099,17,51,56,270,41,31,53,307,40*74

$GPGGA,163244.000,0010.7089,S,07828.8173,W,1,04,2.21,2798.5,M,13.7,M,,*5B

$GPGSA,A,3,26,31,16,10,,,,,,,,,2.41,2.21,0.97*0A

$GPGSA,A,3,26,31,16,10,18,,,,,,,,1.86,1.58,0.97*06

$GPRMC,163245.000,A,0010.7096,S,07828.8176,W,2.51,190.38,220217,,,A*63

$GPRMC,163246.000,A,0010.7103,S,07828.8179,W,2.32,198.47,220217,,,A*67

$GPVTG,198.47,T,,M,2.32,N,4.30,K,A*3A

$GPVTG,192.49,T,,M,2.67,N,4.95,K,A*31

$GPGGA,163248.000,0010.7116,S,07828.8186,W,1,05,1.58,2798.6,M,13.7,M,,*55

$GPRMC,163248.000,A,0010.7116,S,07828.8186,W,2.48,222.48,220217,,,A*6D

$GPVTG,222.48,T,,M,2.48,N,4.59,K,A*35

$GPVTG,193.10,T,,M,2.68,N,4.97,K,A*31

$GPGGA,163250.000,0010.7131,S,07828.8191,W,1,05,1.58,2799.3,M,13.7,M,,*5B

$GPGGA,163251.000,0010.7138,S,07828.8192,W,1,05,1.58,2799.3,M,13.7,M,,*50

$GPGSA,A,3,26,31,16,10,18,,,,,,,,1.86,1.58,0.97*06

$GPGSA,A,3,26,31,16,10,18,,,,,,,,1.85,1.58,0.97*05

$GPRMC,163252.000,A,0010.7144,S,07828.8194,W,2.34,199.63,220217,,,A*63

$GPGSV,2,1,08,10,64,027,37,18,60,099,20,51,56,270,40,31,53,307,37*7F

$GPGSV,2,2,08,26,42,193,40,16,14,204,27,14,,,15,21,,,24*79

$GPGSA,A,3,26,31,16,10,18,,,,,,,,1.86,1.58,0.97*06

$GPRMC,163254.000,A,0010.7159,S,07828.8199,W,2.49,191.95,220217,,,A*6F

$GPRMC,163255.000,A,0010.7166,S,07828.8200,W,2.70,187.30,220217,,,A*63

$GPVTG,187.30,T,,M,2.70,N,5.01,K,A*31

$GPVTG,180.05,T,,M,2.66,N,4.93,K,A*3D

$GPGGA,163257.000,0010.7180,S,07828.8202,W,1,05,1.58,2798.9,M,13.7,M,,*54

$GPGGA,163258.000,0010.7187,S,07828.8204,W,1,05,1.58,2798.8,M,13.7,M,,*5B

$GPGSA,A,3,26,31,16,10,18,,,,,,,,1.86,1.58,0.97*06

$GPVTG,197.20,T,,M,2.40,N,4.44,K,A*32

$GPGGA,163259.000,0010.7195,S,07828.8206,W,1,05,1.58,2798.8,M,13.7,M,,*5B

$GPGGA,163300.000,0010.7203,S,07828.8207,W,2,05,1.58,2798.7,M,13.7,M,0000,0000*57

$GPGSA,A,3,26,31,16,10,18,,,,,,,,1.86,1.58,0.97*06

$GPGSA,A,3,26,31,16,10,18,,,,,,,,1.86,1.58,0.97*06

$GPRMC,163301.000,A,0010.7211,S,07828.8208,W,2.75,189.88,220217,,,D*65

$GPRMC,163302.000,A,0010.7217,S,07828.8209,W,2.02,199.84,220217,,,D*6C

$GPVTG,199.84,T,,M,2.02,N,3.75,K,D*34

$GPGSV,2,2,08,26,42,193,42,16,14,204,22,14,,,15,21,,,32*79

$GPRMC,163303.000,A,0010.7224,S,07828.8210,W,2.91,191.78,220217,,,D*64

$GPRMC,163304.000,A,0010.7232,S,07828.8212,W,2.99,199.07,220217,,,D*6E

$GPVTG,199.07,T,,M,2.99,N,5.53,K,D*3F

$GPVTG,201.83,T,,M,2.53,N,4.69,K,D*3F

$GPGGA,163306.000,0010.7246,S,07828.8218,W,2,05,1.58,2799.2,M,13.7,M,0000,0000*5A

$GPGGA,163307.000,0010.7254,S,07828.8219,W,2,05,1.58,2799.3,M,13.7,M,0000,0000*58

$GPGSA,A,3,26,31,16,10,18,,,,,,,,1.86,1.58,0.97*06

$GPGSA,A,3,26,31,16,10,18,,,,,,,,1.86,1.58,0.97*06

$GPGSV,3,1,09,10,64,028,38,18,60,099,42,51,56,270,25,31,53,307,35*7A

$GPVTG,171.22,T,,M,2.32,N,4.29,K,D*33

$GPGGA,163309.000,0010.7268,S,07828.8217,W,2,05,1.58,2799.3,M,13.7,M,0000,0000*57

$GPGGA,163310.000,0010.7275,S,07828.8219,W,2,05,1.58,2799.3,M,13.7,M,0000,0000*5D

$GPGSA,A,3,26,31,16,10,18,,,,,,,,1.86,1.58,0.97*06

$GPGSA,A,3,26,31,16,10,18,,,,,,,,1.85,1.58,0.97*05

$GPRMC,163311.000,A,0010.7283,S,07828.8221,W,2.94,204.83,220217,,,D*66

$GPRMC,163312.000,A,0010.7289,S,07828.8223,W,2.45,196.91,220217,,,D*6A

$GPVTG,196.91,T,,M,2.45,N,4.54,K,D*38

$GPGSV,3,2,09,26,42,193,41,25,35,057,,16,14,204,22,14,,,17*49

$GPGSV,3,3,09,21,,,26*77

$GPGSA,A,3,26,31,16,10,18,,,,,,,,1.86,1.58,0.97*06

$GPRMC,163314.000,A,0010.7303,S,07828.8223,W,2.01,208.23,220217,,,D*62

$GPRMC,163315.000,A,0010.7308,S,07828.8225,W,2.27,221.02,220217,,,D*62

$GPVTG,221.02,T,,M,2.27,N,4.21,K,D*3B

$GPVTG,205.77,T,,M,1.95,N,3.62,K,D*35

$GPGGA,163317.000,0010.7320,S,07828.8228,W,2,05,1.58,2799.0,M,13.7,M,0000,0000*5A

$GPGGA,163318.000,0010.7328,S,07828.8228,W,2,05,1.58,2798.9,M,13.7,M,0000,0000*55

$GPGSA,A,3,26,31,16,10,18,,,,,,,,1.85,1.58,0.97*05

$GPRMC,163318.000,A,0010.7328,S,07828.8228,W,2.50,184.19,220217,,,D*66

$GPVTG,184.19,T,,M,2.50,N,4.64,K,D*3C

$GPVTG,217.21,T,,M,2.16,N,4.01,K,D*3F

$GPGGA,163320.000,0010.7340,S,07828.8233,W,2,05,1.58,2798.9,M,13.7,M,0000,0000*5A

$GPGGA,163321.000,0010.7346,S,07828.8237,W,2,05,1.58,2798.7,M,13.7,M,0000,0000*57

$GPGSA,A,3,26,31,16,10,18,,,,,,,,1.86,1.58,0.97*06

$GPGSA,A,3,26,31,16,10,18,,,,,,,,1.85,1.58,0.97*05

$GPRMC,163322.000,A,0010.7352,S,07828.8239,W,2.25,211.48,220217,,,D*6B

$GPGSV,3,1,09,10,64,028,39,18,60,100,22,51,56,270,26,31,53,307,31*7B

$GPGSV,3,2,09,26,42,193,39,25,35,057,35,16,14,204,26,14,,,17*44

$GPGGA,163324.000,0010.7366,S,07828.8240,W,2,05,1.58,2798.5,M,13.7,M,0000,0000*52

$GPGSA,A,3,26,31,16,10,18,,,,,,,,1.85,1.58,0.97*05

$GPGSA,A,3,26,31,16,10,18,,,,,,,,1.85,1.58,0.97*05

$GPRMC,163325.000,A,0010.7373,S,07828.8241,W,2.77,195.39,220217,,,D*6E

$GPRMC,163326.000,A,0010.7383,S,07828.8239,W,3.29,183.84,220217,,,D*66

$GPVTG,183.84,T,,M,3.29,N,6.09,K,D*39

$GPVTG,184.27,T,,M,2.85,N,5.29,K,D*31

$GPGGA,163328.000,0010.7398,S,07828.8244,W,2,05,1.58,2798.2,M,13.7,M,0000,0000*5C

$GPGSV,3,3,09,21,,,23*72

$GPRMC,163328.000,A,0010.7398,S,07828.8244,W,2.97,206.12,220217,,,D*6D

$GPRMC,163329.000,A,0010.7407,S,07828.8247,W,3.13,195.71,220217,,,D*6F

$GPVTG,195.71,T,,M,3.13,N,5.81,K,D*3E

$GPVTG,195.97,T,,M,2.48,N,4.59,K,D*3D

$GPGGA,163331.000,0010.7422,S,07828.8252,W,2,05,1.58,2798.2,M,13.7,M,0000,0000*55

$GPGGA,163332.000,0010.7429,S,07828.8257,W,2,05,1.58,2798.3,M,13.7,M,0000,0000*59

$GPGSA,A,3,26,31,16,10,18,,,,,,,,1.85,1.58,0.97*05

$GPGSA,A,3,26,31,16,10,18,,,,,,,,1.86,1.58,0.97*06

$GPGSV,3,1,09,10,64,028,37,18,60,100,31,51,56,270,27,31,53,308,30*78

$GPVTG,220.36,T,,M,2.79,N,5.16,K,D*33

$GPGGA,163334.000,0010.7441,S,07828.8269,W,2,05,1.58,2798.3,M,13.7,M,0000,0000*5C

$GPGGA,163335.000,0010.7449,S,07828.8272,W,2,05,1.58,2798.3,M,13.7,M,0000,0000*5F

$GPGSA,A,3,26,31,16,10,18,,,,,,,,1.86,1.58,0.97*06

$GPGSA,A,3,26,31,16,10,18,,,,,,,,1.85,1.58,0.97*05

$GPRMC,163336.000,A,0010.7456,S,07828.8274,W,2.50,205.35,220217,,,D*69

$GPRMC,163337.000,A,0010.7463,S,07828.8276,W,2.42,199.45,220217,,,D*6E

$GPVTG,199.45,T,,M,2.42,N,4.48,K,D*34

$GPGSV,3,2,09,26,42,193,40,25,35,057,23,16,14,204,19,14,,,15*43

$GPGSV,3,3,09,21,,,18*7A

$GPGSA,A,3,26,31,16,10,18,,,,,,,,1.85,1.58,0.97*05

$GPRMC,163339.000,A,0010.7476,S,07828.8285,W,3.43,242.51,220217,,,D*68

$GPRMC,163340.000,A,0010.7482,S,07828.8292,W,3.76,238.46,220217,,,D*66

$GPVTG,238.46,T,,M,3.76,N,6.96,K,D*38

$GPVTG,249.25,T,,M,3.81,N,7.06,K,D*3B

$GPGGA,163342.000,0010.7492,S,07828.8306,W,2,05,1.58,2798.5,M,13.7,M,0000,0000*5D

$GPGGA,163343.000,0010.7499,S,07828.8310,W,2,05,1.58,2798.6,M,13.7,M,0000,0000*53

$GPGSA,A,3,26,31,16,10,18,,,,,,,,1.86,1.58,0.97*06

$GPRMC,163343.000,A,0010.7499,S,07828.8310,W,2.80,217.91,220217,,,D*6B

$GPVTG,217.91,T,,M,2.80,N,5.18,K,D*32

$GPVTG,213.78,T,,M,2.72,N,5.04,K,D*31

$GPGGA,163345.000,0010.7514,S,07828.8311,W,2,05,1.58,2798.6,M,13.7,M,0000,0000*50

$GPGGA,163346.000,0010.7523,S,07828.8308,W,2,05,1.58,2798.7,M,13.7,M,0000,0000*5E

$GPGSA,A,3,26,31,16,10,18,,,,,,,,1.85,1.58,0.97*05

$GPGSA,A,3,26,31,16,10,18,,,,,,,,1.85,1.58,0.97*05

$GPRMC,163347.000,A,0010.7532,S,07828.8306,W,2.37,192.90,220217,,,D*6B

$GPGSV,3,1,09,10,64,028,39,18,60,100,18,51,56,270,39,31,53,308,44*71

$GPGSV,3,2,09,26,42,193,42,25,35,057,23,16,14,204,19,14,,,29*4E

$GPGGA,163349.000,0010.7549,S,07828.8300,W,2,05,1.58,2798.8,M,13.7,M,0000,0000*5A

$GPGSA,A,3,26,31,16,10,18,,,,,,,,1.85,1.58,0.97*05

$GPGSA,A,3,26,31,16,10,18,,,,,,,,1.85,1.58,0.97*05

$GPRMC,163350.000,A,0010.7555,S,07828.8303,W,2.37,188.62,220217,,,D*6F

$GPRMC,163351.000,A,0010.7562,S,07828.8304,W,2.57,204.16,220217,,,D*6F

$GPVTG,204.16,T,,M,2.57,N,4.75,K,D*3F

$GPVTG,201.05,T,,M,2.62,N,4.86,K,D*32

$GPGGA,163353.000,0010.7577,S,07828.8304,W,2,05,1.58,2798.8,M,13.7,M,0000,0000*58

$GPGSV,3,3,09,21,,,19*7B

$GPRMC,163353.000,A,0010.7577,S,07828.8304,W,2.91,193.65,220217,,,D*6A

$GPRMC,163354.000,A,0010.7585,S,07828.8308,W,2.80,203.29,220217,,,D*6E

$GPVTG,203.29,T,,M,2.80,N,5.19,K,D*35

$GPVTG,199.84,T,,M,3.11,N,5.77,K,D*33

$GPGGA,163356.000,0010.7600,S,07828.8314,W,2,05,1.58,2798.9,M,13.7,M,0000,0000*5E

$GPGGA,163357.000,0010.7607,S,07828.8316,W,2,05,1.58,2799.0,M,13.7,M,0000,0000*52

$GPGSA,A,3,26,31,16,10,18,,,,,,,,1.85,1.58,0.97*05

$GPGSA,A,3,26,31,16,10,18,,,,,,,,1.85,1.58,0.97*05

$GPGSV,3,1,09,10,64,028,35,18,60,100,22,51,56,270,26,31,53,308,38*71

$GPVTG,212.40,T,,M,2.98,N,5.52,K,D*3C

$GPGGA,163359.000,0010.7622,S,07828.8324,W,2,05,1.58,2799.1,M,13.7,M,0000,0000*5B

$GPGGA,163400.000,0010.7629,S,07828.8327,W,2,05,1.58,2799.3,M,13.7,M,0000,0000*5A

$GPGSA,A,3,26,31,16,10,18,,,,,,,,1.86,1.58,0.97*06

$GPGSA,A,3,26,31,16,10,18,,,,,,,,1.85,1.58,0.97*05

$GPRMC,163401.000,A,0010.7636,S,07828.8329,W,2.58,198.17,220217,,,D*68

$GPRMC,163402.000,A,0010.7643,S,07828.8333,W,2.86,205.45,220217,,,D*61

$GPVTG,205.45,T,,M,2.86,N,5.31,K,D*35

$GPGSV,3,2,09,26,42,193,42,25,35,056,20,16,14,204,33,14,,,18*46

$GPGSV,3,3,09,21,,,20*71

$GPGSA,A,3,26,31,16,10,18,,,,,,,,1.85,1.58,0.97*05

$GPRMC,163404.000,A,0010.7655,S,07828.8339,W,2.68,205.23,220217,,,D*6A

$GPRMC,163405.000,A,0010.7660,S,07828.8342,W,2.60,204.89,220217,,,D*68

$GPVTG,204.89,T,,M,2.60,N,4.81,K,D*36

$GPVTG,213.18,T,,M,2.73,N,5.06,K,D*34

$GPGGA,163407.000,0010.7673,S,07828.8350,W,2,05,1.58,2796.7,M,13.7,M,0000,0000*59

$GPGGA,163408.000,0010.7680,S,07828.8356,W,2,05,1.58,2796.5,M,13.7,M,0000,0000*5E

$GPGSA,A,3,26,31,16,10,18,,,,,,,,1.85,1.58,0.97*05

$GPRMC,163408.000,A,0010.7680,S,07828.8356,W,3.16,218.36,220217,,,D*67

$GPVTG,218.36,T,,M,3.16,N,5.86,K,D*39

$GPVTG,227.77,T,,M,2.74,N,5.07,K,D*3C

$GPGGA,163410.000,0010.7693,S,07828.8365,W,2,05,1.58,2796.5,M,13.7,M,0000,0000*55

$GPGGA,163411.000,0010.7698,S,07828.8369,W,2,05,1.58,2796.5,M,13.7,M,0000,0000*53

$GPGSA,A,3,26,31,16,10,18,,,,,,,,1.85,1.58,0.97*05

$GPGSA,A,3,26,31,16,10,18,,,,,,,,1.85,1.58,0.97*05

$GPRMC,163412.000,A,0010.7703,S,07828.8375,W,2.86,234.00,220217,,,D*64

$GPGSV,3,1,10,10,64,028,27,18,60,100,22,51,56,270,40,31,52,308,28*7A

$GPGSV,3,2,10,26,42,193,41,25,35,056,23,16,14,204,32,27,05,229,*7A

$GPGGA,163414.000,0010.7716,S,07828.8369,W,2,05,1.58,2796.8,M,13.7,M,0000,0000*5C

$GPGSA,A,3,26,31,16,10,18,,,,,,,,1.85,1.58,0.97*05

$GPGSA,A,3,26,31,16,10,18,,,,,,,,1.85,1.58,0.97*05

$GPRMC,163415.000,A,0010.7721,S,07828.8357,W,2.42,110.74,220217,,,D*6D

$GPRMC,163416.000,A,0010.7723,S,07828.8346,W,2.25,92.63,220217,,,D*50

$GPVTG,92.63,T,,M,2.25,N,4.17,K,D*01

$GPVTG,101.39,T,,M,1.99,N,3.69,K,D*3F

$GPGGA,163418.000,0010.7729,S,07828.8323,W,2,05,1.58,2796.7,M,13.7,M,0000,0000*5D

$GPGSV,3,3,10,14,,,16,21,,,22*79

$GPRMC,163418.000,A,0010.7729,S,07828.8323,W,1.64,94.40,220217,,,D*56

$GPRMC,163419.000,A,0010.7729,S,07828.8316,W,1.46,6.36,220217,,,D*6B

$GPVTG,6.36,T,,M,1.46,N,2.71,K,D*3C

$GPVTG,25.37,T,,M,1.05,N,1.95,K,D*02

$GPGGA,163421.000,0010.7731,S,07828.8302,W,2,05,1.58,2796.6,M,13.7,M,0000,0000*5C

$GPGGA,163422.000,0010.7737,S,07828.8290,W,2,05,1.58,2796.5,M,13.7,M,0000,0000*50

$GPGSA,A,3,26,31,16,10,18,,,,,,,,1.85,1.58,0.98*0A

$GPGSA,A,3,26,31,16,10,18,,,,,,,,1.85,1.58,0.98*0A

$GPGSV,3,1,10,10,64,029,38,18,60,100,38,51,56,270,30,31,52,308,30*70

$GPVTG,154.57,T,,M,1.58,N,2.92,K,D*3F

$GPGGA,163424.000,0010.7754,S,07828.8280,W,2,05,1.58,2796.7,M,13.7,M,0000,0000*50

$GPGGA,163425.000,0010.7765,S,07828.8275,W,2,05,1.58,2796.8,M,13.7,M,0000,0000*56

$GPGSA,A,3,26,31,16,10,18,,,,,,,,1.85,1.58,0.98*0A

$GPGSA,A,3,31,16,10,18,,,,,,,,,1.95,1.67,1.00*03

$GPRMC,163426.000,A,0010.7777,S,07828.8271,W,3.19,173.33,220217,,,D*62

$GPRMC,163427.000,A,0010.7787,S,07828.8270,W,2.42,186.77,220217,,,D*68

$GPVTG,186.77,T,,M,2.42,N,4.49,K,D*3A

$GPGSV,3,2,10,26,42,193,13,25,35,056,20,16,15,204,15,27,05,229,*7A

$GPGSV,3,3,10,14,,,16,21,,,16*7E

$GPGSA,A,3,31,16,10,18,,,,,,,,,1.95,1.67,1.00*03

$GPRMC,163429.000,A,0010.7809,S,07828.8267,W,2.89,166.03,220217,,,D*63

$GPRMC,163430.000,A,0010.7818,S,07828.8260,W,3.15,136.63,220217,,,D*6B

$GPVTG,136.63,T,,M,3.15,N,5.84,K,D*37

$GPVTG,139.61,T,,M,2.74,N,5.08,K,D*38

$GPGGA,163432.000,0010.7835,S,07828.8250,W,2,04,1.67,2797.3,M,13.7,M,0000,0000*5A

$GPGGA,163433.000,0010.7839,S,07828.8241,W,2,04,1.67,2797.4,M,13.7,M,0000,0000*50

$GPGSA,A,3,31,16,10,18,,,,,,,,,1.95,1.67,1.00*03

$GPRMC,163433.000,A,0010.7839,S,07828.8241,W,3.19,136.15,220217,,,D*65

$GPVTG,136.15,T,,M,3.19,N,5.91,K,D*3E

$GPVTG,136.71,T,,M,2.68,N,4.96,K,D*3D

$GPGGA,163435.000,0010.7850,S,07828.8226,W,2,04,1.77,2797.5,M,13.7,M,0000,0000*58

$GPGGA,163436.000,0010.7855,S,07828.8220,W,2,04,1.77,2797.6,M,13.7,M,0000,0000*5B

$GPGSA,A,3,26,31,10,18,,,,,,,,,2.03,1.77,1.00*0D

$GPGSA,A,3,26,31,10,18,,,,,,,,,2.03,1.77,1.00*0D

$GPRMC,163437.000,A,0010.7861,S,07828.8214,W,2.83,133.42,220217,,,D*69

$GPGSV,3,1,10,10,64,029,40,18,59,101,39,51,56,270,30,31,52,308,35*70

$GPGSV,3,2,10,26,43,193,12,25,35,056,21,16,15,204,,27,05,229,*7F

$GPGGA,163439.000,0010.7862,S,07828.8195,W,2,04,1.77,2797.7,M,13.7,M,0000,0000*5C

$GPGSA,A,3,26,31,10,18,,,,,,,,,2.03,1.77,1.00*0D

$GPGSA,A,3,26,31,10,18,,,,,,,,,2.03,1.77,1.00*0D

$GPRMC,163440.000,A,0010.7863,S,07828.8187,W,3.14,86.48,220217,,,D*58

$GPRMC,163441.000,A,0010.7862,S,07828.8178,W,3.13,87.28,220217,,,D*58

$GPVTG,87.28,T,,M,3.13,N,5.80,K,D*01

$GPVTG,99.13,T,,M,2.76,N,5.11,K,D*0C

$GPGGA,163443.000,0010.7866,S,07828.8163,W,2,04,1.77,2797.9,M,13.7,M,0000,0000*52

$GPGSV,3,3,10,14,,,16,21,,,17*7F

$GPRMC,163443.000,A,0010.7866,S,07828.8163,W,2.49,98.75,220217,,,D*5C

$GPRMC,163444.000,A,0010.7870,S,07828.8156,W,2.67,114.63,220217,,,D*64

$GPVTG,114.63,T,,M,2.67,N,4.94,K,D*33

$GPVTG,141.41,T,,M,2.59,N,4.81,K,D*3A

$GPGGA,163446.000,0010.7884,S,07828.8148,W,2,04,1.77,2798.0,M,13.7,M,0000,0000*54

$GPGGA,163447.000,0010.7886,S,07828.8141,W,2,04,1.77,2798.0,M,13.7,M,0000,0000*5E

$GPGSA,A,3,26,31,10,18,,,,,,,,,2.03,1.77,1.00*0D

$GPGSA,A,3,26,31,10,18,,,,,,,,,2.03,1.77,1.00*0D

$GPGSV,3,1,09,10,64,029,24,18,59,101,38,51,56,270,24,31,52,309,30*7A

$GPVTG,121.68,T,,M,2.38,N,4.40,K,D*3D

$GPGGA,163449.000,0010.7884,S,07828.8126,W,2,04,1.77,2797.9,M,13.7,M,0000,0000*55

$GPGGA,163450.000,0010.7883,S,07828.8117,W,2,04,1.77,2797.9,M,13.7,M,0000,0000*58

$GPGSA,A,3,26,31,10,18,,,,,,,,,2.03,1.77,1.00*0D

$GPGSA,A,3,26,31,10,18,,,,,,,,,2.03,1.77,1.00*0D

$GPRMC,163451.000,A,0010.7884,S,07828.8107,W,3.01,105.85,220217,,,D*66

$GPRMC,163452.000,A,0010.7884,S,07828.8100,W,2.29,99.74,220217,,,D*53

$GPVTG,99.74,T,,M,2.29,N,4.24,K,D*00

$GPGSV,3,2,10,26,43,193,17,25,35,056,40,16,15,204,,27,05,229,*7D

$GPGSV,3,3,10,14,,,19,21,,,20*74

$GPGSA,A,3,26,31,10,18,,,,,,,,,2.03,1.77,1.00*0D

$GPRMC,163454.000,A,0010.7883,S,07828.8085,W,2.43,104.97,220217,,,D*6A

$GPRMC,163455.000,A,0010.7878,S,07828.8075,W,1.92,110.43,220217,,,D*63

$GPVTG,110.43,T,,M,1.92,N,3.56,K,D*35

$GPVTG,117.48,T,,M,2.98,N,5.53,K,D*33

$GPGGA,163457.000,0010.7876,S,07828.8057,W,2,04,1.77,2797.4,M,13.7,M,0000,0000*5D

$GPGGA,163458.000,0010.7873,S,07828.8049,W,2,04,1.77,2797.3,M,13.7,M,0000,0000*5F

$GPGSA,A,3,26,31,10,18,,,,,,,,,2.03,1.77,1.00*0D

$GPRMC,163458.000,A,0010.7873,S,07828.8049,W,2.59,108.64,220217,,,D*62

$GPVTG,108.64,T,,M,2.59,N,4.80,K,D*31

$GPVTG,124.34,T,,M,2.35,N,4.35,K,D*3E

$GPGGA,163500.000,0010.7866,S,07828.8031,W,2,04,1.77,2797.0,M,13.7,M,0000,0000*5B

$GPGGA,163501.000,0010.7867,S,07828.8023,W,2,04,1.77,2796.9,M,13.7,M,0000,0000*50

$GPGSA,A,3,26,31,10,18,,,,,,,,,2.03,1.77,1.00*0D

$GPGSA,A,3,26,31,16,10,18,,,,,,,,1.85,1.58,0.98*0A

$GPRMC,163502.000,A,0010.7868,S,07828.8017,W,2.76,151.02,220217,,,D*6C

$GPGSV,3,1,10,10,65,029,39,18,59,101,39,51,56,270,24,31,52,309,37*79

$GPGSV,3,2,10,26,43,193,43,25,35,056,26,16,15,204,17,27,05,229,*7A

$GPGGA,163504.000,0010.7879,S,07828.8015,W,2,05,1.58,2797.3,M,13.7,M,0000,0000*58

$GPGSA,A,3,26,31,16,10,18,,,,,,,,1.85,1.58,0.98*0A

$GPGSA,A,3,26,31,16,10,18,,,,,,,,1.85,1.58,0.98*0A

$GPRMC,163505.000,A,0010.7887,S,07828.8015,W,3.20,188.89,220217,,,D*6D

$GPRMC,163506.000,A,0010.7894,S,07828.8015,W,2.63,188.38,220217,,,D*60

$GPVTG,188.38,T,,M,2.63,N,4.88,K,D*31

$GPVTG,193.63,T,,M,2.45,N,4.54,K,D*30

$GPGGA,163508.000,0010.7908,S,07828.8016,W,2,05,1.58,2797.9,M,13.7,M,0000,0000*5A

$GPGSV,3,3,10,14,,,19,21,,,42*70

$GPRMC,163508.000,A,0010.7908,S,07828.8016,W,2.73,185.36,220217,,,D*6B

$GPRMC,163509.000,A,0010.7916,S,07828.8015,W,2.71,189.27,220217,,,D*68

$GPVTG,189.27,T,,M,2.71,N,5.03,K,D*3F

$GPVTG,199.75,T,,M,2.69,N,4.99,K,D*32

$GPGGA,163511.000,0010.7931,S,07828.8017,W,2,04,2.93,2798.3,M,13.7,M,0000,0000*59

$GPGGA,163512.000,0010.7941,S,07828.8016,W,2,04,2.93,2798.5,M,13.7,M,0000,0000*5A

$GPGSA,A,3,26,16,10,18,,,,,,,,,3.09,2.93,0.98*0A

$GPGSA,A,3,26,31,16,10,18,,,,,,,,1.85,1.58,0.98*0A

$GPGSV,3,1,10,10,65,029,37,18,59,102,42,51,56,270,23,31,52,309,21*78

$GPVTG,185.18,T,,M,2.54,N,4.71,K,D*3C

$GPGGA,163514.000,0010.7956,S,07828.8017,W,2,05,1.58,2798.5,M,13.7,M,0000,0000*5E

$GPGGA,163515.000,0010.7963,S,07828.8019,W,2,05,1.58,2798.5,M,13.7,M,0000,0000*57

$GPGSA,A,3,26,31,16,10,18,,,,,,,,1.85,1.58,0.98*0A

$GPGSA,A,3,26,16,10,18,,,,,,,,,3.09,2.93,0.98*0A

$GPRMC,163516.000,A,0010.7970,S,07828.8019,W,2.54,183.25,220217,,,D*65

$GPRMC,163517.000,A,0010.7978,S,07828.8019,W,2.59,197.83,220217,,,D*68

$GPVTG,197.83,T,,M,2.59,N,4.81,K,D*3F

$GPGSV,3,2,10,25,35,056,37,48,27,270,,16,15,204,17,27,05,229,*79

$GPGSV,3,3,10,14,,,18,21,,,28*7D

$GPGSA,A,3,26,31,16,10,18,,,,,,,,1.85,1.58,0.98*0A

$GPRMC,163519.000,A,0010.7990,S,07828.8020,W,2.29,200.68,220217,,,D*65

$GPRMC,163520.000,A,0010.7997,S,07828.8019,W,1.64,209.09,220217,,,D*66

$GPVTG,209.09,T,,M,1.64,N,3.04,K,D*3E

$GPVTG,230.97,T,,M,2.37,N,4.38,K,D*3E

$GPGGA,163522.000,0010.8011,S,07828.8023,W,2,05,1.58,2798.7,M,13.7,M,0000,0000*5B

$GPGGA,163523.000,0010.8020,S,07828.8022,W,2,05,1.58,2798.9,M,13.7,M,0000,0000*57

$GPGSA,A,3,26,31,16,10,18,,,,,,,,1.85,1.58,0.98*0A

$GPRMC,163523.000,A,0010.8020,S,07828.8022,W,2.53,192.82,220217,,,D*62

$GPVTG,192.82,T,,M,2.53,N,4.70,K,D*3F

$GPVTG,183.77,T,,M,2.93,N,5.43,K,D*38

$GPGGA,163525.000,0010.8038,S,07828.8023,W,2,06,1.45,2799.4,M,13.7,M,0000,0000*5A

$GPGGA,163526.000,0010.8043,S,07828.8022,W,2,06,1.45,2799.5,M,13.7,M,0000,0000*55

$GPGSA,A,3,26,31,16,10,18,21,,,,,,,1.75,1.45,0.97*05

$GPGSA,A,3,26,31,16,10,18,21,,,,,,,1.75,1.45,0.97*05

$GPRMC,163527.000,A,0010.8051,S,07828.8025,W,1.94,203.33,220217,,,D*6E

$GPGSV,3,1,10,10,65,029,34,18,59,102,39,31,52,309,19,26,43,193,39*7D

$GPGSV,3,2,10,25,35,056,21,21,29,168,29,33,18,090,,16,15,204,21*72

$GPGGA,163529.000,0010.8068,S,07828.8027,W,2,06,1.46,2799.6,M,13.7,M,0000,0000*56

$GPGSA,A,3,26,31,16,10,18,21,,,,,,,1.75,1.46,0.97*06

$GPGSA,A,3,26,31,16,10,18,21,,,,,,,1.75,1.46,0.97*06

$GPRMC,163530.000,A,0010.8075,S,07828.8028,W,2.29,201.39,220217,,,D*6E

$GPRMC,163531.000,A,0010.8082,S,07828.8027,W,2.04,197.03,220217,,,D*62

$GPVTG,197.03,T,,M,2.04,N,3.78,K,D*3E

$GPVTG,194.57,T,,M,2.00,N,3.70,K,D*30

$GPGGA,163533.000,0010.8095,S,07828.8027,W,2,06,1.45,2800.1,M,13.7,M,0000,0000*54

$GPGSV,3,3,10,27,05,229,,14,,,19*4C

$GPRMC,163533.000,A,0010.8095,S,07828.8027,W,1.97,195.95,220217,,,D*62

$GPRMC,163534.000,A,0010.8101,S,07828.8029,W,2.08,197.83,220217,,,D*67

$GPVTG,197.83,T,,M,2.08,N,3.86,K,D*3B

$GPVTG,210.41,T,,M,1.94,N,3.59,K,D*3D

$GPGGA,163536.000,0010.8117,S,07828.8028,W,2,06,1.45,2800.5,M,13.7,M,0000,0000*51

$GPGGA,163537.000,0010.8127,S,07828.8028,W,2,06,1.45,2800.7,M,13.7,M,0000,0000*51

$GPGSA,A,3,26,31,16,10,18,21,,,,,,,1.75,1.45,0.97*05

$GPGSA,A,3,26,31,16,10,18,21,,,,,,,1.75,1.46,0.97*06

$GPGSV,3,1,11,10,65,030,32,18,59,102,40,51,56,270,33,31,52,309,27*71

$GPVTG,212.37,T,,M,2.48,N,4.59,K,D*3B

$GPGGA,163539.000,0010.8144,S,07828.8034,W,2,06,1.45,2801.0,M,13.7,M,0000,0000*51

$GPGGA,163540.000,0010.8150,S,07828.8035,W,2,06,1.45,2801.3,M,13.7,M,0000,0000*58

$GPGSA,A,3,26,31,16,10,18,21,,,,,,,1.75,1.45,0.97*05

$GPGSA,A,3,26,31,16,10,18,21,,,,,,,1.75,1.45,0.97*05

$GPRMC,163541.000,A,0010.8158,S,07828.8038,W,2.37,210.07,220217,,,D*65

$GPRMC,163542.000,A,0010.8165,S,07828.8040,W,2.55,210.07,220217,,,D*63

$GPVTG,210.07,T,,M,2.55,N,4.73,K,D*3E

$GPGSV,3,2,11,26,43,193,36,25,35,056,22,21,29,168,21,16,15,204,17*70

$GPGSV,3,3,11,29,09,120,,27,05,229,,14,,,16*73

$GPGSA,A,3,26,31,16,10,18,21,,,,,,,1.75,1.45,0.97*05

$GPRMC,163544.000,A,0010.8182,S,07828.8041,W,2.45,199.90,220217,,,D*60

$GPRMC,163545.000,A,0010.8190,S,07828.8041,W,2.51,201.82,220217,,,D*66

$GPVTG,201.82,T,,M,2.51,N,4.65,K,D*30

$GPVTG,196.68,T,,M,2.45,N,4.54,K,D*3E

$GPGGA,163547.000,0010.8206,S,07828.8041,W,2,06,1.45,2802.2,M,13.7,M,0000,0000*5E

$GPGGA,163548.000,0010.8212,S,07828.8042,W,2,06,1.45,2802.3,M,13.7,M,0000,0000*56

$GPGSA,A,3,26,31,16,10,18,21,,,,,,,1.75,1.45,0.97*05

$GPRMC,163548.000,A,0010.8212,S,07828.8042,W,2.37,198.06,220217,,,D*6E

$GPVTG,198.06,T,,M,2.37,N,4.39,K,D*36

$GPVTG,205.56,T,,M,2.47,N,4.58,K,D*34

$GPGGA,163550.000,0010.8227,S,07828.8043,W,2,06,1.46,2802.5,M,13.7,M,0000,0000*5D

$GPGGA,163551.000,0010.8235,S,07828.8042,W,2,05,2.23,2802.6,M,13.7,M,0000,0000*5E

$GPGSA,A,3,26,16,10,18,21,,,,,,,,2.43,2.23,0.97*02

$GPGSA,A,3,26,31,16,10,18,21,,,,,,,1.75,1.46,0.97*06

$GPRMC,163552.000,A,0010.8243,S,07828.8043,W,2.59,193.33,220217,,,D*65

$GPGSV,3,1,11,10,65,030,32,18,59,102,39,31,52,309,28,26,43,193,43*7D

$GPGSV,3,2,11,25,35,056,23,21,29,168,41,48,27,270,,16,15,204,22*70

$GPGGA,163554.000,0010.8259,S,07828.8044,W,2,06,1.45,2803.1,M,13.7,M,0000,0000*51

$GPGSA,A,3,26,31,16,10,18,21,,,,,,,1.75,1.45,0.97*05

$GPGSA,A,3,26,31,16,10,18,21,,,,,,,1.75,1.45,0.97*05

$GPRMC,163555.000,A,0010.8265,S,07828.8046,W,2.29,204.38,220217,,,D*62

$GPRMC,163556.000,A,0010.8270,S,07828.8049,W,2.00,217.77,220217,,,D*68

$GPVTG,217.77,T,,M,2.00,N,3.71,K,D*3B

$GPVTG,193.23,T,,M,2.75,N,5.10,K,D*36

$GPGGA,163558.000,0010.8291,S,07828.8047,W,2,05,2.22,2803.8,M,13.7,M,0000,0000*52

$GPGSV,3,3,11,29,09,120,,27,05,229,,14,,,20*76

$GPRMC,163558.000,A,0010.8291,S,07828.8047,W,2.93,190.57,220217,,,D*63

$GPRMC,163559.000,A,0010.8300,S,07828.8049,W,2.71,203.19,220217,,,D*6A

$GPVTG,203.19,T,,M,2.71,N,5.02,K,D*32

$GPVTG,197.79,T,,M,2.10,N,3.89,K,D*38

$GPGGA,163601.000,0010.8316,S,07828.8050,W,2,06,1.45,2804.2,M,13.7,M,0000,0000*59

$GPGGA,163602.000,0010.8322,S,07828.8054,W,2,06,1.45,2804.3,M,13.7,M,0000,0000*58

$GPGSA,A,3,26,31,16,10,18,21,,,,,,,1.75,1.45,0.97*05

$GPGSA,A,3,26,31,16,10,18,21,,,,,,,1.75,1.46,0.97*06

$GPGSV,3,1,11,10,65,030,36,18,59,102,40,31,52,310,32,26,43,193,34*74

$GPVTG,214.13,T,,M,2.41,N,4.47,K,D*3D

$GPGGA,163604.000,0010.8335,S,07828.8059,W,2,06,1.45,2804.6,M,13.7,M,0000,0000*50

$GPGGA,163605.000,0010.8342,S,07828.8061,W,2,06,1.45,2804.6,M,13.7,M,0000,0000*5A

$GPGSA,A,3,26,31,16,10,18,21,,,,,,,1.75,1.45,0.97*05

$GPGSA,A,3,26,31,16,10,18,21,,,,,,,1.75,1.45,0.97*05

$GPRMC,163606.000,A,0010.8349,S,07828.8062,W,2.57,217.03,220217,,,D*6D

$GPRMC,163607.000,A,0010.8357,S,07828.8063,W,2.41,213.76,220217,,,D*63

$GPVTG,213.76,T,,M,2.41,N,4.46,K,D*38

$GPGSV,3,2,11,25,35,056,28,21,29,168,35,16,15,204,22,29,09,120,*75

$GPGSV,3,3,11,27,05,229,,34,,,,14,,,18*4B

$GPGSA,A,3,26,31,16,10,18,21,,,,,,,1.75,1.45,0.97*05

$GPRMC,163609.000,A,0010.8372,S,07828.8065,W,2.80,210.69,220217,,,D*6C

$GPRMC,163610.000,A,0010.8381,S,07828.8067,W,2.80,204.11,220217,,,D*60

$GPVTG,204.11,T,,M,2.80,N,5.18,K,D*38

$GPVTG,195.28,T,,M,2.85,N,5.28,K,D*3F

$GPGGA,163612.000,0010.8400,S,07828.8067,W,2,06,1.45,2804.6,M,13.7,M,0000,0000*5B

$GPGGA,163613.000,0010.8410,S,07828.8068,W,2,06,1.45,2804.7,M,13.7,M,0000,0000*55

$GPGSA,A,3,26,31,16,10,18,21,,,,,,,1.75,1.45,0.97*05

$GPRMC,163613.000,A,0010.8410,S,07828.8068,W,2.86,216.62,220217,,,D*62

$GPVTG,216.62,T,,M,2.86,N,5.30,K,D*33

$GPVTG,192.67,T,,M,2.40,N,4.45,K,D*30

$GPGGA,163615.000,0010.8424,S,07828.8068,W,2,06,1.45,2804.8,M,13.7,M,0000,0000*5B

$GPGGA,163616.000,0010.8427,S,07828.8069,W,2,06,1.45,2804.8,M,13.7,M,0000,0000*5A

$GPGSA,A,3,26,31,16,10,18,21,,,,,,,1.75,1.45,0.97*05

$GPGSA,A,3,26,31,16,10,18,21,,,,,,,1.75,1.45,0.97*05

$GPRMC,163617.000,A,0010.8432,S,07828.8071,W,1.41,212.41,220217,,,D*63

$GPGSV,3,1,11,10,65,030,36,18,59,102,32,31,52,310,27,26,43,193,40*76

$GPGSV,3,2,11,25,35,056,25,21,29,168,37,16,15,204,20,29,09,120,*78

$GPGGA,163619.000,0010.8445,S,07828.8072,W,2,06,1.46,2804.7,M,13.7,M,0000,0000*57

$GPGSA,A,3,26,31,16,10,18,21,,,,,,,1.75,1.46,0.97*06

$GPGSA,A,3,26,31,16,10,18,21,,,,,,,1.75,1.45,0.97*05

$GPRMC,163620.000,A,0010.8452,S,07828.8072,W,2.10,201.20,220217,,,D*60

$GPRMC,163621.000,A,0010.8460,S,07828.8071,W,2.21,199.19,220217,,,D*69

$GPVTG,199.19,T,,M,2.21,N,4.10,K,D*35

$GPVTG,196.64,T,,M,2.37,N,4.39,K,D*3C

$GPGGA,163623.000,0010.8478,S,07828.8070,W,2,06,1.46,2804.8,M,13.7,M,0000,0000*5D

$GPGSV,3,3,11,27,05,229,,36,,,,14,,,16*47

$GPRMC,163623.000,A,0010.8478,S,07828.8070,W,2.30,198.77,220217,,,D*6A

$GPRMC,163624.000,A,0010.8486,S,07828.8071,W,2.31,201.94,220217,,,D*62

$GPVTG,201.94,T,,M,2.31,N,4.27,K,D*37

$GPVTG,209.02,T,,M,2.33,N,4.32,K,D*36

$GPGGA,163626.000,0010.8502,S,07828.8075,W,2,06,1.45,2804.9,M,13.7,M,0000,0000*53

$GPGGA,163627.000,0010.8511,S,07828.8076,W,2,06,1.45,2805.1,M,13.7,M,0000,0000*5A

$GPGSA,A,3,26,31,16,10,18,21,,,,,,,1.75,1.45,0.97*05

$GPGSA,A,3,26,31,16,10,18,21,,,,,,,1.75,1.46,0.97*06

$GPGSV,3,1,11,10,65,030,39,18,59,103,40,31,52,310,24,26,43,193,38*71

$GPVTG,195.80,T,,M,2.35,N,4.36,K,D*38

$GPGGA,163629.000,0010.8526,S,07828.8080,W,2,06,1.45,2805.1,M,13.7,M,0000,0000*59

$GPGGA,163630.000,0010.8534,S,07828.8079,W,2,06,1.46,2805.2,M,13.7,M,0000,0000*54

$GPGSA,A,3,26,31,16,10,18,21,,,,,,,1.75,1.46,0.97*06

$GPGSA,A,3,26,31,16,10,18,21,,,,,,,1.75,1.45,0.97*05

$GPRMC,163631.000,A,0010.8540,S,07828.8081,W,2.27,198.99,220217,,,D*6B

$GPRMC,163632.000,A,0010.8547,S,07828.8081,W,2.61,195.63,220217,,,D*65

$GPVTG,195.63,T,,M,2.61,N,4.84,K,D*3D

$GPGSV,3,2,11,25,34,055,26,21,29,168,34,16,15,204,17,29,09,119,*74

$GPGSV,3,3,11,27,05,228,,38,,,,14,,,17*49

$GPGSA,A,3,26,31,16,10,18,21,,,,,,,1.75,1.46,0.97*06

$GPRMC,163634.000,A,0010.8562,S,07828.8083,W,2.66,197.23,220217,,,D*67

$GPRMC,163635.000,A,0010.8569,S,07828.8084,W,2.71,196.02,220217,,,D*6E

$GPVTG,196.02,T,,M,2.71,N,5.01,K,D*34

$GPVTG,183.27,T,,M,2.45,N,4.53,K,D*36

$GPGGA,163637.000,0010.8584,S,07828.8081,W,2,06,1.46,2805.1,M,13.7,M,0000,0000*5C

$GPGGA,163638.000,0010.8592,S,07828.8081,W,2,06,1.46,2805.0,M,13.7,M,0000,0000*55

$GPGSA,A,3,26,31,16,10,18,21,,,,,,,1.75,1.46,0.97*06

$GPRMC,163638.000,A,0010.8592,S,07828.8081,W,2.72,192.46,220217,,,D*65

$GPVTG,192.46,T,,M,2.72,N,5.04,K,D*36

$GPVTG,197.38,T,,M,2.27,N,4.21,K,D*3C

$GPGGA,163640.000,0010.8606,S,07828.8082,W,2,06,1.46,2805.2,M,13.7,M,0000,0000*55

$GPGGA,163641.000,0010.8613,S,07828.8084,W,2,06,1.46,2805.1,M,13.7,M,0000,0000*55

$GPGSA,A,3,26,31,16,10,18,21,,,,,,,1.75,1.46,0.97*06

$GPGSA,A,3,26,31,16,10,18,21,,,,,,,1.75,1.46,0.97*06

$GPRMC,163642.000,A,0010.8620,S,07828.8085,W,2.59,202.07,220217,,,D*60

$GPGSV,3,1,11,10,65,030,38,18,59,103,39,31,52,310,29,26,43,193,39*72

$GPGSV,3,2,11,25,34,055,26,21,29,168,40,16,15,204,17,29,09,119,*77

$GPGGA,163644.000,0010.8633,S,07828.8091,W,2,06,1.46,2804.8,M,13.7,M,0000,0000*5E

$GPGSA,A,3,26,31,16,10,18,21,,,,,,,1.75,1.46,0.97*06

$GPGSA,A,3,26,31,16,10,18,21,,,,,,,1.75,1.45,0.97*05

$GPRMC,163645.000,A,0010.8639,S,07828.8095,W,2.97,212.12,220217,,,D*69

$GPRMC,163646.000,A,0010.8645,S,07828.8101,W,2.46,212.28,220217,,,D*68

$GPVTG,212.28,T,,M,2.46,N,4.56,K,D*34

$GPVTG,206.93,T,,M,2.51,N,4.65,K,D*37

$GPGGA,163648.000,0010.8656,S,07828.8107,W,2,06,1.45,2803.9,M,13.7,M,0000,0000*5A

$GPGSV,3,3,11,27,05,228,,45,,,,14,,,18*4C

$GPRMC,163648.000,A,0010.8656,S,07828.8107,W,2.68,203.80,220217,,,D*6C

$GPRMC,163649.000,A,0010.8664,S,07828.8109,W,2.96,191.67,220217,,,D*62

$GPVTG,191.67,T,,M,2.96,N,5.48,K,D*34

$GPVTG,188.11,T,,M,2.59,N,4.79,K,D*3D

$GPGGA,163651.000,0010.8679,S,07828.8112,W,2,06,1.46,2803.7,M,13.7,M,0000,0000*56

$GPGGA,163652.000,0010.8686,S,07828.8113,W,2,06,1.45,2803.5,M,13.7,M,0000,0000*55

$GPGSA,A,3,26,31,16,10,18,21,,,,,,,1.75,1.45,0.97*05

$GPGSA,A,3,26,31,16,10,18,21,,,,,,,1.75,1.45,0.97*05

$GPGSV,3,1,11,10,65,031,37,18,59,103,41,31,52,310,37,26,43,193,39*7C

$GPVTG,210.09,T,,M,2.37,N,4.40,K,D*34

$GPGGA,163654.000,0010.8698,S,07828.8120,W,2,06,1.46,2803.1,M,13.7,M,0000,0000*5B

$GPGGA,163655.000,0010.8704,S,07828.8120,W,2,06,1.46,2802.8,M,13.7,M,0000,0000*56

$GPGSA,A,3,26,31,16,10,18,21,,,,,,,1.75,1.46,0.97*06

$GPGSA,A,3,26,31,16,10,18,21,,,,,,,1.75,1.45,0.97*05

$GPRMC,163656.000,A,0010.8710,S,07828.8120,W,2.05,191.14,220217,,,D*6B

$GPRMC,163657.000,A,0010.8716,S,07828.8118,W,2.36,151.84,220217,,,D*62

$GPVTG,151.84,T,,M,2.36,N,4.37,K,D*36

$GPGSV,3,2,11,25,34,055,24,21,29,168,42,16,15,204,16,29,09,119,*76

$GPGSV,3,3,11,27,05,228,,46,,,34,14,,,16*46

$GPGSA,A,3,26,31,16,10,18,21,,,,,,,1.75,1.46,0.97*06

$GPRMC,163659.000,A,0010.8723,S,07828.8107,W,3.12,111.64,220217,,,D*69

$GPRMC,163700.000,A,0010.8725,S,07828.8100,W,3.10,115.72,220217,,,D*64

$GPVTG,115.72,T,,M,3.10,N,5.75,K,D*3D

$GPVTG,119.95,T,,M,2.99,N,5.54,K,D*3B

$GPGGA,163702.000,0010.8732,S,07828.8087,W,2,06,1.46,2800.7,M,13.7,M,0000,0000*51

$GPGGA,163703.000,0010.8736,S,07828.8082,W,2,06,1.45,2800.4,M,13.7,M,0000,0000*51

$GPGSA,A,3,26,31,16,10,18,21,,,,,,,1.75,1.45,0.97*05

$GPRMC,163703.000,A,0010.8736,S,07828.8082,W,2.50,129.67,220217,,,D*60

$GPVTG,129.67,T,,M,2.50,N,4.64,K,D*32

$GPVTG,158.05,T,,M,2.29,N,4.24,K,D*3A

$GPGGA,163705.000,0010.8747,S,07828.8078,W,2,06,1.46,2800.0,M,13.7,M,0000,0000*53

$GPGGA,163706.000,0010.8753,S,07828.8078,W,2,06,1.46,2799.7,M,13.7,M,0000,0000*5D

$GPGSA,A,3,26,31,16,10,18,21,,,,,,,1.75,1.46,0.97*06

$GPGSA,A,3,26,31,16,10,18,21,,,,,,,1.75,1.46,0.97*06

$GPRMC,163707.000,A,0010.8758,S,07828.8077,W,2.27,173.89,220217,,,D*69

$GPGSV,3,1,12,10,65,031,41,18,59,103,20,31,52,310,30,26,44,193,41*76

$GPGSV,3,2,12,25,34,055,21,21,28,168,31,32,23,005,,16,15,204,18*75

$GPGGA,163709.000,0010.8769,S,07828.8080,W,2,06,1.45,2798.9,M,13.7,M,0000,0000*50

$GPGSA,A,3,26,31,16,10,18,21,,,,,,,1.75,1.45,0.97*05

$GPGSA,A,3,26,31,16,10,18,21,,,,,,,1.75,1.46,0.97*06

$GPRMC,163710.000,A,0010.8775,S,07828.8083,W,2.51,209.33,220217,,,D*65

$GPRMC,163711.000,A,0010.8780,S,07828.8085,W,2.00,210.01,220217,,,D*65

$GPVTG,210.01,T,,M,2.00,N,3.71,K,D*3D

$GPVTG,174.79,T,,M,2.39,N,4.43,K,D*3F

$GPGGA,163713.000,0010.8792,S,07828.8084,W,1,06,1.45,2797.9,M,13.7,M,,*57

$GPGSV,3,3,12,29,09,119,,27,05,228,,46,,,32,14,,,16*78

$GPRMC,163713.000,A,0010.8792,S,07828.8084,W,2.33,165.36,220217,,,A*65

$GPRMC,163714.000,A,0010.8799,S,07828.8081,W,2.81,156.04,220217,,,D*61

$GPVTG,156.04,T,,M,2.81,N,5.21,K,D*33

$GPVTG,171.40,T,,M,2.86,N,5.31,K,D*30

$GPGGA,163716.000,0010.8813,S,07828.8078,W,2,06,1.46,2797.3,M,13.7,M,0000,0000*5D

$GPGGA,163717.000,0010.8819,S,07828.8078,W,2,06,1.46,2797.1,M,13.7,M,0000,0000*54

$GPGSA,A,3,26,31,16,10,18,21,,,,,,,1.75,1.46,0.97*06

$GPGSA,A,3,26,31,16,10,18,21,,,,,,,1.75,1.46,0.97*06

$GPGSV,3,1,12,46,66,263,34,10,65,031,27,18,59,103,26,31,52,310,32*7A

$GPVTG,193.03,T,,M,2.11,N,3.92,K,D*3A

$GPGGA,163719.000,0010.8831,S,07828.8080,W,2,06,1.46,2796.8,M,13.7,M,0000,0000*5F

$GPGGA,163720.000,0010.8838,S,07828.8078,W,2,06,1.46,2797.2,M,13.7,M,0000,0000*50

$GPGSA,A,3,26,31,16,10,18,21,,,,,,,1.75,1.46,0.97*06

$GPGSA,A,3,26,31,16,10,18,21,,,,,,,1.75,1.46,0.97*06

$GPRMC,163721.000,A,0010.8846,S,07828.8076,W,2.83,173.32,220217,,,D*62

$GPRMC,163722.000,A,0010.8853,S,07828.8075,W,2.51,176.58,220217,,,D*60

$GPVTG,176.58,T,,M,2.51,N,4.65,K,D*34

$GPGSV,3,2,12,26,44,193,39,25,34,055,19,21,28,168,29,32,23,005,27*7B

$GPGSV,3,3,12,16,15,204,23,29,09,119,,27,05,228,,14,,,18*41

$GPGSA,A,3,26,31,16,10,18,21,,,,,,,1.75,1.46,0.97*06

$GPRMC,163724.000,A,0010.8868,S,07828.8074,W,2.59,188.41,220217,,,D*6E

$GPRMC,163725.000,A,0010.8876,S,07828.8076,W,2.57,197.11,220217,,,D*67

$GPVTG,197.11,T,,M,2.57,N,4.77,K,D*33

$GPVTG,196.00,T,,M,2.31,N,4.28,K,D*38

$GPGGA,163727.000,0010.8893,S,07828.8081,W,2,06,1.46,2796.4,M,13.7,M,0000,0000*57

$GPGGA,163728.000,0010.8902,S,07828.8080,W,2,06,1.46,2796.2,M,13.7,M,0000,0000*56

$GPGSA,A,3,26,31,16,10,18,21,,,,,,,1.75,1.46,0.97*06

$GPRMC,163728.000,A,0010.8902,S,07828.8080,W,2.55,178.71,220217,,,D*64

$GPVTG,178.71,T,,M,2.55,N,4.72,K,D*33

$GPVTG,167.86,T,,M,2.39,N,4.42,K,D*3C

$GPGGA,163730.000,0010.8919,S,07828.8081,W,2,06,1.46,2795.9,M,13.7,M,0000,0000*5C

$GPGGA,163731.000,0010.8926,S,07828.8082,W,2,06,1.46,2795.8,M,13.7,M,0000,0000*53

$GPGSA,A,3,26,31,16,10,18,21,,,,,,,1.75,1.46,0.97*06

$GPGSA,A,3,26,31,16,10,18,21,,,,,,,1.75,1.46,0.97*06

$GPRMC,163732.000,A,0010.8933,S,07828.8085,W,2.76,191.03,220217,,,D*6B

$GPGSV,3,1,12,10,66,031,31,46,66,263,36,18,59,104,19,31,52,310,40*72

$GPGSV,3,2,12,26,44,193,39,25,34,055,20,21,28,168,41,32,23,005,25*7D

$GPGGA,163734.000,0010.8947,S,07828.8087,W,2,06,1.46,2795.1,M,13.7,M,0000,0000*5D

$GPGSA,A,3,26,31,16,10,18,21,,,,,,,1.75,1.46,0.97*06

$GPGSA,A,3,26,31,16,10,18,21,,,,,,,1.75,1.46,0.97*06

$GPRMC,163735.000,A,0010.8952,S,07828.8090,W,2.31,193.46,220217,,,D*6F

$GPRMC,163736.000,A,0010.8959,S,07828.8091,W,2.83,170.29,220217,,,D*6B

$GPVTG,170.29,T,,M,2.83,N,5.24,K,D*3F

$GPVTG,175.10,T,,M,1.97,N,3.65,K,D*35

$GPGGA,163738.000,0010.8970,S,07828.8091,W,2,06,1.46,2794.2,M,13.7,M,0000,0000*50

$GPGSV,3,3,12,16,16,204,29,29,09,119,17,27,05,228,,14,,,14*42

$GPRMC,163738.000,A,0010.8970,S,07828.8091,W,1.88,177.93,220217,,,D*60

$GPRMC,163739.000,A,0010.8975,S,07828.8088,W,2.18,152.75,220217,,,D*69

$GPVTG,152.75,T,,M,2.18,N,4.04,K,D*37

$GPVTG,117.36,T,,M,1.37,N,2.54,K,D*3C

$GPGGA,163741.000,0010.8979,S,07828.8077,W,2,06,1.46,2793.3,M,13.7,M,0000,0000*59

$GPGGA,163742.000,0010.8980,S,07828.8071,W,2,06,1.46,2793.1,M,13.7,M,0000,0000*58

$GPGSA,A,3,26,31,16,10,18,21,,,,,,,1.75,1.46,0.97*06

$GPGSA,A,3,26,31,16,10,18,21,,,,,,,1.75,1.46,0.97*06

$GPGSV,3,1,12,10,66,031,21,46,66,263,32,18,59,104,40,31,52,310,34*78

$GPVTG,120.56,T,,M,1.97,N,3.65,K,D*37

$GPGGA,163744.000,0010.8983,S,07828.8059,W,2,06,1.46,2792.8,M,13.7,M,0000,0000*5F

$GPGGA,163745.000,0010.8985,S,07828.8049,W,2,06,1.46,2792.6,M,13.7,M,0000,0000*57

$GPGSA,A,3,26,31,16,10,18,21,,,,,,,1.75,1.46,0.97*06

$GPGSA,A,3,26,31,16,10,18,21,,,,,,,1.75,1.46,0.97*06

$GPRMC,163746.000,A,0010.8988,S,07828.8041,W,2.62,108.68,220217,,,D*68

$GPRMC,163747.000,A,0010.8990,S,07828.8032,W,2.64,98.81,220217,,,D*5D

$GPVTG,98.81,T,,M,2.64,N,4.89,K,D*05

$GPGSV,3,2,12,26,44,193,35,25,34,055,19,21,28,168,38,32,23,005,12*71

$GPGSV,3,3,12,16,16,204,27,29,09,119,19,27,05,228,,14,,,13*45

$GPGSA,A,3,26,31,16,10,18,21,,,,,,,1.75,1.46,0.97*06

$GPRMC,163749.000,A,0010.8991,S,07828.8012,W,2.88,92.60,220217,,,D*57

$GPRMC,163750.000,A,0010.8993,S,07828.8003,W,2.52,96.40,220217,,,D*5C

$GPVTG,96.40,T,,M,2.52,N,4.67,K,D*03

$GPVTG,109.58,T,,M,3.06,N,5.67,K,D*3C

$GPGGA,163752.000,0010.9002,S,07828.7984,W,2,06,1.46,2791.4,M,13.7,M,0000,0000*50

$GPGGA,163753.000,0010.9003,S,07828.7975,W,2,06,1.46,2791.2,M,13.7,M,0000,0000*58

$GPGSA,A,3,26,31,16,10,18,21,,,,,,,1.75,1.46,0.97*06

$GPRMC,163753.000,A,0010.9003,S,07828.7975,W,2.63,103.07,220217,,,D*65

$GPVTG,103.07,T,,M,2.63,N,4.88,K,D*3E

$GPVTG,97.83,T,,M,2.99,N,5.54,K,D*0B

$GPGGA,163755.000,0010.9007,S,07828.7956,W,2,06,1.46,2791.1,M,13.7,M,0000,0000*58

$GPGGA,163756.000,0010.9011,S,07828.7943,W,2,06,1.46,2791.1,M,13.7,M,0000,0000*58

$GPGSA,A,3,26,31,16,10,18,21,,,,,,,1.75,1.46,0.97*06

$GPGSA,A,3,26,31,16,10,18,21,,,,,,,4.82,2.25,4.27*02

$GPRMC,163757.000,A,0010.9013,S,07828.7932,W,3.57,104.31,220217,,,D*67

$GPGSV,3,1,12,10,66,031,26,46,66,263,31,18,59,104,40,31,52,311,30*79

$GPGSV,3,2,12,26,44,193,35,25,34,055,17,21,28,168,36,32,23,005,13*70

$GPGGA,163759.000,0010.9017,S,07828.7914,W,2,06,1.46,2790.5,M,13.7,M,0000,0000*56

$GPGSA,A,3,26,31,16,10,18,21,,,,,,,1.75,1.46,0.97*06

$GPGSA,A,3,26,31,16,10,18,21,,,,,,,1.75,1.46,0.97*06

$GPRMC,163800.000,A,0010.9019,S,07828.7906,W,2.09,96.58,220217,,,D*58

$GPRMC,163801.000,A,0010.9019,S,07828.7900,W,2.19,87.68,220217,,,D*5D

$GPVTG,87.68,T,,M,2.19,N,4.07,K,D*00

$GPVTG,92.93,T,,M,2.06,N,3.81,K,D*07

$GPGGA,163803.000,0010.9025,S,07828.7884,W,2,06,1.46,2790.1,M,13.7,M,0000,0000*5B

$GPGSV,3,3,12,16,16,204,27,29,09,119,16,27,05,228,,14,,,12*4B

$GPRMC,163803.000,A,0010.9025,S,07828.7884,W,2.87,103.08,220217,,,D*61

$GPRMC,163804.000,A,0010.9031,S,07828.7874,W,2.56,106.93,220217,,,D*67

$GPVTG,106.93,T,,M,2.56,N,4.75,K,D*32

$GPVTG,112.11,T,,M,2.51,N,4.65,K,D*3B

$GPGGA,163806.000,0010.9038,S,07828.7857,W,2,06,1.46,2789.9,M,13.7,M,0000,0000*5C

$GPGGA,163807.000,0010.9040,S,07828.7849,W,2,06,1.46,2789.8,M,13.7,M,0000,0000*5C

$GPGSA,A,3,26,31,16,10,18,21,,,,,,,1.75,1.46,0.97*06

$GPGSA,A,3,26,31,16,10,18,21,,,,,,,1.75,1.46,0.97*06

$GPGSV,3,1,12,10,66,032,41,46,66,263,31,18,59,105,41,31,52,311,28*72

$GPVTG,91.77,T,,M,2.29,N,4.25,K,D*0A

$GPGGA,163809.000,0010.9044,S,07828.7835,W,2,06,1.46,2789.7,M,13.7,M,0000,0000*52

$GPGGA,163810.000,0010.9044,S,07828.7828,W,2,06,1.46,2789.7,M,13.7,M,0000,0000*56

$GPGSA,A,3,26,31,16,10,18,21,,,,,,,1.75,1.46,0.97*06

$GPGSA,A,3,26,31,16,10,18,21,,,,,,,1.75,1.46,0.97*06

$GPRMC,163811.000,A,0010.9045,S,07828.7823,W,0.55,81.33,220217,,,D*57

$GPRMC,163812.000,A,0010.9045,S,07828.7821,W,0.48,100.45,220217,,,D*63

$GPVTG,100.45,T,,M,0.48,N,0.90,K,D*3D

$GPGSV,3,2,11,26,44,193,40,25,34,055,19,21,28,168,39,32,23,005,14*77

$GPGSV,3,3,11,16,16,204,27,29,09,119,16,27,05,228,*4E

$GPGSA,A,3,26,31,16,10,18,21,,,,,,,1.75,1.46,0.97*06

$GPRMC,163814.000,A,0010.9045,S,07828.7814,W,0.60,72.03,220217,,,D*5F

$GPRMC,163815.000,A,0010.9044,S,07828.7809,W,0.91,70.25,220217,,,D*5B

$GPVTG,70.25,T,,M,0.91,N,1.68,K,D*0F

$GPVTG,75.07,T,,M,1.19,N,2.20,K,D*04

$GPGGA,163817.000,0010.9041,S,07828.7798,W,2,06,1.46,2788.9,M,13.7,M,0000,0000*5F

$GPGGA,163818.000,0010.9039,S,07828.7792,W,2,06,1.46,2788.9,M,13.7,M,0000,0000*55

$GPGSA,A,3,26,31,16,10,18,21,,,,,,,1.75,1.46,0.97*06

$GPRMC,163818.000,A,0010.9039,S,07828.7792,W,1.50,73.42,220217,,,D*5F

$GPVTG,73.42,T,,M,1.50,N,2.77,K,D*0C

$GPVTG,74.92,T,,M,1.60,N,2.96,K,D*0A

$GPGGA,163820.000,0010.9036,S,07828.7779,W,2,06,1.46,2788.6,M,13.7,M,0000,0000*5B

$GPGGA,163821.000,0010.9038,S,07828.7769,W,2,06,1.46,2788.5,M,13.7,M,0000,0000*56

$GPGSA,A,3,26,31,16,10,18,21,,,,,,,1.75,1.46,0.97*06

$GPGSA,A,3,26,31,16,10,18,21,,,,,,,1.75,1.46,0.97*06

$GPRMC,163822.000,A,0010.9037,S,07828.7763,W,2.42,92.99,220217,,,D*5F

$GPGSV,3,1,11,10,66,032,19,46,66,263,31,18,59,105,40,31,51,311,39*7E

$GPGSV,3,2,11,26,44,193,37,25,34,054,17,21,28,168,38,32,23,006,18*76

$GPGGA,163824.000,0010.9037,S,07828.7748,W,2,06,1.46,2788.1,M,13.7,M,0000,0000*5B

$GPGSA,A,3,26,31,16,10,18,21,,,,,,,1.75,1.46,0.97*06

$GPGSA,A,3,26,31,16,10,18,21,,,,,,,1.75,1.46,0.97*06

$GPRMC,163825.000,A,0010.9037,S,07828.7741,W,2.45,98.90,220217,,,D*5C

$GPRMC,163826.000,A,0010.9038,S,07828.7734,W,2.30,95.58,220217,,,D*59

$GPVTG,95.58,T,,M,2.30,N,4.27,K,D*09

$GPVTG,88.86,T,,M,2.00,N,3.71,K,D*01

$GPGGA,163828.000,0010.9039,S,07828.7720,W,2,06,1.46,2787.6,M,13.7,M,0000,0000*5F

$GPGSV,3,3,11,16,16,204,32,29,09,119,18,27,05,228,*44

$GPRMC,163828.000,A,0010.9039,S,07828.7720,W,2.30,103.83,220217,,,D*6B

$GPRMC,163829.000,A,0010.9041,S,07828.7711,W,2.70,103.00,220217,,,D*68

$GPVTG,103.00,T,,M,2.70,N,5.01,K,D*3B

$GPVTG,105.43,T,,M,3.02,N,5.59,K,D*33

$GPGGA,163831.000,0010.9047,S,07828.7692,W,2,06,1.46,2787.3,M,13.7,M,0000,0000*53

$GPGGA,163832.000,0010.9052,S,07828.7680,W,2,06,1.46,2787.3,M,13.7,M,0000,0000*57

$GPGSA,A,3,26,31,16,10,18,21,,,,,,,1.75,1.46,0.97*06

$GPGSA,A,3,26,31,16,10,18,21,,,,,,,1.75,1.46,0.97*06

$GPGSV,3,1,11,10,66,032,26,46,66,263,31,18,59,105,41,31,51,311,21*7A

$GPVTG,104.20,T,,M,2.84,N,5.27,K,D*31

$GPGGA,163834.000,0010.9056,S,07828.7662,W,2,06,1.46,2787.1,M,13.7,M,0000,0000*5B

$GPGGA,163835.000,0010.9059,S,07828.7653,W,2,06,1.46,2787.0,M,13.7,M,0000,0000*56

$GPGSA,A,3,26,31,16,10,18,21,,,,,,,1.75,1.46,0.97*06

$GPGSA,A,3,26,16,10,18,21,,,,,,,,2.42,2.21,0.97*01

$GPRMC,163836.000,A,0010.9065,S,07828.7642,W,3.04,107.34,220217,,,D*66

$GPRMC,163837.000,A,0010.9070,S,07828.7631,W,3.04,109.50,220217,,,D*6B

$GPVTG,109.50,T,,M,3.04,N,5.63,K,D*32

$GPGSV,3,2,11,26,44,193,38,25,34,054,15,21,28,168,39,32,23,006,22*73

$GPGSV,3,3,11,16,16,204,30,29,09,119,17,27,05,228,*49

$GPGSA,A,3,26,16,10,18,21,,,,,,,,2.42,2.21,0.97*01

$GPRMC,163839.000,A,0010.9080,S,07828.7615,W,2.81,142.88,220217,,,D*6A

$GPRMC,163840.000,A,0010.9087,S,07828.7609,W,3.09,145.14,220217,,,D*6D

$GPVTG,145.14,T,,M,3.09,N,5.72,K,D*37

$GPVTG,142.29,T,,M,2.66,N,4.93,K,D*38

$GPGGA,163842.000,0010.9100,S,07828.7598,W,2,06,1.46,2786.8,M,13.7,M,0000,0000*56

$GPGGA,163843.000,0010.9108,S,07828.7597,W,2,06,1.46,2786.8,M,13.7,M,0000,0000*50

$GPGSA,A,3,26,31,16,10,18,21,,,,,,,1.75,1.46,0.97*06

$GPRMC,163843.000,A,0010.9108,S,07828.7597,W,2.76,184.90,220217,,,D*64

$GPVTG,184.90,T,,M,2.76,N,5.12,K,D*39

$GPVTG,196.89,T,,M,2.80,N,5.19,K,D*30

$GPGGA,163845.000,0010.9127,S,07828.7596,W,2,06,1.46,2786.7,M,13.7,M,0000,0000*55

$GPGGA,163846.000,0010.9136,S,07828.7590,W,2,06,1.46,2786.6,M,13.7,M,0000,0000*51

$GPGSA,A,3,26,31,16,10,18,21,,,,,,,1.75,1.46,0.97*06

$GPGSA,A,3,26,31,16,10,18,21,,,,,,,1.75,1.46,0.97*06

$GPRMC,163847.000,A,0010.9143,S,07828.7583,W,3.07,134.28,220217,,,D*65

$GPGSV,3,1,11,10,66,032,42,46,66,263,32,18,59,105,40,31,51,311,35*7F

$GPGSV,3,2,11,26,44,193,39,25,34,054,16,21,28,168,40,32,23,006,30*7C

$GPGGA,163849.000,0010.9160,S,07828.7574,W,2,06,1.46,2786.3,M,13.7,M,0000,0000*52

$GPGSA,A,3,26,31,16,10,18,21,,,,,,,1.75,1.46,0.97*06

$GPGSA,A,3,26,31,16,10,18,21,,,,,,,1.75,1.46,0.97*06

$GPRMC,163850.000,A,0010.9167,S,07828.7574,W,2.50,191.51,220217,,,D*6F

$GPRMC,163851.000,A,0010.9172,S,07828.7577,W,1.92,198.50,220217,,,D*6C

$GPVTG,198.50,T,,M,1.92,N,3.57,K,D*36

$GPVTG,172.44,T,,M,2.67,N,4.95,K,D*37

$GPGGA,163853.000,0010.9183,S,07828.7579,W,2,06,1.46,2786.0,M,13.7,M,0000,0000*5A

$GPGSV,3,3,11,16,16,204,37,29,09,119,19,27,05,228,*40

$GPRMC,163853.000,A,0010.9183,S,07828.7579,W,2.25,183.34,220217,,,D*69

$GPRMC,163854.000,A,0010.9190,S,07828.7579,W,2.11,168.78,220217,,,D*66

$GPVTG,168.78,T,,M,2.11,N,3.91,K,D*31

$GPVTG,163.96,T,,M,2.85,N,5.28,K,D*33

$GPGGA,163856.000,0010.9206,S,07828.7575,W,2,06,1.46,2786.1,M,13.7,M,0000,0000*5C

$GPGGA,163857.000,0010.9214,S,07828.7571,W,2,06,1.46,2786.2,M,13.7,M,0000,0000*59

$GPGSA,A,3,26,31,16,10,18,21,,,,,,,1.75,1.46,0.97*06

$GPGSA,A,3,26,31,16,10,18,21,,,,,,,1.75,1.46,0.97*06

$GPGSV,3,1,11,10,66,032,42,46,66,263,34,18,59,105,38,31,51,312,32*72

$GPVTG,138.90,T,,M,2.66,N,4.93,K,D*37

$GPGGA,163859.000,0010.9227,S,07828.7562,W,2,06,1.46,2786.2,M,13.7,M,0000,0000*55

$GPGGA,163900.000,0010.9232,S,07828.7556,W,2,06,1.46,2786.2,M,13.7,M,0000,0000*5B

$GPGSA,A,3,26,31,16,10,18,21,,,,,,,1.75,1.46,0.97*06

$GPGSA,A,3,26,31,16,10,18,21,,,,,,,1.75,1.46,0.97*06

$GPRMC,163901.000,A,0010.9234,S,07828.7550,W,2.76,104.22,220217,,,D*65

$GPRMC,163902.000,A,0010.9234,S,07828.7543,W,2.53,95.94,220217,,,D*57

$GPVTG,95.94,T,,M,2.53,N,4.70,K,D*0E

$GPGSV,3,2,11,26,44,192,36,25,34,054,29,21,28,168,32,32,23,006,16*7F

$GPGSV,3,3,11,16,16,204,27,29,09,118,18,27,05,227,21*4D

$GPGSA,A,3,26,31,16,10,18,21,,,,,,,1.75,1.46,0.97*06

$GPRMC,163904.000,A,0010.9235,S,07828.7526,W,2.87,100.80,220217,,,D*62

$GPRMC,163905.000,A,0010.9236,S,07828.7519,W,3.25,105.62,220217,,,D*6C

$GPVTG,105.62,T,,M,3.25,N,6.02,K,D*38

$GPVTG,103.90,T,,M,3.11,N,5.76,K,D*34

$GPGGA,163907.000,0010.9238,S,07828.7504,W,2,06,1.46,2785.8,M,13.7,M,0000,0000*58

$GPGGA,163908.000,0010.9238,S,07828.7498,W,2,06,1.46,2785.8,M,13.7,M,0000,0000*53

$GPGSA,A,3,26,31,16,10,18,21,,,,,,,1.75,1.46,0.97*06

$GPRMC,163908.000,A,0010.9238,S,07828.7498,W,2.41,100.65,220217,,,D*66

$GPVTG,100.65,T,,M,2.41,N,4.46,K,D*3B

$GPVTG,102.18,T,,M,2.61,N,4.84,K,D*3F

$GPGGA,163910.000,0010.9238,S,07828.7482,W,2,06,1.46,2785.9,M,13.7,M,0000,0000*50

$GPGGA,163911.000,0010.9239,S,07828.7474,W,2,06,1.46,2785.9,M,13.7,M,0000,0000*59

$GPGSA,A,3,26,31,16,10,18,21,,,,,,,1.75,1.46,0.97*06

$GPGSA,A,3,26,31,16,10,18,21,,,,,,,1.75,1.46,0.97*06

$GPRMC,163912.000,A,0010.9239,S,07828.7463,W,3.28,103.62,220217,,,D*62

$GPGSV,3,1,12,10,66,033,43,46,66,263,31,18,59,105,41,31,51,312,37*7F

$GPGSV,3,2,12,26,44,192,34,25,34,054,45,21,28,168,36,32,23,006,15*73

$GPGGA,163914.000,0010.9241,S,07828.7446,W,2,06,1.46,2786.0,M,13.7,M,0000,0000*58

$GPGSA,A,3,26,31,16,10,18,21,,,,,,,1.75,1.46,0.97*06

$GPGSA,A,3,26,31,16,10,18,21,,,,,,,1.75,1.46,0.97*06

$GPRMC,163915.000,A,0010.9242,S,07828.7439,W,2.99,103.26,220217,,,D*6D

$GPRMC,163916.000,A,0010.9242,S,07828.7432,W,2.59,94.35,220217,,,D*54

$GPVTG,94.35,T,,M,2.59,N,4.79,K,D*07

$GPVTG,101.96,T,,M,2.78,N,5.15,K,D*3B

$GPGGA,163918.000,0010.9241,S,07828.7418,W,2,06,1.46,2785.9,M,13.7,M,0000,0000*55

$GPGSV,3,3,12,14,19,341,,16,16,204,24,29,09,118,17,27,05,227,19*72

$GPRMC,163918.000,A,0010.9241,S,07828.7418,W,3.07,108.23,220217,,,D*68

$GPRMC,163919.000,A,0010.9242,S,07828.7410,W,2.81,106.66,220217,,,D*62

$GPVTG,106.66,T,,M,2.81,N,5.21,K,D*32

$GPVTG,107.30,T,,M,2.71,N,5.02,K,D*3E

$GPGGA,163921.000,0010.9245,S,07828.7396,W,2,06,1.46,2785.6,M,13.7,M,0000,0000*55

$GPGGA,163922.000,0010.9247,S,07828.7389,W,2,06,1.46,2785.5,M,13.7,M,0000,0000*59

$GPGSA,A,3,26,31,16,10,18,21,,,,,,,1.75,1.46,0.97*06

$GPGSA,A,3,26,31,16,10,18,21,,,,,,,1.75,1.46,0.97*06

$GPGSV,3,1,12,10,66,033,44,46,66,263,30,18,59,106,41,31,51,312,33*7E

$GPVTG,113.45,T,,M,2.47,N,4.57,K,D*3D

$GPGGA,163924.000,0010.9254,S,07828.7373,W,2,06,1.46,2785.5,M,13.7,M,0000,0000*58

$GPGGA,163925.000,0010.9258,S,07828.7365,W,2,06,1.46,2785.6,M,13.7,M,0000,0000*51

$GPGSA,A,3,26,31,16,10,18,21,,,,,,,1.75,1.46,0.97*06

$GPGSA,A,3,26,31,16,10,18,21,,,,,,,1.75,1.46,0.97*06

$GPRMC,163926.000,A,0010.9263,S,07828.7359,W,2.86,127.93,220217,,,D*69

$GPRMC,163927.000,A,0010.9269,S,07828.7353,W,2.63,133.05,220217,,,D*69

$GPVTG,133.05,T,,M,2.63,N,4.87,K,D*30

$GPGSV,3,2,12,26,44,192,35,25,33,054,37,21,27,167,36,32,23,006,16*73

$GPGSV,3,3,12,14,19,341,,16,16,203,24,29,09,118,16,27,05,227,17*7A

$GPGSA,A,3,26,31,16,10,18,21,,,,,,,1.75,1.46,0.97*06

$GPRMC,163929.000,A,0010.9279,S,07828.7344,W,2.49,132.93,220217,,,D*66

$GPRMC,163930.000,A,0010.9285,S,07828.7340,W,2.79,141.71,220217,,,D*62

$GPVTG,141.71,T,,M,2.79,N,5.17,K,D*35

$GPVTG,145.16,T,,M,2.72,N,5.04,K,D*39

$GPGGA,163932.000,0010.9300,S,07828.7332,W,2,06,1.46,2785.2,M,13.7,M,0000,0000*5D

$GPGGA,163933.000,0010.9308,S,07828.7328,W,2,06,1.46,2785.2,M,13.7,M,0000,0000*5F

$GPGSA,A,3,26,31,16,10,18,21,,,,,,,1.75,1.46,0.97*06

$GPRMC,163933.000,A,0010.9308,S,07828.7328,W,2.84,150.31,220217,,,D*6D

$GPVTG,150.31,T,,M,2.84,N,5.27,K,D*30

$GPVTG,181.66,T,,M,2.62,N,4.86,K,D*3C

$GPGGA,163935.000,0010.9324,S,07828.7325,W,2,06,1.46,2785.0,M,13.7,M,0000,0000*58

$GPGGA,163936.000,0010.9333,S,07828.7321,W,2,06,1.46,2785.0,M,13.7,M,0000,0000*59

$GPGSA,A,3,26,31,16,10,18,21,,,,,,,1.75,1.46,0.97*06

$GPGSA,A,3,26,31,16,10,18,21,,,,,,,1.75,1.46,0.97*06

$GPRMC,163937.000,A,0010.9341,S,07828.7319,W,2.69,168.55,220217,,,D*6C

$GPGSV,3,1,12,10,66,033,40,46,66,263,31,18,59,106,38,31,51,312,34*72

$GPGSV,3,2,12,26,45,192,38,25,33,054,40,21,27,167,41,32,23,006,21*7B

$GPGGA,163939.000,0010.9355,S,07828.7320,W,2,06,1.46,2784.7,M,13.7,M,0000,0000*51

$GPGSA,A,3,26,31,16,10,18,21,,,,,,,1.75,1.46,0.97*06

$GPGSA,A,3,26,31,10,18,21,,,,,,,,1.93,1.66,0.98*04

$GPRMC,163940.000,A,0010.9363,S,07828.7319,W,3.08,165.95,220217,,,D*6B

$GPRMC,163941.000,A,0010.9372,S,07828.7318,W,2.82,180.61,220217,,,D*68

$GPVTG,180.61,T,,M,2.82,N,5.22,K,D*3B

$GPVTG,192.77,T,,M,2.65,N,4.92,K,D*3C

$GPGGA,163943.000,0010.9387,S,07828.7321,W,2,06,1.46,2784.8,M,13.7,M,0000,0000*5D

$GPGSV,3,3,12,14,19,341,17,16,16,203,21,29,09,118,17,27,05,227,*7E

$GPRMC,163943.000,A,0010.9387,S,07828.7321,W,2.10,192.78,220217,,,D*6A

$GPRMC,163944.000,A,0010.9395,S,07828.7322,W,2.78,184.83,220217,,,D*60

$GPVTG,184.83,T,,M,2.78,N,5.15,K,D*32

$GPVTG,176.77,T,,M,2.82,N,5.22,K,D*35

$GPGGA,163946.000,0010.9412,S,07828.7322,W,2,06,1.46,2784.9,M,13.7,M,0000,0000*51

$GPGGA,163947.000,0010.9421,S,07828.7322,W,2,06,1.46,2785.0,M,13.7,M,0000,0000*58

$GPGSA,A,3,26,31,16,10,18,21,,,,,,,1.75,1.46,0.97*06

$GPGSA,A,3,26,31,16,10,18,21,,,,,,,1.75,1.46,0.97*06

$GPGSV,3,1,12,10,66,033,38,46,66,263,33,18,59,106,39,31,51,312,30*7A

$GPVTG,194.55,T,,M,2.86,N,5.31,K,D*3F

$GPGGA,163949.000,0010.9438,S,07828.7325,W,2,06,1.46,2784.9,M,13.7,M,0000,0000*51

$GPGGA,163950.000,0010.9446,S,07828.7326,W,2,06,1.46,2785.0,M,13.7,M,0000,0000*5B

$GPGSA,A,3,26,31,16,10,18,21,,,,,,,1.75,1.46,0.97*06

$GPGSA,A,3,26,31,16,10,18,21,,,,,,,1.75,1.46,0.97*06

$GPRMC,163951.000,A,0010.9455,S,07828.7326,W,2.77,183.71,220217,,,D*6E

$GPRMC,163952.000,A,0010.9463,S,07828.7326,W,2.72,182.92,220217,,,D*61

$GPVTG,182.92,T,,M,2.72,N,5.03,K,D*39

$GPGSV,3,2,12,26,45,192,39,25,33,054,36,21,27,167,45,32,23,006,22*7C

$GPGSV,3,3,12,14,19,341,17,16,16,203,32,29,09,118,14,27,05,227,17*79

$GPGSA,A,3,26,31,16,10,18,21,,,,,,,1.75,1.46,0.97*06

$GPRMC,163954.000,A,0010.9479,S,07828.7324,W,2.74,188.26,220217,,,D*6D

$GPRMC,163955.000,A,0010.9487,S,07828.7324,W,2.75,189.38,220217,,,D*62

$GPVTG,189.38,T,,M,2.75,N,5.10,K,D*37

$GPVTG,191.94,T,,M,2.78,N,5.15,K,D*30

$GPGGA,163957.000,0010.9503,S,07828.7324,W,2,06,1.46,2785.9,M,13.7,M,0000,0000*57

$GPGGA,163958.000,0010.9511,S,07828.7324,W,2,06,1.46,2786.0,M,13.7,M,0000,0000*51

$GPGSA,A,3,26,31,16,10,18,21,,,,,,,1.75,1.46,0.97*06

$GPRMC,163958.000,A,0010.9511,S,07828.7324,W,2.71,188.63,220217,,,D*6A

$GPVTG,188.63,T,,M,2.71,N,5.02,K,D*3F

$GPVTG,181.24,T,,M,2.71,N,5.02,K,D*35

$GPGGA,164000.000,0010.9528,S,07828.7323,W,2,06,1.46,2786.0,M,13.7,M,0000,0000*5F

$GPGGA,164001.000,0010.9536,S,07828.7323,W,2,06,1.46,2785.9,M,13.7,M,0000,0000*5B

$GPGSA,A,3,26,31,16,10,18,21,,,,,,,1.75,1.46,0.97*06

$GPGSA,A,3,26,31,16,10,18,21,,,,,,,1.75,1.46,0.97*06

$GPRMC,164002.000,A,0010.9544,S,07828.7324,W,2.78,191.64,220217,,,D*6D

$GPGSV,3,1,12,10,67,033,35,46,66,263,35,18,58,106,40,31,51,312,34*7B

$GPGSV,3,2,12,26,45,192,41,25,33,054,36,21,27,167,37,32,23,006,23*77

$GPGGA,164004.000,0010.9560,S,07828.7326,W,2,06,1.46,2785.7,M,13.7,M,0000,0000*56

$GPGSA,A,3,26,31,16,10,18,21,,,,,,,1.75,1.46,0.97*06

$GPGSA,A,3,26,31,16,10,18,21,,,,,,,1.75,1.46,0.97*06

$GPRMC,164005.000,A,0010.9568,S,07828.7327,W,2.69,194.74,220217,,,D*63

$GPRMC,164006.000,A,0010.9576,S,07828.7328,W,2.68,192.53,220217,,,D*62

$GPVTG,192.53,T,,M,2.68,N,4.97,K,D*32

$GPVTG,171.61,T,,M,2.69,N,4.98,K,D*30

$GPGGA,164008.000,0010.9592,S,07828.7327,W,2,06,1.46,2785.7,M,13.7,M,0000,0000*56

$GPGSV,3,3,12,14,19,341,22,16,17,203,33,29,09,118,14,27,05,227,18*70

$GPRMC,164008.000,A,0010.9592,S,07828.7327,W,2.71,179.46,220217,,,D*60

$GPRMC,164009.000,A,0010.9600,S,07828.7328,W,2.73,182.55,220217,,,D*62

$GPVTG,182.55,T,,M,2.73,N,5.07,K,D*37

$GPVTG,191.60,T,,M,2.57,N,4.77,K,D*33

$GPGGA,164011.000,0010.9615,S,07828.7331,W,2,06,1.46,2785.6,M,13.7,M,0000,0000*54

$GPGGA,164012.000,0010.9623,S,07828.7332,W,2,06,1.46,2785.4,M,13.7,M,0000,0000*53

$GPGSA,A,3,26,31,16,10,18,21,,,,,,,1.75,1.46,0.97*06

$GPGSA,A,3,26,31,16,10,18,21,,,,,,,1.75,1.46,0.97*06

$GPGSV,3,1,12,10,67,033,34,46,66,263,34,18,58,106,32,31,51,313,34*7F

$GPVTG,190.60,T,,M,2.66,N,4.94,K,D*3D

$GPGGA,164014.000,0010.9638,S,07828.7334,W,2,06,1.46,2785.3,M,13.7,M,0000,0000*5E

$GPGGA,164015.000,0010.9646,S,07828.7334,W,2,06,1.46,2785.2,M,13.7,M,0000,0000*57

$GPGSA,A,3,26,31,16,10,18,21,,,,,,,1.75,1.46,0.97*06

$GPGSA,A,3,26,31,16,10,18,21,,,,,,,1.75,1.46,0.97*06

$GPRMC,164016.000,A,0010.9653,S,07828.7336,W,2.55,187.44,220217,,,D*64

$GPRMC,164017.000,A,0010.9660,S,07828.7338,W,2.87,188.66,220217,,,D*6B

$GPVTG,188.66,T,,M,2.87,N,5.31,K,D*33

$GPGSV,3,2,12,26,45,192,40,25,33,054,22,21,27,167,32,32,23,006,25*70

$GPGSV,3,3,12,14,19,341,21,16,17,203,24,29,09,118,,27,05,227,18*70

$GPGSA,A,3,26,31,16,10,18,21,,,,,,,1.75,1.46,0.97*06

$GPRMC,164019.000,A,0010.9676,S,07828.7341,W,2.83,186.06,220217,,,D*60

$GPRMC,164020.000,A,0010.9684,S,07828.7342,W,2.66,187.85,220217,,,D*65

$GPVTG,187.85,T,,M,2.66,N,4.93,K,D*37

$GPVTG,182.47,T,,M,2.48,N,4.59,K,D*36

$GPGGA,164022.000,0010.9699,S,07828.7345,W,2,06,1.46,2784.9,M,13.7,M,0000,0000*5D

$GPGGA,164023.000,0010.9706,S,07828.7346,W,2,06,1.46,2784.9,M,13.7,M,0000,0000*58

$GPGSA,A,3,26,31,16,10,18,21,,,,,,,1.75,1.46,0.97*06

$GPRMC,164023.000,A,0010.9706,S,07828.7346,W,2.59,193.02,220217,,,D*6F

$GPVTG,193.02,T,,M,2.59,N,4.80,K,D*33

$GPVTG,187.69,T,,M,2.49,N,4.62,K,D*36

$GPGGA,164025.000,0010.9721,S,07828.7349,W,2,06,1.46,2785.0,M,13.7,M,0000,0000*5C

$GPGGA,164026.000,0010.9729,S,07828.7350,W,2,06,1.46,2785.0,M,13.7,M,0000,0000*5F

$GPGSA,A,3,26,31,16,10,18,21,,,,,,,1.75,1.46,0.97*06

$GPGSA,A,3,26,31,16,10,18,21,,,,,,,1.75,1.46,0.97*06

$GPRMC,164027.000,A,0010.9737,S,07828.7352,W,2.88,196.03,220217,,,D*64

$GPGSV,3,1,12,10,67,034,37,46,66,263,33,18,58,106,29,31,51,313,34*76

$GPGSV,3,2,12,26,45,192,38,25,33,054,18,21,27,167,25,32,23,006,26*73

$GPGGA,164029.000,0010.9752,S,07828.7357,W,2,06,1.46,2785.1,M,13.7,M,0000,0000*5A

$GPGSA,A,3,26,31,16,10,18,21,,,,,,,1.75,1.46,0.97*06

$GPGSA,A,3,26,31,16,10,18,21,,,,,,,1.75,1.46,0.97*06

$GPRMC,164030.000,A,0010.9759,S,07828.7359,W,2.37,192.80,220217,,,D*6A

$GPRMC,164031.000,A,0010.9766,S,07828.7360,W,2.12,185.60,220217,,,D*62

$GPVTG,185.60,T,,M,2.12,N,3.93,K,D*3A

$GPVTG,181.51,T,,M,2.42,N,4.48,K,D*38

$GPGGA,164033.000,0010.9781,S,07828.7362,W,2,06,1.46,2785.3,M,13.7,M,0000,0000*5B

$GPGSV,3,3,12,14,19,341,21,16,17,203,28,29,09,118,16,27,05,227,17*74

$GPRMC,164033.000,A,0010.9781,S,07828.7362,W,2.76,191.91,220217,,,D*62

$GPRMC,164034.000,A,0010.9790,S,07828.7364,W,3.32,196.23,220217,,,D*6C

$GPVTG,196.23,T,,M,3.32,N,6.15,K,D*37

$GPVTG,197.63,T,,M,2.98,N,5.53,K,D*32

$GPGGA,164036.000,0010.9806,S,07828.7370,W,2,06,1.46,2785.5,M,13.7,M,0000,0000*5B

$GPGGA,164037.000,0010.9814,S,07828.7372,W,2,06,1.46,2785.5,M,13.7,M,0000,0000*5B

$GPGSA,A,3,26,31,16,10,18,21,,,,,,,1.75,1.46,0.97*06

$GPGSA,A,3,26,31,16,10,18,21,,,,,,,1.75,1.46,0.97*06

$GPGSV,3,1,12,10,67,034,36,46,66,263,35,18,58,107,38,31,51,313,35*71

$GPVTG,201.60,T,,M,2.82,N,5.22,K,D*30

$GPGGA,164039.000,0010.9830,S,07828.7376,W,2,06,1.46,2785.8,M,13.7,M,0000,0000*5A

$GPGGA,164040.000,0010.9836,S,07828.7378,W,2,06,1.46,2785.9,M,13.7,M,0000,0000*5D

$GPGSA,A,3,26,31,16,10,18,21,,,,,,,1.75,1.46,0.97*06

$GPGSA,A,3,26,31,16,10,18,21,,,,,,,1.75,1.46,0.97*06

$GPRMC,164041.000,A,0010.9844,S,07828.7378,W,2.74,184.41,220217,,,D*61

$GPRMC,164042.000,A,0010.9851,S,07828.7378,W,2.61,177.44,220217,,,D*6B

$GPVTG,177.44,T,,M,2.61,N,4.84,K,D*34

$GPGSV,3,2,12,26,45,192,38,25,33,053,28,21,27,167,39,32,23,006,25*79

$GPGSV,3,3,12,14,19,341,22,16,17,203,28,29,09,118,16,27,06,227,16*75

$GPGSA,A,3,26,31,16,10,18,21,,,,,,,1.75,1.46,0.97*06

$GPRMC,164044.000,A,0010.9865,S,07828.7381,W,2.81,198.13,220217,,,D*61

$GPRMC,164045.000,A,0010.9873,S,07828.7382,W,2.92,186.17,220217,,,D*6D

$GPVTG,186.17,T,,M,2.92,N,5.40,K,D*39

$GPVTG,184.29,T,,M,2.91,N,5.38,K,D*3A

$GPGGA,164047.000,0010.9887,S,07828.7387,W,2,06,1.46,2786.1,M,13.7,M,0000,0000*5B

$GPGGA,164048.000,0010.9894,S,07828.7388,W,2,06,1.46,2786.1,M,13.7,M,0000,0000*59

$GPGSA,A,3,26,31,16,10,18,21,,,,,,,1.75,1.46,0.97*06

$GPRMC,164048.000,A,0010.9894,S,07828.7388,W,2.81,184.60,220217,,,D*63

$GPVTG,184.60,T,,M,2.81,N,5.20,K,D*3F

$GPVTG,202.20,T,,M,2.66,N,4.92,K,D*37

$GPGGA,164050.000,0010.9909,S,07828.7391,W,2,06,1.46,2786.3,M,13.7,M,0000,0000*5F

$GPGGA,164051.000,0010.9916,S,07828.7391,W,2,06,1.46,2786.4,M,13.7,M,0000,0000*57

$GPGSA,A,3,26,31,16,10,18,21,,,,,,,1.75,1.46,0.97*06

$GPGSA,A,3,26,31,16,10,18,21,,,,,,,1.75,1.46,0.97*06

$GPRMC,164052.000,A,0010.9923,S,07828.7391,W,2.55,176.47,220217,,,D*6C

$GPGSV,3,1,12,10,67,034,38,46,66,263,34,18,58,107,39,31,51,313,32*78

$GPGSV,3,2,12,26,45,192,40,25,33,053,34,21,27,167,38,32,23,007,27*79

