
$GPGGA,193257.000,0010.9339,S,07829.0462,W,1,04,1.96,2815.5,M,13.7,M,,*59

$GPGSA,A,3,10,26,16,14,,,,,,,,,2.19,1.96,0.98*00

$GPRMC,193257.000,A,0010.9339,S,07829.0462,W,0.04,333.30,230217,,,A*6E

$GPVTG,333.30,T,,M,0.04,N,0.08,K,A*31

$GPVTG,343.23,T,,M,0.16,N,0.31,K,A*3D

$GPGGA,193259.000,0010.9332,S,07829.0446,W,1,04,1.96,2811.1,M,13.7,M,,*5A

$GPGGA,193300.000,0010.9332,S,07829.0444,W,1,04,2.43,2812.5,M,13.7,M,,*59

$GPGSA,A,3,10,26,16,14,,,,,,,,,5.02,2.43,4.39*09

$GPGSA,A,3,10,26,22,16,14,27,,,,,,,1.59,1.28,0.94*0B

$GPRMC,193301.000,A,0010.9322,S,07829.0453,W,0.59,352.67,230217,,,A*69

$GPGSV,3,1,12,16,67,328,34,51,56,270,,27,47,164,38,14,46,067,35*7C

$GPGSV,3,2,12,26,44,008,38,22,43,291,31,10,18,155,26,03,,,25*4A

$GPGGA,193303.000,0010.9313,S,07829.0467,W,1,06,1.28,2802.9,M,13.7,M,,*59

$GPGSA,A,3,10,26,22,16,14,27,,,,,,,1.59,1.28,0.94*0B

$GPGSA,A,3,10,26,22,16,14,27,,,,,,,1.59,1.28,0.94*0B

$GPRMC,193304.000,A,0010.9310,S,07829.0467,W,0.22,18.52,230217,,,A*5D

$GPRMC,193305.000,A,0010.9305,S,07829.0475,W,0.35,331.73,230217,,,A*66

$GPVTG,331.73,T,,M,0.35,N,0.65,K,A*3D

$GPVTG,330.10,T,,M,0.17,N,0.31,K,A*38

$GPGGA,193307.000,0010.9300,S,07829.0478,W,1,06,1.28,2799.5,M,13.7,M,,*50

$GPGSV,3,3,12,08,,,38,31,,,36,32,,,37,11,,,38*70

$GPRMC,193307.000,A,0010.9300,S,07829.0478,W,0.09,323.77,230217,,,A*64

$GPRMC,193308.000,A,0010.9300,S,07829.0480,W,0.11,236.10,230217,,,A*61

$GPVTG,236.10,T,,M,0.11,N,0.20,K,A*39

$GPVTG,240.85,T,,M,0.07,N,0.12,K,A*32

$GPGGA,193310.000,0010.9299,S,07829.0480,W,1,06,1.28,2798.8,M,13.7,M,,*5C

$GPGGA,193311.000,0010.9299,S,07829.0480,W,1,06,1.28,2798.9,M,13.7,M,,*5C

$GPGSA,A,3,10,26,22,16,14,27,,,,,,,1.59,1.28,0.94*0B

$GPGSA,A,3,10,26,22,16,14,27,,,,,,,1.59,1.28,0.94*0B

$GPGSV,3,1,11,16,67,328,36,27,47,164,29,14,46,067,37,26,44,008,34*76

$GPVTG,232.67,T,,M,0.21,N,0.39,K,A*36

$GPGGA,193313.000,0010.9300,S,07829.0479,W,1,06,1.28,2799.6,M,13.7,M,,*57

$GPGGA,193314.000,0010.9300,S,07829.0478,W,1,06,1.28,2799.7,M,13.7,M,,*50

$GPGSA,A,3,10,26,22,16,14,27,,,,,,,1.59,1.28,0.94*0B

$GPGSA,A,3,10,26,22,16,14,27,,,,,,,1.59,1.28,0.94*0B

$GPRMC,193315.000,A,0010.9301,S,07829.0477,W,0.15,146.45,230217,,,A*64

$GPRMC,193316.000,A,0010.9302,S,07829.0477,W,0.29,184.31,230217,,,A*66

$GPVTG,184.31,T,,M,0.29,N,0.53,K,A*3F

$GPGSV,3,2,12,22,43,291,23,10,18,155,16,33,18,090,,03,,,20*48

$GPGSV,3,3,12,08,,,26,31,,,38,32,,,36,11,,,28*71

$GPGSA,A,3,10,26,22,16,14,27,,,,,,,1.59,1.28,0.94*0B

$GPRMC,193318.000,A,0010.9304,S,07829.0477,W,0.09,234.03,230217,,,A*65

$GPRMC,193319.000,A,0010.9302,S,07829.0476,W,0.10,228.01,230217,,,A*64

$GPVTG,228.01,T,,M,0.10,N,0.19,K,A*3D

$GPVTG,163.83,T,,M,0.15,N,0.27,K,A*33

$GPGGA,193321.000,0010.9302,S,07829.0477,W,1,08,1.03,2798.0,M,13.7,M,,*5A

$GPGGA,193322.000,0010.9300,S,07829.0476,W,1,08,1.03,2796.5,M,13.7,M,,*51

$GPGSA,A,3,10,26,22,16,14,27,31,32,,,,,1.35,1.03,0.88*06

$GPRMC,193322.000,A,0010.9300,S,07829.0476,W,0.05,7.08,230217,,,A*6C

$GPVTG,7.08,T,,M,0.05,N,0.09,K,A*3E

$GPVTG,69.28,T,,M,0.21,N,0.39,K,A*01

$GPGGA,193324.000,0010.9298,S,07829.0474,W,1,08,1.03,2795.5,M,13.7,M,,*56

$GPGGA,193325.000,0010.9297,S,07829.0474,W,1,08,1.03,2795.4,M,13.7,M,,*59

$GPGSA,A,3,10,26,22,16,14,27,31,32,,,,,1.35,1.03,0.88*06

$GPGSA,A,3,10,26,22,16,14,31,32,,,,,,1.41,1.10,0.88*02

$GPRMC,193326.000,A,0010.9300,S,07829.0473,W,0.40,126.87,230217,,,A*69

$GPGSV,3,1,12,16,67,328,37,51,56,270,,27,47,163,21,14,46,067,36*73

$GPGSV,3,2,12,26,44,008,44,22,43,290,30,32,37,102,40,10,18,155,24*75

$GPGGA,193328.000,0010.9301,S,07829.0476,W,1,08,1.03,2794.5,M,13.7,M,,*58

$GPGSA,A,3,10,26,22,16,14,27,31,32,,,,,1.35,1.03,0.88*06

$GPGSA,A,3,10,26,22,16,14,27,31,32,,,,,1.35,1.03,0.88*06

$GPRMC,193329.000,A,0010.9301,S,07829.0477,W,0.33,142.18,230217,,,A*63

$GPRMC,193330.000,A,0010.9302,S,07829.0477,W,0.13,269.60,230217,,,A*6F

$GPVTG,269.60,T,,M,0.13,N,0.23,K,A*35

$GPVTG,98.19,T,,M,0.19,N,0.35,K,A*0A

$GPGGA,193332.000,0010.9302,S,07829.0476,W,1,08,1.03,2794.5,M,13.7,M,,*50

$GPGSV,3,3,12,31,14,032,34,03,,,39,08,,,17,11,,,23*4D

$GPRMC,193332.000,A,0010.9302,S,07829.0476,W,0.09,103.77,230217,,,A*6E

$GPRMC,193333.000,A,0010.9302,S,07829.0476,W,0.11,130.79,230217,,,A*68

$GPVTG,130.79,T,,M,0.11,N,0.21,K,A*32

$GPVTG,151.28,T,,M,0.09,N,0.17,K,A*3D

$GPGGA,193335.000,0010.9302,S,07829.0476,W,1,08,1.03,2794.5,M,13.7,M,,*57

$GPGGA,193336.000,0010.9303,S,07829.0476,W,1,08,1.03,2794.5,M,13.7,M,,*55

$GPGSA,A,3,10,26,22,16,14,27,31,32,,,,,1.35,1.03,0.88*06

$GPGSA,A,3,10,26,22,16,14,27,31,32,,,,,1.35,1.03,0.88*06

$GPGSV,3,1,12,16,67,328,37,51,56,270,36,27,47,163,23,14,46,067,37*75

$GPVTG,190.96,T,,M,0.17,N,0.31,K,A*3E

$GPGGA,193338.000,0010.9304,S,07829.0476,W,1,08,1.03,2794.5,M,13.7,M,,*5C

$GPGGA,193339.000,0010.9306,S,07829.0478,W,1,08,1.03,2794.5,M,13.7,M,,*51

$GPGSA,A,3,10,26,22,16,14,27,31,32,,,,,1.35,1.03,0.88*06

$GPGSA,A,3,10,26,22,16,14,27,31,32,,,,,1.35,1.03,0.88*06

$GPRMC,193340.000,A,0010.9307,S,07829.0478,W,0.42,191.91,230217,,,A*6C

$GPRMC,193341.000,A,0010.9308,S,07829.0480,W,0.24,227.35,230217,,,A*65

$GPVTG,227.35,T,,M,0.24,N,0.45,K,A*3B

$GPGSV,3,2,12,26,44,008,41,22,43,290,41,32,37,102,37,10,18,155,16*77

$GPGSV,3,3,12,31,14,032,37,03,,,40,08,,,17,11,,,19*49

$GPGSA,A,3,10,26,22,16,14,27,31,32,,,,,1.35,1.03,0.88*06

$GPRMC,193343.000,A,0010.9309,S,07829.0480,W,0.18,218.40,230217,,,A*67

$GPRMC,193344.000,A,0010.9309,S,07829.0478,W,0.32,84.35,230217,,,A*5A

$GPVTG,84.35,T,,M,0.32,N,0.59,K,A*0A

$GPVTG,288.66,T,,M,0.23,N,0.43,K,A*39

$GPGGA,193346.000,0010.9309,S,07829.0478,W,1,08,1.03,2794.8,M,13.7,M,,*5B

$GPGGA,193347.000,0010.9309,S,07829.0477,W,1,07,1.10,2794.9,M,13.7,M,,*59

$GPGSA,A,3,10,26,22,16,14,31,32,,,,,,1.41,1.10,0.88*02

$GPRMC,193347.000,A,0010.9309,S,07829.0477,W,0.01,20.88,230217,,,A*5E

$GPVTG,20.88,T,,M,0.01,N,0.03,K,A*0D

$GPVTG,226.90,T,,M,0.05,N,0.09,K,A*3E

$GPGGA,193349.000,0010.9310,S,07829.0477,W,1,08,1.03,2795.4,M,13.7,M,,*5E

$GPGGA,193350.000,0010.9310,S,07829.0477,W,1,08,1.03,2795.4,M,13.7,M,,*56

$GPGSA,A,3,10,26,22,16,14,27,31,32,,,,,1.35,1.03,0.88*06

$GPGSA,A,3,10,26,22,16,14,27,31,32,,,,,1.35,1.03,0.88*06

$GPRMC,193351.000,A,0010.9309,S,07829.0477,W,0.03,32.63,230217,,,A*5D

$GPGSV,3,1,12,16,67,328,39,51,56,270,36,14,47,068,38,27,47,163,25*7C

$GPGSV,3,2,12,26,44,008,42,22,43,290,39,32,37,102,40,10,18,155,26*78

$GPGGA,193353.000,0010.9309,S,07829.0477,W,1,08,1.03,2795.3,M,13.7,M,,*5A

$GPGSA,A,3,10,26,22,16,14,27,31,32,,,,,1.35,1.03,0.88*06

$GPGSA,A,3,10,26,22,16,14,27,31,32,,,,,1.35,1.03,0.88*06

$GPRMC,193354.000,A,0010.9309,S,07829.0477,W,0.03,252.47,230217,,,A*6A

$GPRMC,193355.000,A,0010.9309,S,07829.0477,W,0.02,54.69,230217,,,A*52

$GPVTG,54.69,T,,M,0.02,N,0.04,K,A*05

$GPVTG,304.33,T,,M,0.01,N,0.02,K,A*39

$GPGGA,193357.000,0010.9309,S,07829.0477,W,1,08,1.03,2795.4,M,13.7,M,,*59

$GPGSV,3,3,12,31,14,032,38,03,,,38,08,,,17,11,,,20*43

$GPRMC,193357.000,A,0010.9309,S,07829.0477,W,0.01,201.54,230217,,,A*6F

$GPRMC,193358.000,A,0010.9309,S,07829.0477,W,0.04,265.91,230217,,,A*6E

$GPVTG,265.91,T,,M,0.04,N,0.07,K,A*37

$GPVTG,74.75,T,,M,0.03,N,0.06,K,A*09

$GPGGA,193400.000,0010.9309,S,07829.0477,W,1,08,1.08,2795.4,M,13.7,M,,*57

$GPGGA,193401.000,0010.9309,S,07829.0477,W,1,09,0.93,2795.4,M,13.7,M,,*54

$GPGSA,A,3,10,26,22,16,14,03,27,31,32,,,,1.88,0.93,1.64*08

$GPGSA,A,3,10,26,22,16,14,03,27,31,32,,,,1.88,0.93,1.64*08

$GPGSV,3,1,12,16,67,328,40,51,56,270,37,14,47,068,36,27,47,163,25*7D

$GPVTG,246.47,T,,M,0.36,N,0.67,K,A*3A

$GPGGA,193403.000,0010.9309,S,07829.0477,W,1,09,0.92,2795.4,M,13.7,M,,*57

$GPGGA,193404.000,0010.9309,S,07829.0477,W,1,09,0.92,2795.4,M,13.7,M,,*50

$GPGSA,A,3,10,26,22,16,14,03,27,31,32,,,,1.26,0.92,0.85*03

$GPGSA,A,3,10,26,22,16,14,03,27,31,32,,,,1.26,0.92,0.85*03

$GPRMC,193405.000,A,0010.9308,S,07829.0477,W,0.36,302.51,230217,,,A*6D

$GPRMC,193406.000,A,0010.9307,S,07829.0478,W,0.08,320.03,230217,,,A*64

$GPVTG,320.03,T,,M,0.08,N,0.16,K,A*30

$GPGSV,3,2,12,22,43,290,38,26,43,008,37,32,37,102,33,03,27,306,39*7C

$GPGSV,3,3,12,10,18,155,13,31,14,032,34,08,,,25,11,,,17*79

$GPGSA,A,3,10,26,22,16,14,03,27,31,32,,,,1.88,0.93,1.64*08

$GPRMC,193408.000,A,0010.9307,S,07829.0478,W,0.00,286.14,230217,,,A*69

$GPRMC,193409.000,A,0010.9307,S,07829.0478,W,0.01,342.85,230217,,,A*68

$GPVTG,342.85,T,,M,0.01,N,0.02,K,A*36

$GPVTG,219.21,T,,M,0.02,N,0.03,K,A*35

$GPGGA,193411.000,0010.9307,S,07829.0478,W,1,09,0.93,2795.4,M,13.7,M,,*54

$GPGGA,193412.000,0010.9307,S,07829.0478,W,1,09,0.93,2795.4,M,13.7,M,,*57

$GPGSA,A,3,10,26,22,16,14,03,27,31,32,,,,1.88,0.93,1.64*08

$GPVTG,209.83,T,,M,0.01,N,0.03,K,A*3F

$GPGGA,193413.000,0010.9307,S,07829.0478,W,1,09,0.93,2795.4,M,13.7,M,,*56

$GPGGA,193414.000,0010.9307,S,07829.0478,W,1,09,0.93,2795.4,M,13.7,M,,*51

$GPGSA,A,3,10,26,22,16,14,03,27,31,32,,,,1.88,0.93,1.64*08

$GPGSA,A,3,10,26,22,16,14,03,27,31,32,,,,1.88,0.93,1.64*08

$GPRMC,193415.000,A,0010.9307,S,07829.0478,W,0.01,64.35,230217,,,A*59

$GPRMC,193416.000,A,0010.9307,S,07829.0478,W,0.02,160.41,230217,,,A*6F

$GPVTG,160.41,T,,M,0.02,N,0.04,K,A*39

$GPGSV,3,2,12,22,43,290,35,26,43,008,37,32,37,102,28,03,27,306,38*7A

$GPGSV,3,3,12,10,18,155,17,31,14,032,36,08,,,27,11,,,19*73

$GPGSA,A,3,10,26,22,16,14,03,27,31,32,,,,1.88,0.93,1.64*08

$GPRMC,193418.000,A,0010.9307,S,07829.0477,W,0.02,2.23,230217,,,A*6F

$GPRMC,193419.000,A,0010.9307,S,07829.0477,W,0.02,181.88,230217,,,A*65

$GPVTG,181.88,T,,M,0.02,N,0.04,K,A*33

$GPVTG,358.67,T,,M,0.03,N,0.06,K,A*37

$GPGGA,193421.000,0010.9307,S,07829.0477,W,1,09,0.93,2796.0,M,13.7,M,,*5F

$GPGGA,193422.000,0010.9307,S,07829.0477,W,1,09,0.93,2795.9,M,13.7,M,,*56

$GPGSA,A,3,10,26,22,16,14,03,27,31,32,,,,1.88,0.93,1.64*08

$GPRMC,193422.000,A,0010.9307,S,07829.0477,W,0.02,287.66,230217,,,A*68

$GPVTG,287.66,T,,M,0.02,N,0.03,K,A*31

$GPVTG,161.85,T,,M,0.03,N,0.05,K,A*30

$GPGGA,193424.000,0010.9308,S,07829.0476,W,1,09,0.93,2795.7,M,13.7,M,,*50

$GPGGA,193425.000,0010.9308,S,07829.0476,W,1,09,0.93,2795.4,M,13.7,M,,*52

$GPGSA,A,3,10,26,22,16,14,03,27,31,32,,,,1.88,0.93,1.64*08

$GPGSA,A,3,10,26,22,16,14,03,27,31,32,,,,1.88,0.93,1.64*08

$GPRMC,193426.000,A,0010.9307,S,07829.0476,W,0.02,311.19,230217,,,A*6B

$GPGSV,3,1,12,16,67,328,36,51,56,270,33,14,47,068,35,27,47,163,24*7A

$GPGSV,3,2,12,22,43,290,36,26,43,008,37,32,37,102,30,03,27,306,37*7F

$GPGGA,193428.000,0010.9307,S,07829.0476,W,1,09,0.93,2795.2,M,13.7,M,,*56

$GPGSA,A,3,10,26,22,16,14,03,27,31,32,,,,1.88,0.93,1.64*08

$GPGSA,A,3,10,26,22,16,14,03,27,31,32,,,,1.88,0.93,1.64*08

$GPRMC,193429.000,A,0010.9307,S,07829.0476,W,0.61,227.71,230217,,,A*6B

$GPRMC,193430.000,A,0010.9308,S,07829.0476,W,0.08,0.50,230217,,,A*67

$GPVTG,0.50,T,,M,0.08,N,0.15,K,A*34

$GPVTG,72.25,T,,M,0.33,N,0.62,K,A*0B

$GPGGA,193432.000,0010.9308,S,07829.0476,W,2,09,0.92,2795.8,M,13.7,M,0000,0000*5A

$GPGSV,3,3,12,10,17,155,17,31,14,032,37,08,,,17,11,,,20*74

$GPRMC,193432.000,A,0010.9308,S,07829.0476,W,0.16,240.28,230217,,,D*66

$GPRMC,193433.000,A,0010.9309,S,07829.0475,W,0.13,107.82,230217,,,D*60

$GPVTG,107.82,T,,M,0.13,N,0.24,K,D*30

$GPVTG,116.24,T,,M,0.12,N,0.22,K,D*3B

$GPGGA,193435.000,0010.9310,S,07829.0475,W,2,09,0.92,2795.8,M,13.7,M,0000,0000*57

$GPGGA,193436.000,0010.9310,S,07829.0474,W,2,09,0.92,2795.5,M,13.7,M,0000,0000*58

$GPGSA,A,3,10,26,22,16,14,03,27,31,32,,,,1.25,0.92,0.85*00

$GPGSA,A,3,10,26,22,16,14,03,27,31,32,,,,1.26,0.92,0.85*03

$GPGSV,3,1,12,16,66,329,39,51,56,270,35,14,47,068,32,27,47,163,29*79

$GPVTG,173.13,T,,M,0.09,N,0.16,K,D*31

$GPGGA,193438.000,0010.9309,S,07829.0473,W,2,09,0.92,2794.8,M,13.7,M,0000,0000*55

$GPGGA,193439.000,0010.9309,S,07829.0473,W,2,09,0.92,2794.6,M,13.7,M,0000,0000*5A

$GPGSA,A,3,10,26,22,16,14,03,27,31,32,,,,1.25,0.92,0.85*00

$GPGSA,A,3,10,26,22,16,14,03,27,31,32,,,,1.25,0.92,0.85*00

$GPRMC,193440.000,A,0010.9308,S,07829.0473,W,0.02,301.53,230217,,,D*6B

$GPRMC,193441.000,A,0010.9308,S,07829.0472,W,0.02,136.95,230217,,,D*67

$GPVTG,136.95,T,,M,0.02,N,0.04,K,D*36

$GPGSV,3,2,12,22,43,290,40,26,43,008,39,32,37,102,34,03,27,306,40*74

$GPGSV,3,3,12,10,17,155,15,31,14,032,36,08,,,21,11,,,16*77

$GPGSA,A,3,10,26,22,16,14,03,27,31,32,,,,1.88,0.93,1.64*08

$GPRMC,193443.000,A,0010.9306,S,07829.0471,W,0.08,22.36,230217,,,D*5F

$GPRMC,193444.000,A,0010.9305,S,07829.0471,W,0.07,332.69,230217,,,D*6C

$GPVTG,332.69,T,,M,0.07,N,0.13,K,D*30

$GPVTG,58.70,T,,M,0.03,N,0.06,K,D*07

$GPGGA,193446.000,0010.9304,S,07829.0470,W,2,09,0.93,2794.1,M,13.7,M,0000,0000*5A

$GPGGA,193447.000,0010.9304,S,07829.0469,W,2,09,0.93,2794.1,M,13.7,M,0000,0000*53

$GPGSA,A,3,10,26,22,16,14,03,27,31,32,,,,1.88,0.93,1.64*08

$GPRMC,193447.000,A,0010.9304,S,07829.0469,W,0.01,175.58,230217,,,D*62

$GPVTG,175.58,T,,M,0.01,N,0.03,K,D*34

$GPVTG,199.28,T,,M,0.01,N,0.02,K,D*30

$GPGGA,193449.000,0010.9304,S,07829.0469,W,2,09,0.93,2793.9,M,13.7,M,0000,0000*52

$GPGGA,193450.000,0010.9304,S,07829.0468,W,2,09,0.93,2793.8,M,13.7,M,0000,0000*5A

$GPGSA,A,3,10,26,22,16,14,03,27,31,32,,,,1.88,0.93,1.64*08

$GPGSA,A,3,10,26,22,16,14,03,27,31,32,,,,1.88,0.93,1.64*08

$GPRMC,193451.000,A,0010.9304,S,07829.0468,W,0.02,261.00,230217,,,D*6C

$GPGSV,3,1,12,16,66,329,39,51,56,270,34,27,48,163,28,14,47,068,33*77

$GPGSV,3,2,12,22,43,290,39,26,43,008,39,32,37,103,33,03,27,305,40*7F

$GPGGA,193453.000,0010.9303,S,07829.0467,W,2,09,0.93,2793.3,M,13.7,M,0000,0000*5A

$GPGSA,A,3,10,26,22,16,14,03,27,31,32,,,,1.88,0.93,1.64*08

$GPGSA,A,3,10,26,22,16,14,03,27,31,32,,,,1.88,0.93,1.63*0F

$GPRMC,193454.000,A,0010.9303,S,07829.0467,W,0.02,268.51,230217,,,D*6C

$GPRMC,193455.000,A,0010.9303,S,07829.0467,W,0.02,51.96,230217,,,D*5E

$GPVTG,51.96,T,,M,0.02,N,0.03,K,D*02

$GPVTG,59.19,T,,M,0.02,N,0.04,K,D*0A

$GPGGA,193457.000,0010.9303,S,07829.0466,W,2,09,0.93,2792.4,M,13.7,M,0000,0000*59

$GPGSV,3,3,12,10,17,155,16,31,14,032,37,08,,,25,11,,,20*74

$GPRMC,193457.000,A,0010.9303,S,07829.0466,W,0.02,96.09,230217,,,D*50

$GPRMC,193458.000,A,0010.9304,S,07829.0465,W,0.02,142.95,230217,,,D*66

$GPVTG,142.95,T,,M,0.02,N,0.04,K,D*35

$GPVTG,117.43,T,,M,0.02,N,0.04,K,D*3E

$GPGGA,193500.000,0010.9305,S,07829.0464,W,2,09,0.93,2791.9,M,13.7,M,0000,0000*50

$GPGGA,193501.000,0010.9305,S,07829.0463,W,2,09,0.93,2791.7,M,13.7,M,0000,0000*58

$GPGSA,A,3,10,26,22,16,14,03,27,31,32,,,,1.88,0.93,1.64*08

$GPGSA,A,3,10,26,22,16,14,03,27,31,32,,,,1.88,0.93,1.64*08

$GPGSV,3,1,12,16,66,329,40,51,56,270,34,27,48,163,36,14,47,068,34*71

$GPVTG,232.21,T,,M,0.19,N,0.35,K,D*36

$GPGGA,193503.000,0010.9307,S,07829.0464,W,2,09,0.93,2791.9,M,13.7,M,0000,0000*51

$GPGGA,193504.000,0010.9306,S,07829.0466,W,2,09,0.93,2792.2,M,13.7,M,0000,0000*5D

$GPGSA,A,3,10,26,22,16,14,03,27,31,32,,,,1.88,0.93,1.63*0F

$GPGSA,A,3,10,26,22,16,14,03,27,31,32,,,,1.88,0.93,1.64*08

$GPRMC,193505.000,A,0010.9305,S,07829.0468,W,0.50,262.59,230217,,,D*65

$GPRMC,193506.000,A,0010.9304,S,07829.0471,W,0.62,271.06,230217,,,D*66

$GPVTG,271.06,T,,M,0.62,N,1.14,K,D*3A

$GPGSV,3,2,12,22,43,290,23,26,43,008,38,32,37,103,40,03,27,305,20*77

$GPGSV,3,3,12,10,17,154,33,31,14,032,38,08,,,30,11,,,20*79

$GPGSA,A,3,10,26,22,16,14,03,27,31,32,,,,1.25,0.92,0.85*00

$GPRMC,193508.000,A,0010.9306,S,07829.0471,W,0.39,163.64,230217,,,D*60

$GPRMC,193509.000,A,0010.9307,S,07829.0471,W,0.22,155.31,230217,,,D*6F

$GPVTG,155.31,T,,M,0.22,N,0.41,K,D*3E

$GPVTG,97.97,T,,M,0.43,N,0.80,K,D*07

$GPGGA,193511.000,0010.9305,S,07829.0467,W,2,09,0.92,2793.2,M,13.7,M,0000,0000*5B

$GPGGA,193512.000,0010.9303,S,07829.0464,W,2,09,0.92,2793.2,M,13.7,M,0000,0000*5D

$GPGSA,A,3,10,26,22,16,14,03,27,31,32,,,,1.25,0.92,0.85*00

$GPRMC,193512.000,A,0010.9303,S,07829.0464,W,1.32,61.34,230217,,,D*56

$GPVTG,61.34,T,,M,1.32,N,2.44,K,D*0A

$GPVTG,69.47,T,,M,1.23,N,2.27,K,D*03

$GPGGA,193514.000,0010.9301,S,07829.0459,W,2,08,0.99,2793.3,M,13.7,M,0000,0000*5C

$GPGGA,193515.000,0010.9301,S,07829.0457,W,2,09,0.93,2793.3,M,13.7,M,0000,0000*58

$GPGSA,A,3,10,26,22,16,14,03,27,31,32,,,,1.88,0.93,1.63*0F

$GPGSA,A,3,10,26,22,16,14,03,27,31,32,,,,1.88,0.93,1.63*0F

$GPRMC,193516.000,A,0010.9301,S,07829.0456,W,0.66,67.02,230217,,,D*52

$GPGSV,3,1,12,16,66,329,38,51,56,270,41,27,48,163,23,14,47,068,32*7E

$GPGSV,3,2,12,22,43,289,41,26,43,008,37,32,37,103,35,03,27,305,40*70

$GPGGA,193518.000,0010.9301,S,07829.0455,W,2,09,0.93,2793.0,M,13.7,M,0000,0000*54

$GPGSA,A,3,10,26,22,16,14,03,27,31,32,,,,1.88,0.93,1.63*0F

$GPGSA,A,3,10,26,22,16,14,03,27,31,32,,,,1.88,0.93,1.63*0F

$GPRMC,193519.000,A,0010.9301,S,07829.0455,W,0.27,66.98,230217,,,D*59

$GPRMC,193520.000,A,0010.9301,S,07829.0455,W,0.21,66.62,230217,,,D*50

$GPVTG,66.62,T,,M,0.21,N,0.38,K,D*04

$GPVTG,66.04,T,,M,0.23,N,0.43,K,D*0A

$GPGGA,193522.000,0010.9301,S,07829.0453,W,2,09,0.93,2792.8,M,13.7,M,0000,0000*52

$GPGSV,3,3,12,10,17,154,17,31,14,032,36,08,,,22,11,,,19*78

$GPRMC,193522.000,A,0010.9301,S,07829.0453,W,0.07,16.61,230217,,,D*54

$GPRMC,193523.000,A,0010.9301,S,07829.0453,W,0.07,334.39,230217,,,D*6B

$GPVTG,334.39,T,,M,0.07,N,0.14,K,D*34

$GPVTG,98.33,T,,M,0.03,N,0.05,K,D*0F

$GPGGA,193525.000,0010.9300,S,07829.0453,W,2,09,0.93,2792.9,M,13.7,M,0000,0000*55

$GPGGA,193526.000,0010.9301,S,07829.0453,W,2,09,0.93,2793.0,M,13.7,M,0000,0000*5F

$GPGSA,A,3,10,26,22,16,14,03,27,31,32,,,,1.88,0.93,1.63*0F

$GPGSA,A,3,10,26,22,16,14,03,27,31,32,,,,1.88,0.93,1.63*0F

$GPGSV,3,1,12,16,66,329,38,51,56,270,37,27,48,163,24,14,47,068,33*79

$GPVTG,160.39,T,,M,0.15,N,0.29,K,D*3A

$GPGGA,193528.000,0010.9301,S,07829.0453,W,2,09,0.93,2793.0,M,13.7,M,0000,0000*51

$GPGGA,193529.000,0010.9303,S,07829.0453,W,2,09,0.93,2793.1,M,13.7,M,0000,0000*53

$GPGSA,A,3,10,26,22,16,14,03,27,31,32,,,,1.88,0.93,1.63*0F

$GPGSA,A,3,10,26,22,16,14,03,27,31,32,,,,1.88,0.93,1.63*0F

$GPRMC,193530.000,A,0010.9303,S,07829.0453,W,0.25,204.85,230217,,,D*6E

$GPRMC,193531.000,A,0010.9304,S,07829.0453,W,0.16,191.80,230217,,,D*62

$GPVTG,191.80,T,,M,0.16,N,0.30,K,D*3D

$GPGSV,3,2,12,22,43,289,41,26,43,008,36,32,36,103,26,03,28,305,39*73

$GPGSV,3,3,12,10,17,154,20,31,14,032,28,08,,,29,11,,,36*75

$GPGSA,A,3,10,26,22,16,14,03,27,31,32,,,,1.88,0.93,1.63*0F

$GPRMC,193533.000,A,0010.9305,S,07829.0453,W,0.20,181.28,230217,,,D*67

$GPRMC,193534.000,A,0010.9305,S,07829.0453,W,0.15,185.55,230217,,,D*68

$GPVTG,185.55,T,,M,0.15,N,0.27,K,D*35

$GPVTG,181.29,T,,M,0.12,N,0.23,K,D*39

$GPGGA,193536.000,0010.9306,S,07829.0453,W,2,09,0.93,2793.3,M,13.7,M,0000,0000*5A

$GPGGA,193537.000,0010.9306,S,07829.0453,W,2,09,0.93,2793.3,M,13.7,M,0000,0000*5B

$GPGSA,A,3,10,26,22,16,14,03,27,31,32,,,,1.88,0.93,1.63*0F

$GPRMC,193537.000,A,0010.9306,S,07829.0453,W,0.14,156.60,230217,,,D*61

$GPVTG,156.60,T,,M,0.14,N,0.26,K,D*3D

$GPVTG,162.18,T,,M,0.10,N,0.19,K,D*3D

$GPGGA,193539.000,0010.9307,S,07829.0453,W,2,09,0.93,2793.4,M,13.7,M,0000,0000*53

$GPGGA,193540.000,0010.9307,S,07829.0453,W,2,09,0.93,2793.4,M,13.7,M,0000,0000*5D

$GPGSA,A,3,10,26,22,16,14,03,27,31,32,,,,1.88,0.93,1.63*0F

$GPGSA,A,3,10,26,22,16,14,03,27,31,32,,,,1.88,0.93,1.63*0F

$GPRMC,193541.000,A,0010.9308,S,07829.0453,W,0.05,171.78,230217,,,D*62

$GPGSV,3,1,12,16,66,330,37,51,56,270,39,27,48,163,31,14,47,069,21*76

$GPGSV,3,2,12,22,43,289,39,26,43,008,36,32,36,103,28,03,28,305,39*72

$GPGGA,193543.000,0010.9308,S,07829.0453,W,2,09,0.93,2793.5,M,13.7,M,0000,0000*50

$GPGSA,A,3,10,26,22,16,14,03,27,31,32,,,,1.88,0.93,1.63*0F

$GPGSA,A,3,10,26,22,16,14,03,27,31,32,,,,1.88,0.93,1.63*0F

$GPRMC,193544.000,A,0010.9308,S,07829.0453,W,0.02,281.88,230217,,,D*63

$GPRMC,193545.000,A,0010.9308,S,07829.0453,W,0.04,291.86,230217,,,D*6B

$GPVTG,291.86,T,,M,0.04,N,0.07,K,D*3F

$GPVTG,334.81,T,,M,0.01,N,0.02,K,D*36

$GPGGA,193547.000,0010.9308,S,07829.0453,W,2,09,0.93,2793.7,M,13.7,M,0000,0000*56

$GPGSV,3,3,12,10,17,154,22,31,14,032,25,08,,,27,11,,,26*75

$GPRMC,193547.000,A,0010.9308,S,07829.0453,W,0.02,263.70,230217,,,D*6B

$GPRMC,193548.000,A,0010.9308,S,07829.0453,W,0.05,229.62,230217,,,D*6E

$GPVTG,229.62,T,,M,0.05,N,0.09,K,D*39

$GPVTG,285.73,T,,M,0.02,N,0.03,K,D*32

$GPGGA,193550.000,0010.9308,S,07829.0453,W,2,09,0.92,2793.7,M,13.7,M,0000,0000*51

$GPGGA,193551.000,0010.9308,S,07829.0453,W,2,09,0.93,2793.7,M,13.7,M,0000,0000*51

$GPGSA,A,3,10,26,22,16,14,03,27,31,32,,,,1.88,0.93,1.63*0F

$GPGSA,A,3,10,26,22,16,14,03,27,31,32,,,,1.88,0.93,1.63*0F

$GPGSV,3,1,12,16,66,330,37,51,56,270,40,27,48,162,31,14,47,069,24*7C

$GPVTG,171.93,T,,M,0.00,N,0.01,K,D*34

$GPGGA,193553.000,0010.9308,S,07829.0453,W,2,09,0.93,2793.7,M,13.7,M,0000,0000*53

$GPGGA,193554.000,0010.9308,S,07829.0453,W,2,09,0.93,2793.7,M,13.7,M,0000,0000*54

$GPGSA,A,3,10,26,22,16,14,03,27,31,32,,,,1.88,0.93,1.63*0F

$GPGSA,A,3,10,26,22,16,14,03,27,31,32,11,,,1.58,0.81,1.36*01

$GPRMC,193555.000,A,0010.9308,S,07829.0453,W,0.01,195.35,230217,,,D*60

$GPRMC,193556.000,A,0010.9308,S,07829.0453,W,0.02,297.40,230217,,,D*63

$GPVTG,297.40,T,,M,0.02,N,0.04,K,D*36

$GPGSV,3,2,12,22,43,289,39,26,42,009,37,32,36,103,25,03,28,305,40*70

$GPGSV,3,3,12,10,17,154,23,31,14,033,25,11,07,225,24,08,,,26*44

$GPGSA,A,3,10,26,22,16,14,03,27,31,32,11,,,1.58,0.81,1.36*01

$GPRMC,193558.000,A,0010.9308,S,07829.0453,W,0.04,308.49,230217,,,D*65

$GPRMC,193559.000,A,0010.9308,S,07829.0453,W,0.01,52.45,230217,,,D*51

$GPVTG,52.45,T,,M,0.01,N,0.01,K,D*0E

$GPVTG,261.75,T,,M,0.02,N,0.03,K,D*3E

$GPGGA,193601.000,0010.9308,S,07829.0453,W,2,11,0.77,2793.7,M,13.7,M,0000,0000*54

$GPGGA,193602.000,0010.9308,S,07829.0453,W,2,11,0.77,2793.7,M,13.7,M,0000,0000*57

$GPGSA,A,3,10,26,22,16,14,03,27,08,31,32,11,,1.56,0.77,1.36*0E

$GPRMC,193602.000,A,0010.9308,S,07829.0453,W,0.03,210.66,230217,,,D*6B

$GPVTG,210.66,T,,M,0.03,N,0.06,K,D*3E

$GPVTG,247.21,T,,M,0.02,N,0.04,K,D*3C

$GPGGA,193604.000,0010.9308,S,07829.0453,W,2,11,0.77,2793.7,M,13.7,M,0000,0000*51

$GPGGA,193605.000,0010.9308,S,07829.0453,W,2,11,0.77,2793.7,M,13.7,M,0000,0000*50

$GPGSA,A,3,10,26,22,16,14,03,27,08,31,32,11,,1.56,0.77,1.36*0E

$GPGSA,A,3,10,26,22,16,14,03,27,08,31,32,11,,1.56,0.77,1.36*0E

$GPRMC,193606.000,A,0010.9308,S,07829.0453,W,0.06,124.11,230217,,,D*6E

$GPGSV,3,1,12,16,66,330,36,51,56,270,37,27,48,162,27,14,47,069,30*7F

$GPGSV,3,2,12,22,43,289,39,26,42,009,37,32,36,103,21,03,28,305,40*74

$GPGGA,193608.000,0010.9308,S,07829.0453,W,2,11,0.77,2793.7,M,13.7,M,0000,0000*5D

$GPGSA,A,3,10,26,22,16,14,03,27,08,31,32,11,,1.56,0.77,1.36*0E

$GPGSA,A,3,10,26,22,16,14,03,27,08,31,32,11,,1.56,0.77,1.36*0E

$GPRMC,193609.000,A,0010.9308,S,07829.0453,W,0.06,73.60,230217,,,D*54

$GPRMC,193610.000,A,0010.9308,S,07829.0453,W,0.05,88.08,230217,,,D*55

$GPVTG,88.08,T,,M,0.05,N,0.10,K,D*04

$GPVTG,175.65,T,,M,0.05,N,0.10,K,D*3C

$GPGGA,193612.000,0010.9308,S,07829.0453,W,2,11,0.77,2793.6,M,13.7,M,0000,0000*57

$GPGSV,3,3,12,08,23,198,24,10,17,154,27,31,14,033,26,11,07,225,26*72

$GPRMC,193612.000,A,0010.9308,S,07829.0453,W,0.20,138.90,230217,,,D*6B

$GPRMC,193613.000,A,0010.9309,S,07829.0453,W,0.52,119.26,230217,,,D*60

$GPVTG,119.26,T,,M,0.52,N,0.96,K,D*3D

$GPVTG,99.85,T,,M,0.86,N,1.60,K,D*0C

$GPGGA,193615.000,0010.9313,S,07829.0446,W,2,11,0.77,2793.3,M,13.7,M,0000,0000*5B

$GPGGA,193616.000,0010.9313,S,07829.0445,W,2,11,0.77,2793.2,M,13.7,M,0000,0000*5A

$GPGSA,A,3,10,26,22,16,14,03,27,08,31,32,11,,1.56,0.77,1.36*0E

$GPGSA,A,3,10,26,22,16,14,03,27,08,31,32,11,,1.56,0.77,1.36*0E

$GPGSV,4,1,13,16,66,330,39,51,56,270,38,27,48,162,37,14,47,069,38*70

$GPRMC,193617.000,A,0010.9313,S,07829.0442,W,0.63,115.28,230217,,,D*6F

$GPVTG,115.28,T,,M,0.63,N,1.16,K,D*34

$GPVTG,115.46,T,,M,0.53,N,0.97,K,D*37

$GPGGA,193619.000,0010.9313,S,07829.0440,W,2,11,0.77,2793.3,M,13.7,M,0000,0000*51

$GPGGA,193620.000,0010.9312,S,07829.0439,W,2,11,0.77,2793.4,M,13.7,M,0000,0000*53

$GPGSA,A,3,10,26,22,16,14,03,27,08,31,32,11,,1.56,0.77,1.36*0E

$GPGSA,A,3,10,26,22,16,14,03,27,08,31,32,11,,1.56,0.77,1.36*0E

$GPRMC,193621.000,A,0010.9307,S,07829.0439,W,0.30,45.76,230217,,,D*5A

$GPGSV,4,1,13,16,66,331,39,51,56,270,31,27,48,162,38,14,47,069,40*78

$GPGSV,4,2,13,22,43,289,35,26,42,009,36,32,36,103,40,03,28,305,24*7A

$GPVTG,33.51,T,,M,0.32,N,0.60,K,D*0B

$GPGGA,193623.000,0010.9306,S,07829.0438,W,2,11,0.77,2793.1,M,13.7,M,0000,0000*51

$GPGGA,193624.000,0010.9305,S,07829.0437,W,2,11,0.77,2793.1,M,13.7,M,0000,0000*5A

$GPGSA,A,3,10,26,22,16,14,03,27,08,31,32,11,,1.56,0.77,1.36*0E

$GPGSA,A,3,10,26,22,16,14,03,27,08,31,32,11,,1.56,0.77,1.36*0E

$GPRMC,193625.000,A,0010.9305,S,07829.0436,W,0.17,48.32,230217,,,D*5B

$GPRMC,193626.000,A,0010.9304,S,07829.0436,W,0.10,70.79,230217,,,D*5A

$GPVTG,70.79,T,,M,0.10,N,0.19,K,D*08

$GPGSV,4,2,13,22,43,289,31,26,42,009,39,32,36,103,40,03,28,305,27*72

$GPGSV,4,3,13,08,23,198,20,10,17,154,35,31,14,033,41,11,07,225,10*77

$GPGGA,193628.000,0010.9304,S,07829.0436,W,2,11,0.77,2793.1,M,13.7,M,0000,0000*56

$GPGSA,A,3,10,26,22,16,14,03,27,08,31,32,11,,1.56,0.77,1.36*0E

$GPGSA,A,3,10,26,22,16,14,03,27,08,31,32,11,,1.56,0.77,1.36*0E

$GPRMC,193629.000,A,0010.9304,S,07829.0435,W,0.08,75.67,230217,,,D*55

$GPRMC,193630.000,A,0010.9304,S,07829.0435,W,0.07,75.31,230217,,,D*51

$GPVTG,75.31,T,,M,0.07,N,0.13,K,D*0D

$GPVTG,165.12,T,,M,0.12,N,0.23,K,D*3B

$GPGGA,193632.000,0010.9304,S,07829.0435,W,2,11,0.77,2793.1,M,13.7,M,0000,0000*5E

$GPGSV,4,3,13,08,23,198,23,10,17,154,37,31,14,033,42,11,07,225,17*72

$GPGSV,4,4,13,23,01,327,*4D

$GPGSA,A,3,10,26,22,16,14,03,27,08,31,32,11,,1.56,0.77,1.36*0E

$GPRMC,193633.000,A,0010.9304,S,07829.0435,W,0.05,151.05,230217,,,D*60

$GPRMC,193634.000,A,0010.9305,S,07829.0435,W,0.02,127.38,230217,,,D*6E

$GPVTG,127.38,T,,M,0.02,N,0.04,K,D*31

$GPVTG,75.65,T,,M,0.01,N,0.01,K,D*09

$GPGGA,193636.000,0010.9305,S,07829.0435,W,2,11,0.77,2793.1,M,13.7,M,0000,0000*5B

$GPGGA,193637.000,0010.9305,S,07829.0435,W,2,11,0.77,2793.1,M,13.7,M,0000,0000*5A

$GPGSA,A,3,10,26,22,16,14,03,27,08,31,32,11,,1.56,0.77,1.36*0E

$GPGSV,4,4,13,23,01,327,*4D

$GPRMC,193637.000,A,0010.9305,S,07829.0435,W,0.01,322.17,230217,,,D*64

$GPRMC,193638.000,A,0010.9305,S,07829.0435,W,0.09,9.92,230217,,,D*64

$GPVTG,9.92,T,,M,0.09,N,0.17,K,D*35

$GPVTG,9.83,T,,M,0.04,N,0.07,K,D*39

$GPGGA,193640.000,0010.9304,S,07829.0435,W,2,11,0.77,2793.1,M,13.7,M,0000,0000*5B

$GPGGA,193641.000,0010.9304,S,07829.0435,W,2,11,0.77,2793.1,M,13.7,M,0000,0000*5A

$GPGSA,A,3,10,26,22,16,14,03,27,08,31,32,11,,1.56,0.77,1.36*0E

$GPGSA,A,3,10,26,22,16,14,03,27,08,31,32,11,,1.56,0.77,1.36*0E

$GPGSV,4,1,13,16,66,331,37,51,56,270,32,27,48,162,36,14,47,069,39*75

$GPRMC,193642.000,A,0010.9304,S,07829.0435,W,0.01,146.40,230217,,,D*65

$GPVTG,146.40,T,,M,0.01,N,0.02,K,D*3C

$GPVTG,355.00,T,,M,0.00,N,0.01,K,D*3A

$GPGGA,193644.000,0010.9304,S,07829.0435,W,2,11,0.77,2793.1,M,13.7,M,0000,0000*5F

$GPGGA,193645.000,0010.9304,S,07829.0435,W,2,11,0.77,2793.1,M,13.7,M,0000,0000*5E

$GPGSA,A,3,10,26,22,16,14,03,27,08,31,32,11,,1.56,0.77,1.36*0E

$GPGSA,A,3,10,26,22,16,14,03,27,08,31,32,11,,1.56,0.77,1.36*0E

$GPRMC,193646.000,A,0010.9304,S,07829.0435,W,0.01,286.82,230217,,,D*60

$GPGSV,4,1,13,16,66,331,37,51,56,270,33,27,48,162,36,14,47,069,39*74

$GPGSV,4,2,13,22,43,289,33,26,42,009,41,32,36,104,40,03,28,305,31*7F

$GPVTG,338.83,T,,M,0.03,N,0.06,K,D*3E

$GPGGA,193648.000,0010.9304,S,07829.0435,W,2,11,0.77,2793.1,M,13.7,M,0000,0000*53

$GPGGA,193649.000,0010.9304,S,07829.0435,W,2,11,0.77,2793.1,M,13.7,M,0000,0000*52

$GPGSA,A,3,10,26,22,16,14,03,27,08,31,32,11,,1.56,0.77,1.36*0E

$GPGSA,A,3,10,26,22,16,14,03,27,08,31,32,11,,1.56,0.77,1.36*0E

$GPRMC,193650.000,A,0010.9304,S,07829.0435,W,0.02,196.34,230217,,,D*6B

$GPRMC,193651.000,A,0010.9304,S,07829.0435,W,0.02,2.78,230217,,,D*6E

$GPVTG,2.78,T,,M,0.02,N,0.04,K,D*33

$GPGSV,4,2,13,22,43,289,35,26,42,009,42,32,36,104,39,03,28,305,34*71

$GPGSV,4,3,13,08,23,198,24,10,16,154,35,31,14,033,41,11,07,225,13*71

$GPGGA,193653.000,0010.9304,S,07829.0435,W,2,11,0.77,2793.0,M,13.7,M,0000,0000*58

$GPGSA,A,3,10,26,22,16,14,03,27,08,31,32,11,,1.56,0.77,1.36*0E

$GPGSA,A,3,10,26,22,16,14,03,27,08,31,32,11,,1.56,0.77,1.36*0E

$GPRMC,193654.000,A,0010.9304,S,07829.0435,W,0.02,226.74,230217,,,D*63

$GPRMC,193655.000,A,0010.9304,S,07829.0435,W,0.03,208.75,230217,,,D*6E

$GPVTG,208.75,T,,M,0.03,N,0.06,K,D*35

$GPVTG,222.86,T,,M,0.01,N,0.02,K,D*37

$GPGGA,193657.000,0010.9304,S,07829.0435,W,2,10,0.83,2793.0,M,13.7,M,0000,0000*56

$GPGSV,4,3,13,08,23,198,24,10,16,154,35,31,14,033,41,11,07,225,*73

$GPGSV,4,4,13,23,01,327,*4D

$GPGSA,A,3,10,26,22,16,14,03,27,08,31,32,,,1.76,0.83,1.56*01

$GPRMC,193658.000,A,0010.9304,S,07829.0435,W,0.01,324.60,230217,,,D*6A

$GPRMC,193659.000,A,0010.9304,S,07829.0435,W,0.01,60.21,230217,,,D*5D

$GPVTG,60.21,T,,M,0.01,N,0.03,K,D*0F

$GPVTG,34.43,T,,M,0.05,N,0.09,K,D*04

$GPGGA,193701.000,0010.9304,S,07829.0435,W,2,11,0.77,2793.0,M,13.7,M,0000,0000*5E

$GPGGA,193702.000,0010.9304,S,07829.0435,W,2,11,0.77,2793.1,M,13.7,M,0000,0000*5C

$GPGSA,A,3,10,26,22,16,14,03,27,08,31,32,11,,1.56,0.77,1.36*0E

$GPGSV,4,4,13,23,01,327,*4D

$GPRMC,193702.000,A,0010.9304,S,07829.0435,W,0.27,183.04,230217,,,D*6D

$GPRMC,193703.000,A,0010.9304,S,07829.0435,W,0.11,38.25,230217,,,D*5B

$GPVTG,38.25,T,,M,0.11,N,0.20,K,D*06

$GPVTG,12.97,T,,M,0.42,N,0.78,K,D*0C

$GPGGA,193705.000,0010.9303,S,07829.0434,W,2,11,0.77,2793.1,M,13.7,M,0000,0000*5D

$GPGGA,193706.000,0010.9302,S,07829.0434,W,2,10,0.85,2793.1,M,13.7,M,0000,0000*53

$GPGSA,A,3,10,26,22,16,14,27,08,31,32,11,,,1.62,0.85,1.38*09

$GPGSA,A,3,10,26,22,16,14,03,27,08,31,32,11,,1.10,0.76,0.81*00

$GPGSV,4,1,13,16,65,331,34,51,56,270,31,27,49,162,36,14,47,070,39*7F

$GPRMC,193707.000,A,0010.9300,S,07829.0435,W,1.16,336.25,230217,,,D*60

$GPVTG,336.25,T,,M,1.16,N,2.15,K,D*39

$GPVTG,286.48,T,,M,0.90,N,1.67,K,D*31

$GPGGA,193709.000,0010.9297,S,07829.0441,W,2,11,0.76,2793.3,M,13.7,M,0000,0000*5C

$GPGGA,193710.000,0010.9295,S,07829.0444,W,2,11,0.76,2793.3,M,13.7,M,0000,0000*53

$GPGSA,A,3,10,26,22,16,14,03,27,08,31,32,11,,1.11,0.76,0.81*01

$GPGSA,A,3,10,26,22,16,14,03,27,08,31,32,11,,1.11,0.76,0.81*01

$GPRMC,193711.000,A,0010.9293,S,07829.0447,W,1.36,280.83,230217,,,D*6B

$GPGSV,4,1,13,16,65,331,36,51,56,270,29,27,49,162,38,14,47,070,41*75

$GPGSV,4,2,13,22,43,288,27,26,42,009,36,32,36,104,42,03,28,305,29*70

$GPVTG,251.48,T,,M,1.11,N,2.06,K,D*37

$GPGGA,193713.000,0010.9292,S,07829.0454,W,2,11,0.76,2793.1,M,13.7,M,0000,0000*54

$GPGGA,193714.000,0010.9293,S,07829.0457,W,2,11,0.76,2793.1,M,13.7,M,0000,0000*51

$GPGSA,A,3,10,26,22,16,14,03,27,08,31,32,11,,1.11,0.76,0.81*01

$GPGSA,A,3,10,26,22,16,14,03,27,08,31,32,11,,1.10,0.76,0.81*00

$GPRMC,193715.000,A,0010.9295,S,07829.0458,W,0.86,182.43,230217,,,D*60

$GPRMC,193716.000,A,0010.9297,S,07829.0459,W,0.93,203.41,230217,,,D*6C

$GPVTG,203.41,T,,M,0.93,N,1.72,K,D*32

$GPGSV,4,2,13,22,43,288,40,26,42,009,37,32,36,104,35,03,28,304,41*7F

$GPGSV,4,3,13,08,23,198,19,10,16,154,19,31,14,033,36,11,07,225,22*73

$GPGGA,193718.000,0010.9300,S,07829.0460,W,2,11,0.76,2792.9,M,13.7,M,0000,0000*5B

$GPGSA,A,3,10,26,22,16,14,03,27,08,31,32,11,,1.11,0.76,0.81*01

$GPGSA,A,3,26,22,16,14,03,27,08,31,32,11,,,1.15,0.81,0.82*0F

$GPRMC,193719.000,A,0010.9301,S,07829.0461,W,0.64,160.81,230217,,,D*64

$GPRMC,193720.000,A,0010.9302,S,07829.0460,W,0.54,148.45,230217,,,D*6D

$GPVTG,148.45,T,,M,0.54,N,1.00,K,D*34

$GPVTG,174.71,T,,M,0.40,N,0.74,K,D*3B

$GPGGA,193722.000,0010.9303,S,07829.0460,W,2,11,0.77,2793.2,M,13.7,M,0000,0000*5A

$GPGSV,4,3,13,08,23,198,22,10,16,154,16,31,14,033,36,11,07,225,23*75

$GPGSV,4,4,13,23,01,327,*4D

$GPGSA,A,3,10,26,22,16,14,03,08,31,32,11,,,1.71,0.82,1.50*04

$GPRMC,193723.000,A,0010.9302,S,07829.0460,W,0.19,133.80,230217,,,D*62

$GPRMC,193724.000,A,0010.9303,S,07829.0459,W,0.17,129.81,230217,,,D*6A

$GPVTG,129.81,T,,M,0.17,N,0.31,K,D*3F

$GPVTG,208.57,T,,M,0.19,N,0.35,K,D*3E

$GPGGA,193726.000,0010.9304,S,07829.0459,W,2,11,0.77,2793.4,M,13.7,M,0000,0000*55

$GPGGA,193727.000,0010.9304,S,07829.0459,W,2,11,0.77,2793.4,M,13.7,M,0000,0000*54

$GPGSA,A,3,10,26,22,16,14,03,27,08,31,32,11,,1.56,0.77,1.36*0E

$GPGSV,4,4,13,23,01,327,*4D

$GPRMC,193727.000,A,0010.9304,S,07829.0459,W,0.05,178.20,230217,,,D*62

$GPRMC,193728.000,A,0010.9304,S,07829.0459,W,0.09,188.37,230217,,,D*68

$GPVTG,188.37,T,,M,0.09,N,0.16,K,D*33

$GPVTG,193.94,T,,M,0.10,N,0.18,K,D*36

$GPGGA,193730.000,0010.9304,S,07829.0459,W,2,11,0.77,2793.4,M,13.7,M,0000,0000*52

$GPGGA,193731.000,0010.9305,S,07829.0459,W,2,11,0.77,2793.4,M,13.7,M,0000,0000*52

$GPGSA,A,3,10,26,22,16,14,03,27,08,31,32,11,,1.56,0.77,1.36*0E

$GPGSA,A,3,26,22,16,14,03,27,08,31,32,11,,,1.63,0.82,1.41*03

$GPGSV,4,1,13,16,65,331,38,51,56,270,36,27,49,162,29,14,47,070,32*71

$GPRMC,193732.000,A,0010.9305,S,07829.0459,W,0.12,215.24,230217,,,D*6D

$GPVTG,215.24,T,,M,0.12,N,0.22,K,D*3B

$GPVTG,192.62,T,,M,0.12,N,0.22,K,D*35

$GPGGA,193734.000,0010.9305,S,07829.0460,W,2,10,0.82,2793.3,M,13.7,M,0000,0000*51

$GPGGA,193735.000,0010.9306,S,07829.0460,W,2,11,0.77,2793.3,M,13.7,M,0000,0000*58

$GPGSA,A,3,10,26,22,16,14,03,27,08,31,32,11,,1.56,0.77,1.36*0E

$GPGSA,A,3,10,26,22,16,14,03,27,08,31,32,11,,1.56,0.77,1.36*0E

$GPRMC,193736.000,A,0010.9305,S,07829.0460,W,0.08,33.63,230217,,,D*5D

$GPGSV,4,1,13,16,65,331,38,51,56,270,36,27,49,162,30,14,47,070,34*7F

$GPGSV,4,2,13,22,43,288,40,26,42,009,38,32,36,104,32,03,28,304,41*77

$GPVTG,4.71,T,,M,0.06,N,0.11,K,D*3C

$GPGGA,193738.000,0010.9305,S,07829.0460,W,2,11,0.77,2793.3,M,13.7,M,0000,0000*56

$GPGGA,193739.000,0010.9305,S,07829.0460,W,2,11,0.77,2793.3,M,13.7,M,0000,0000*57

$GPGSA,A,3,10,26,22,16,14,03,27,08,31,32,11,,1.56,0.77,1.36*0E

$GPGSA,A,3,10,26,22,16,14,03,27,08,31,32,11,,1.56,0.77,1.36*0E

$GPRMC,193740.000,A,0010.9305,S,07829.0460,W,0.00,271.94,230217,,,D*68

$GPRMC,193741.000,A,0010.9305,S,07829.0460,W,0.01,244.04,230217,,,D*67

$GPVTG,244.04,T,,M,0.01,N,0.02,K,D*3D

$GPGSV,4,2,13,22,43,288,40,26,42,009,38,32,36,104,32,03,28,304,41*77

$GPGSV,4,3,13,08,23,198,22,10,16,154,17,31,14,033,36,11,07,225,22*75

$GPGGA,193743.000,0010.9305,S,07829.0460,W,2,11,0.77,2793.3,M,13.7,M,0000,0000*5A

$GPGSA,A,3,10,26,22,16,14,03,27,08,31,32,11,,1.56,0.77,1.36*0E

$GPGSA,A,3,10,26,22,16,14,03,27,08,31,32,11,,1.56,0.77,1.36*0E

$GPRMC,193744.000,A,0010.9305,S,07829.0460,W,0.02,227.56,230217,,,D*63

$GPRMC,193745.000,A,0010.9305,S,07829.0460,W,0.02,83.12,230217,,,D*5E

$GPVTG,83.12,T,,M,0.02,N,0.04,K,D*06

$GPVTG,59.86,T,,M,0.07,N,0.13,K,D*0F

$GPGGA,193747.000,0010.9305,S,07829.0460,W,2,11,0.77,2793.3,M,13.7,M,0000,0000*5E

$GPGSV,4,3,14,08,23,198,22,10,16,154,18,31,14,033,34,01,08,244,29*7D

$GPGSV,4,4,14,11,07,225,23,23,01,327,*79

$GPGSA,A,3,26,22,16,14,03,27,08,31,32,11,,,1.63,0.82,1.41*03

$GPRMC,193748.000,A,0010.9305,S,07829.0460,W,0.03,10.34,230217,,,D*5C

$GPRMC,193749.000,A,0010.9305,S,07829.0460,W,0.03,27.70,230217,,,D*59

$GPVTG,27.70,T,,M,0.03,N,0.06,K,D*0F

$GPVTG,134.34,T,,M,0.00,N,0.00,K,D*39

$GPGGA,193751.000,0010.9305,S,07829.0460,W,2,11,0.77,2793.3,M,13.7,M,0000,0000*59

$GPGGA,193752.000,0010.9305,S,07829.0460,W,2,11,0.77,2793.3,M,13.7,M,0000,0000*5A

$GPGSA,A,3,26,22,16,14,03,27,08,31,32,11,10,,1.56,0.77,1.36*0E

$GPGSV,4,4,14,11,07,225,27,23,01,327,*7D

$GPRMC,193752.000,A,0010.9305,S,07829.0460,W,0.05,301.92,230217,,,D*6E

$GPRMC,193753.000,A,0010.9305,S,07829.0460,W,0.11,61.55,230217,,,D*54

$GPVTG,61.55,T,,M,0.11,N,0.21,K,D*0C

$GPVTG,303.13,T,,M,0.25,N,0.46,K,D*3F

$GPGGA,193755.000,0010.9305,S,07829.0460,W,2,11,0.77,2793.4,M,13.7,M,0000,0000*5A

$GPGGA,193756.000,0010.9305,S,07829.0460,W,2,11,0.77,2793.4,M,13.7,M,0000,0000*59

$GPGSA,A,3,26,22,16,14,03,27,08,31,32,11,10,,1.56,0.77,1.36*0E

$GPGSA,A,3,26,22,16,14,03,27,08,31,32,11,10,,1.56,0.77,1.36*0E

$GPGSV,4,1,14,16,65,331,39,51,56,270,37,27,49,161,25,14,47,070,27*7D

$GPRMC,193757.000,A,0010.9305,S,07829.0460,W,0.08,292.04,230217,,,D*62

$GPVTG,292.04,T,,M,0.08,N,0.14,K,D*38

$GPVTG,92.26,T,,M,0.01,N,0.03,K,D*05

$GPGGA,193759.000,0010.9305,S,07829.0460,W,2,10,0.81,2793.4,M,13.7,M,0000,0000*5E

$GPGGA,193800.000,0010.9305,S,07829.0460,W,2,10,0.81,2793.4,M,13.7,M,0000,0000*5D

$GPGSA,A,3,26,22,16,14,03,27,31,32,11,10,,,1.58,0.81,1.36*01

$GPGSA,A,3,26,22,16,14,03,27,31,32,11,10,,,1.58,0.81,1.36*01

$GPRMC,193801.000,A,0010.9305,S,07829.0460,W,0.06,82.29,230217,,,D*5C

$GPGSV,4,1,14,16,65,331,38,51,56,270,36,27,49,161,30,14,47,070,35*7A

$GPGSV,4,2,14,22,43,288,41,26,42,009,36,32,36,104,36,03,28,304,40*7A

$GPVTG,0.70,T,,M,0.01,N,0.02,K,D*3C

$GPGGA,193803.000,0010.9305,S,07829.0460,W,2,11,0.77,2793.4,M,13.7,M,0000,0000*56

$GPGGA,193804.000,0010.9305,S,07829.0460,W,2,11,0.77,2793.4,M,13.7,M,0000,0000*51

$GPGSA,A,3,26,22,16,14,03,27,08,31,32,11,10,,1.56,0.77,1.36*0E

$GPGSA,A,3,26,22,16,14,03,27,31,32,11,10,,,1.58,0.81,1.36*01

$GPRMC,193805.000,A,0010.9305,S,07829.0460,W,0.03,123.00,230217,,,D*6C

$GPRMC,193806.000,A,0010.9305,S,07829.0460,W,0.05,303.75,230217,,,D*6B

$GPVTG,303.75,T,,M,0.05,N,0.09,K,D*36

$GPGSV,4,2,14,22,43,288,40,26,42,009,38,32,36,104,29,03,28,304,40*7B

$GPGSV,4,3,14,08,23,198,19,10,16,154,21,31,14,033,29,01,08,244,21*7B

$GPGGA,193808.000,0010.9305,S,07829.0460,W,2,11,0.77,2793.4,M,13.7,M,0000,0000*5D

$GPGSA,A,3,26,22,16,14,03,27,08,31,32,11,10,,1.56,0.77,1.36*0E

$GPGSA,A,3,26,22,16,14,03,27,08,31,32,11,10,,1.56,0.77,1.36*0E

$GPRMC,193809.000,A,0010.9305,S,07829.0460,W,0.02,1.94,230217,,,D*6D

$GPRMC,193810.000,A,0010.9305,S,07829.0460,W,0.02,1.11,230217,,,D*68

$GPVTG,1.11,T,,M,0.02,N,0.04,K,D*3F

$GPVTG,179.88,T,,M,0.02,N,0.04,K,D*31

$GPGGA,193812.000,0010.9305,S,07829.0460,W,2,11,0.77,2793.4,M,13.7,M,0000,0000*56

$GPGSV,4,3,14,08,23,198,33,10,16,154,22,31,14,033,29,01,08,244,27*76

$GPGSV,4,4,14,11,07,224,23,23,01,327,*78

$GPGSA,A,3,26,22,16,14,03,27,08,31,32,11,10,,1.56,0.77,1.36*0E

$GPRMC,193813.000,A,0010.9305,S,07829.0460,W,0.02,326.91,230217,,,D*65

$GPRMC,193814.000,A,0010.9305,S,07829.0460,W,0.01,154.29,230217,,,D*65

$GPVTG,154.29,T,,M,0.01,N,0.02,K,D*30

$GPVTG,32.58,T,,M,0.01,N,0.01,K,D*04

$GPGGA,193816.000,0010.9305,S,07829.0460,W,2,11,0.77,2793.4,M,13.7,M,0000,0000*52

$GPGGA,193817.000,0010.9305,S,07829.0460,W,2,11,0.77,2793.4,M,13.7,M,0000,0000*53

$GPGSA,A,3,26,22,16,14,03,27,08,31,32,11,10,,1.56,0.77,1.36*0E

$GPGSV,4,4,14,11,07,224,24,23,02,327,*7C

$GPRMC,193817.000,A,0010.9305,S,07829.0460,W,0.01,271.98,230217,,,D*68

$GPRMC,193818.000,A,0010.9305,S,07829.0460,W,0.02,246.11,230217,,,D*61

$GPVTG,246.11,T,,M,0.02,N,0.04,K,D*3E

$GPVTG,201.36,T,,M,0.04,N,0.07,K,D*3D

$GPGGA,193820.000,0010.9305,S,07829.0460,W,2,11,0.77,2793.4,M,13.7,M,0000,0000*57

$GPGGA,193821.000,0010.9305,S,07829.0460,W,2,11,0.77,2793.4,M,13.7,M,0000,0000*56

$GPGSA,A,3,26,22,16,14,03,27,08,31,32,11,10,,1.56,0.77,1.36*0E

$GPGSA,A,3,26,22,16,14,03,27,08,31,32,11,10,,1.56,0.77,1.36*0E

$GPGSV,4,1,14,16,65,332,18,51,56,270,,27,49,161,23,14,47,071,20*79

$GPRMC,193822.000,A,0010.9305,S,07829.0460,W,0.00,92.34,230217,,,D*56

$GPVTG,92.34,T,,M,0.00,N,0.01,K,D*05

$GPVTG,192.38,T,,M,0.01,N,0.02,K,D*3A

$GPGGA,193824.000,0010.9305,S,07829.0460,W,2,11,0.77,2793.4,M,13.7,M,0000,0000*53

$GPGGA,193825.000,0010.9305,S,07829.0460,W,2,11,0.77,2793.4,M,13.7,M,0000,0000*52

$GPGSA,A,3,26,22,16,14,03,27,08,31,32,11,10,,1.56,0.77,1.36*0E

$GPGSA,A,3,26,22,16,14,03,27,08,31,32,11,10,,1.56,0.77,1.36*0E

$GPRMC,193826.000,A,0010.9305,S,07829.0460,W,0.01,331.28,230217,,,D*64

$GPGSV,4,1,14,16,65,332,35,51,56,270,27,27,49,161,31,14,47,071,25*75

$GPGSV,4,2,14,22,44,287,27,26,41,009,29,32,36,105,23,03,28,304,26*7A

$GPVTG,43.20,T,,M,0.00,N,0.01,K,D*0C

$GPGGA,193828.000,0010.9305,S,07829.0460,W,2,11,0.77,2793.4,M,13.7,M,0000,0000*5F

$GPGGA,193829.000,0010.9305,S,07829.0460,W,2,11,0.77,2793.4,M,13.7,M,0000,0000*5E

$GPGSA,A,3,26,22,16,14,03,27,08,31,32,11,10,,1.56,0.77,1.36*0E

$GPGSA,A,3,26,22,16,14,03,27,08,31,32,11,10,,1.56,0.77,1.36*0E

$GPRMC,193830.000,A,0010.9305,S,07829.0460,W,0.02,314.91,230217,,,D*65

$GPRMC,193831.000,A,0010.9305,S,07829.0460,W,0.07,356.20,230217,,,D*6D

$GPVTG,356.20,T,,M,0.07,N,0.13,K,D*3F

$GPGSV,4,2,14,22,44,287,37,26,41,009,37,32,36,105,24,03,28,304,39*7D

$GPGSV,4,3,14,08,23,198,23,10,16,154,18,31,13,034,21,01,08,244,37*77

$GPGGA,193833.000,0010.9305,S,07829.0460,W,2,11,0.77,2793.4,M,13.7,M,0000,0000*55

$GPGSA,A,3,26,22,16,14,03,27,08,31,32,11,10,,1.56,0.77,1.36*0E

$GPGSA,A,3,26,22,16,14,03,27,08,31,32,11,10,,1.56,0.77,1.36*0E

$GPRMC,193834.000,A,0010.9305,S,07829.0460,W,0.05,315.49,230217,,,D*62

$GPRMC,193835.000,A,0010.9305,S,07829.0460,W,0.00,343.73,230217,,,D*6C

$GPVTG,343.73,T,,M,0.00,N,0.01,K,D*39

$GPVTG,311.16,T,,M,0.04,N,0.07,K,D*3F

$GPGGA,193837.000,0010.9305,S,07829.0460,W,2,11,0.77,2793.4,M,13.7,M,0000,0000*51

$GPGSV,4,4,14,11,07,224,19,23,02,327,*72

$GPRMC,193837.000,A,0010.9305,S,07829.0460,W,0.05,81.57,230217,,,D*50

$GPRMC,193838.000,A,0010.9305,S,07829.0460,W,0.05,229.83,230217,,,D*66

$GPVTG,229.83,T,,M,0.05,N,0.10,K,D*3E

$GPVTG,94.49,T,,M,0.09,N,0.16,K,D*06

$GPGGA,193840.000,0010.9305,S,07829.0460,W,2,11,0.77,2793.4,M,13.7,M,0000,0000*51

$GPGGA,193841.000,0010.9305,S,07829.0460,W,2,11,0.77,2793.4,M,13.7,M,0000,0000*50

$GPGSA,A,3,26,22,16,14,03,27,08,31,32,11,10,,1.56,0.77,1.36*0E

$GPGSA,A,3,26,22,16,14,03,27,08,31,32,11,10,,1.56,0.77,1.36*0E

$GPGSV,4,1,14,16,65,332,39,51,56,270,38,27,49,161,25,14,47,071,34*72

$GPRMC,193842.000,A,0010.9305,S,07829.0460,W,0.04,169.02,230217,,,D*64

$GPVTG,169.02,T,,M,0.04,N,0.07,K,D*37

$GPVTG,219.02,T,,M,0.06,N,0.12,K,D*35

$GPGGA,193844.000,0010.9305,S,07829.0460,W,2,11,0.77,2793.4,M,13.7,M,0000,0000*55

$GPGGA,193845.000,0010.9305,S,07829.0460,W,2,11,0.77,2793.4,M,13.7,M,0000,0000*54

$GPGSA,A,3,26,22,16,14,03,27,08,31,32,11,10,,1.56,0.77,1.36*0E

$GPGSA,A,3,26,22,16,14,03,27,08,31,32,11,10,,1.56,0.77,1.36*0E

$GPRMC,193846.000,A,0010.9305,S,07829.0460,W,0.02,107.82,230217,,,D*66

$GPGSV,4,1,14,16,65,332,38,51,56,270,40,27,49,161,25,14,47,071,33*7B

$GPGSV,4,2,14,22,44,287,42,26,41,009,38,32,36,105,27,03,28,304,41*7C

$GPVTG,78.66,T,,M,0.01,N,0.02,K,D*04

$GPGGA,193848.000,0010.9305,S,07829.0460,W,2,11,0.77,2793.4,M,13.7,M,0000,0000*59

$GPGGA,193849.000,0010.9305,S,07829.0460,W,2,11,0.77,2793.4,M,13.7,M,0000,0000*58

$GPGSA,A,3,26,22,16,14,03,27,08,31,32,11,10,,1.56,0.77,1.36*0E

$GPGSA,A,3,26,22,16,14,03,27,08,31,32,11,10,,1.56,0.77,1.36*0E

$GPRMC,193850.000,A,0010.9305,S,07829.0460,W,0.02,179.91,230217,,,D*6A

$GPRMC,193851.000,A,0010.9305,S,07829.0460,W,0.02,78.39,230217,,,D*59

$GPVTG,78.39,T,,M,0.02,N,0.03,K,D*0C

$GPGSV,4,2,14,22,44,287,42,26,41,009,35,32,36,105,24,03,28,304,40*73

$GPGSV,4,3,14,08,24,197,25,10,16,154,23,31,13,034,21,01,08,244,36*70

$GPGGA,193853.000,0010.9305,S,07829.0460,W,2,11,0.77,2793.4,M,13.7,M,0000,0000*53

$GPGSA,A,3,26,22,16,14,03,27,08,31,32,11,10,,1.56,0.77,1.36*0E

$GPGSA,A,3,26,22,16,14,03,27,08,31,32,11,10,,1.56,0.77,1.36*0E

$GPRMC,193854.000,A,0010.9305,S,07829.0460,W,0.02,253.99,230217,,,D*6D

$GPRMC,193855.000,A,0010.9305,S,07829.0460,W,0.07,27.91,230217,,,D*50

$GPVTG,27.91,T,,M,0.07,N,0.12,K,D*01

$GPVTG,274.22,T,,M,0.03,N,0.06,K,D*3C

$GPGGA,193857.000,0010.9305,S,07829.0460,W,2,12,0.74,2793.4,M,13.7,M,0000,0000*57

$GPGSV,4,3,14,08,24,197,23,10,16,154,23,31,13,034,19,01,08,244,35*7E

$GPGSV,4,4,14,11,07,224,34,23,02,327,*7D

$GPGSA,A,3,01,26,22,16,14,03,27,08,31,32,11,10,1.47,0.74,1.28*03

$GPRMC,193858.000,A,0010.9305,S,07829.0460,W,0.07,228.59,230217,,,D*64

$GPRMC,193859.000,A,0010.9305,S,07829.0460,W,0.07,8.85,230217,,,D*64

$GPVTG,8.85,T,,M,0.07,N,0.13,K,D*38

$GPVTG,194.05,T,,M,0.05,N,0.10,K,D*35

$GPGGA,193901.000,0010.9305,S,07829.0460,W,2,11,0.77,2793.4,M,13.7,M,0000,0000*55

$GPGGA,193902.000,0010.9305,S,07829.0460,W,2,12,0.74,2793.4,M,13.7,M,0000,0000*56

$GPGSA,A,3,01,26,22,16,14,03,27,08,31,32,11,10,1.47,0.74,1.28*03

$GPGSV,4,4,14,11,07,224,34,23,02,327,*7D

$GPRMC,193902.000,A,0010.9305,S,07829.0460,W,0.03,242.86,230217,,,D*60

$GPRMC,193903.000,A,0010.9305,S,07829.0460,W,0.02,7.74,230217,,,D*6E

$GPVTG,7.74,T,,M,0.02,N,0.03,K,D*3D

$GPVTG,155.28,T,,M,0.03,N,0.05,K,D*35

$GPGGA,193905.000,0010.9305,S,07829.0460,W,2,11,0.77,2793.4,M,13.7,M,0000,0000*51

$GPGGA,193906.000,0010.9305,S,07829.0460,W,2,11,0.77,2793.4,M,13.7,M,0000,0000*52

$GPGSA,A,3,01,26,22,16,14,03,27,31,32,11,10,,1.49,0.77,1.28*06

$GPGSA,A,3,01,26,22,16,14,03,27,08,31,32,11,10,1.47,0.74,1.28*03

$GPGSV,4,1,14,16,65,332,37,51,56,270,41,27,49,161,31,14,47,071,27*75

$GPRMC,193907.000,A,0010.9305,S,07829.0460,W,0.03,269.57,230217,,,D*60

$GPVTG,269.57,T,,M,0.03,N,0.05,K,D*31

$GPVTG,29.27,T,,M,0.03,N,0.05,K,D*00

$GPGGA,193909.000,0010.9305,S,07829.0460,W,2,12,0.74,2793.4,M,13.7,M,0000,0000*5D

$GPGGA,193910.000,0010.9305,S,07829.0460,W,2,12,0.74,2793.4,M,13.7,M,0000,0000*55

$GPGSA,A,3,01,26,22,16,14,03,27,08,31,32,11,10,1.47,0.74,1.28*03

$GPGSA,A,3,01,26,22,16,14,03,27,08,31,32,11,10,1.47,0.74,1.28*03

$GPRMC,193911.000,A,0010.9305,S,07829.0460,W,0.02,52.55,230217,,,D*5E

$GPGSV,4,1,14,16,65,332,38,51,56,270,41,27,49,161,29,14,47,071,31*74

$GPGSV,4,2,14,22,44,287,42,26,41,009,38,32,36,105,25,03,29,304,40*7E

$GPVTG,64.32,T,,M,0.02,N,0.04,K,D*0D

$GPGGA,193913.000,0010.9305,S,07829.0460,W,2,12,0.74,2793.4,M,13.7,M,0000,0000*56

$GPGGA,193914.000,0010.9305,S,07829.0460,W,2,12,0.74,2793.4,M,13.7,M,0000,0000*51

$GPGSA,A,3,01,26,22,16,14,03,27,08,31,32,11,10,1.47,0.74,1.28*03

$GPGSA,A,3,01,26,22,16,14,03,27,08,31,32,11,10,1.47,0.74,1.28*03

$GPRMC,193915.000,A,0010.9305,S,07829.0460,W,0.03,165.82,230217,,,D*64

$GPRMC,193916.000,A,0010.9305,S,07829.0460,W,0.12,229.16,230217,,,D*61

$GPVTG,229.16,T,,M,0.12,N,0.23,K,D*34

$GPGSV,4,2,14,22,44,287,41,26,41,009,38,32,36,105,19,03,29,304,41*73

$GPGSV,4,3,14,08,24,197,22,10,15,154,17,31,13,034,30,01,08,243,28*7B

$GPGGA,193918.000,0010.9305,S,07829.0460,W,2,12,0.74,2793.4,M,13.7,M,0000,0000*5D

$GPGSA,A,3,01,26,22,16,14,03,27,08,31,32,11,10,1.47,0.74,1.28*03

$GPGSA,A,3,01,26,22,16,14,03,27,08,31,32,11,10,1.47,0.74,1.27*0C

$GPRMC,193919.000,A,0010.9305,S,07829.0460,W,0.11,265.08,230217,,,D*6A

$GPRMC,193920.000,A,0010.9305,S,07829.0460,W,0.10,231.74,230217,,,D*6B

$GPVTG,231.74,T,,M,0.10,N,0.18,K,D*33

$GPVTG,208.92,T,,M,0.80,N,1.49,K,D*3D

$GPGGA,193922.000,0010.9310,S,07829.0460,W,2,12,0.72,2793.4,M,13.7,M,0000,0000*56

$GPGSV,4,3,14,08,24,197,20,10,15,154,23,31,13,034,39,01,08,243,19*75

$GPGSV,4,4,14,11,07,224,20,23,02,327,*78

$GPGSA,A,3,01,26,22,16,14,03,27,08,31,32,11,10,1.07,0.72,0.79*04

$GPRMC,193923.000,A,0010.9316,S,07829.0461,W,1.90,184.04,230217,,,D*68

$GPRMC,193924.000,A,0010.9323,S,07829.0461,W,2.39,180.77,230217,,,D*69

$GPVTG,180.77,T,,M,2.39,N,4.43,K,D*3A

$GPVTG,190.11,T,,M,3.97,N,7.36,K,D*3F

$GPGGA,193926.000,0010.9345,S,07829.0466,W,2,11,0.76,2793.3,M,13.7,M,0000,0000*54

$GPGGA,193927.000,0010.9357,S,07829.0470,W,2,12,0.74,2793.3,M,13.7,M,0000,0000*50

$GPGSA,A,3,01,26,22,16,14,03,27,08,31,32,11,10,1.47,0.74,1.27*0C

$GPGSV,4,4,14,11,07,224,18,23,02,327,*73

$GPRMC,193927.000,A,0010.9357,S,07829.0470,W,4.22,210.67,230217,,,D*6E

$GPRMC,193928.000,A,0010.9368,S,07829.0474,W,3.87,192.24,230217,,,D*6F

$GPVTG,192.24,T,,M,3.87,N,7.16,K,D*38

$GPVTG,194.51,T,,M,3.65,N,6.76,K,D*37

$GPGGA,193930.000,0010.9392,S,07829.0481,W,2,12,0.72,2793.2,M,13.7,M,0000,0000*56

$GPGGA,193931.000,0010.9400,S,07829.0483,W,2,12,0.72,2793.2,M,13.7,M,0000,0000*59

$GPGSA,A,3,01,26,22,16,14,03,27,08,31,32,11,10,1.07,0.72,0.79*04

$GPGSA,A,3,01,26,22,16,14,03,27,08,31,32,11,10,1.07,0.72,0.79*04

$GPGSV,4,1,14,16,64,333,32,51,56,270,32,27,49,161,39,14,47,071,31*7B

$GPRMC,193932.000,A,0010.9407,S,07829.0483,W,2.12,175.93,230217,,,D*6A

$GPVTG,175.93,T,,M,2.12,N,3.92,K,D*38

$GPVTG,200.86,T,,M,3.80,N,7.04,K,D*3C

$GPGGA,193934.000,0010.9426,S,07829.0493,W,2,11,0.75,2793.3,M,13.7,M,0000,0000*5C

$GPGGA,193935.000,0010.9436,S,07829.0504,W,2,11,0.76,2793.2,M,13.7,M,0000,0000*51

$GPGSA,A,3,01,26,22,16,14,03,27,08,31,32,10,,1.54,0.76,1.34*0E

$GPGSA,A,3,01,26,22,16,14,27,08,31,32,10,,,1.58,0.82,1.35*0B

$GPRMC,193936.000,A,0010.9442,S,07829.0516,W,4.16,247.97,230217,,,D*66

$GPGSV,4,1,14,16,64,333,33,51,56,270,30,27,49,161,39,14,47,071,32*7B

$GPGSV,4,2,14,22,44,287,29,26,41,009,22,32,36,105,40,03,29,304,26*7B

$GPVTG,246.24,T,,M,2.03,N,3.76,K,D*3D

$GPGGA,193938.000,0010.9448,S,07829.0524,W,2,12,0.72,2793.6,M,13.7,M,0000,0000*54

$GPGGA,193939.000,0010.9452,S,07829.0521,W,2,12,0.72,2793.8,M,13.7,M,0000,0000*55

$GPGSA,A,3,01,26,22,16,14,03,27,08,31,32,11,10,1.07,0.72,0.79*04

$GPGSA,A,3,01,26,22,16,14,03,27,08,31,32,11,10,1.07,0.72,0.79*04

$GPRMC,193940.000,A,0010.9453,S,07829.0519,W,0.47,37.38,230217,,,D*58

$GPRMC,193941.000,A,0010.9457,S,07829.0520,W,1.33,173.19,230217,,,D*67

$GPVTG,173.19,T,,M,1.33,N,2.47,K,D*35

$GPGSV,4,2,14,22,44,287,39,26,41,009,24,32,36,105,37,03,29,303,34*78

$GPGSV,4,3,14,08,24,197,38,10,15,154,38,31,13,034,19,01,08,243,29*77

$GPGGA,193943.000,0010.9471,S,07829.0531,W,2,12,0.72,2793.9,M,13.7,M,0000,0000*59

$GPGSA,A,3,01,26,22,16,14,03,27,08,31,32,11,10,1.07,0.72,0.79*04

$GPGSA,A,3,01,26,22,16,14,03,27,08,31,32,11,10,1.07,0.72,0.79*04

$GPRMC,193944.000,A,0010.9478,S,07829.0539,W,4.28,229.18,230217,,,D*65

$GPRMC,193945.000,A,0010.9486,S,07829.0547,W,3.07,216.47,230217,,,D*60

$GPVTG,216.47,T,,M,3.07,N,5.70,K,D*38

$GPVTG,132.95,T,,M,2.39,N,4.42,K,D*3E

$GPGGA,193947.000,0010.9494,S,07829.0540,W,2,12,0.72,2794.0,M,13.7,M,0000,0000*5E

$GPGSV,4,3,14,08,24,197,36,10,15,154,29,31,13,034,22,01,08,243,31*78

$GPGSV,4,4,14,11,07,224,38,23,02,327,*71

$GPGSA,A,3,01,26,22,16,14,03,27,08,31,32,11,10,1.07,0.72,0.79*04

$GPRMC,193948.000,A,0010.9492,S,07829.0534,W,2.20,48.82,230217,,,D*58

$GPRMC,193949.000,A,0010.9490,S,07829.0531,W,0.88,57.24,230217,,,D*5C

$GPVTG,57.24,T,,M,0.88,N,1.63,K,D*08

$GPVTG,175.68,T,,M,1.02,N,1.89,K,D*36

$GPGGA,193951.000,0010.9496,S,07829.0532,W,2,11,0.75,2793.9,M,13.7,M,0000,0000*54

$GPGGA,193952.000,0010.9501,S,07829.0534,W,2,12,0.72,2793.8,M,13.7,M,0000,0000*5B

$GPGSA,A,3,01,26,22,16,14,03,27,08,31,32,11,10,1.07,0.72,0.79*04

$GPGSV,4,4,14,11,07,224,19,23,02,327,*72

$GPRMC,193952.000,A,0010.9501,S,07829.0534,W,2.18,201.64,230217,,,D*64

$GPRMC,193953.000,A,0010.9508,S,07829.0538,W,3.32,206.83,230217,,,D*67

$GPVTG,206.83,T,,M,3.32,N,6.16,K,D*34

$GPVTG,183.33,T,,M,2.25,N,4.16,K,D*34

$GPGGA,193955.000,0010.9519,S,07829.0542,W,2,12,0.72,2794.0,M,13.7,M,0000,0000*5B

$GPGGA,193956.000,0010.9515,S,07829.0541,W,2,12,0.72,2793.9,M,13.7,M,0000,0000*59

$GPGSA,A,3,01,26,22,16,14,03,27,08,31,32,11,10,1.07,0.72,0.79*04

$GPGSA,A,3,01,26,22,16,14,03,27,08,31,32,11,10,1.07,0.72,0.79*04

$GPGSV,4,1,14,16,64,333,30,51,56,270,32,27,49,161,42,14,47,072,33*74

$GPRMC,193957.000,A,0010.9515,S,07829.0540,W,0.51,59.48,230217,,,D*59

$GPVTG,59.48,T,,M,0.51,N,0.94,K,D*01

$GPVTG,184.12,T,,M,1.49,N,2.76,K,D*39

$GPGGA,193959.000,0010.9524,S,07829.0542,W,2,12,0.72,2793.7,M,13.7,M,0000,0000*59

$GPGGA,194000.000,0010.9527,S,07829.0547,W,2,11,0.78,2793.6,M,13.7,M,0000,0000*55

$GPGSA,A,3,01,26,22,16,14,27,08,31,32,11,10,,1.11,0.78,0.79*0A

$GPGSA,A,3,01,26,22,16,14,03,27,08,31,32,11,10,1.07,0.72,0.79*04

$GPRMC,194001.000,A,0010.9527,S,07829.0553,W,2.59,272.68,230217,,,D*64

$GPGSV,4,1,14,16,64,333,29,51,56,270,29,27,49,161,40,14,47,072,35*72

$GPGSV,4,2,14,22,44,286,26,26,41,009,32,32,36,105,39,03,29,303,19*71

$GPVTG,285.52,T,,M,2.01,N,3.72,K,D*35

$GPGGA,194003.000,0010.9525,S,07829.0565,W,2,11,0.78,2793.5,M,13.7,M,0000,0000*57

$GPGGA,194004.000,0010.9522,S,07829.0570,W,2,11,0.78,2793.5,M,13.7,M,0000,0000*53

$GPGSA,A,3,01,26,22,16,14,27,08,31,32,11,10,,1.11,0.78,0.79*0A

$GPGSA,A,3,01,26,22,16,14,27,08,31,32,11,10,,1.11,0.78,0.79*0A

$GPRMC,194005.000,A,0010.9520,S,07829.0574,W,1.45,302.73,230217,,,D*60

$GPRMC,194006.000,A,0010.9518,S,07829.0578,W,1.58,297.40,230217,,,D*65

$GPVTG,297.40,T,,M,1.58,N,2.94,K,D*33

$GPGSV,4,2,14,22,44,286,25,26,41,009,25,32,36,105,42,03,29,303,26*74

$GPGSV,4,3,14,08,24,197,35,10,15,154,38,31,13,034,34,01,08,243,23*7F

$GPGGA,194008.000,0010.9516,S,07829.0584,W,2,12,0.72,2793.5,M,13.7,M,0000,0000*5A

$GPGSA,A,3,01,26,22,16,14,03,27,08,31,32,11,10,1.07,0.72,0.79*04

$GPGSA,A,3,01,26,22,16,14,03,27,08,31,32,11,10,1.07,0.72,0.79*04

$GPRMC,194009.000,A,0010.9521,S,07829.0585,W,2.35,188.29,230217,,,D*68

$GPRMC,194010.000,A,0010.9525,S,07829.0586,W,1.21,185.68,230217,,,D*69

$GPVTG,185.68,T,,M,1.21,N,2.24,K,D*3C

$GPVTG,212.78,T,,M,1.21,N,2.24,K,D*30

$GPGGA,194012.000,0010.9530,S,07829.0588,W,2,11,0.76,2793.6,M,13.7,M,0000,0000*5D

$GPGSV,4,3,14,08,24,197,37,10,15,154,37,31,13,034,25,01,08,243,*73

$GPGSV,4,4,14,11,07,224,31,23,02,327,*78

$GPGSA,A,3,26,22,16,14,27,08,31,32,11,10,,,1.16,0.83,0.81*0F

$GPRMC,194013.000,A,0010.9533,S,07829.0588,W,1.22,170.63,230217,,,D*61

$GPRMC,194014.000,A,0010.9539,S,07829.0587,W,1.94,174.84,230217,,,D*63

$GPVTG,174.84,T,,M,1.94,N,3.60,K,D*3F

$GPVTG,190.73,T,,M,1.71,N,3.17,K,D*36

$GPGGA,194016.000,0010.9548,S,07829.0589,W,2,12,0.72,2793.5,M,13.7,M,0000,0000*53

$GPGGA,194017.000,0010.9549,S,07829.0593,W,2,12,0.72,2793.4,M,13.7,M,0000,0000*59

$GPGSA,A,3,01,26,22,16,14,03,27,08,31,32,11,10,1.07,0.72,0.79*04

$GPGSV,4,4,14,11,07,224,37,23,02,327,*7E

$GPRMC,194017.000,A,0010.9549,S,07829.0593,W,1.50,281.49,230217,,,D*62

$GPRMC,194018.000,A,0010.9548,S,07829.0598,W,1.88,289.62,230217,,,D*63

$GPVTG,289.62,T,,M,1.88,N,3.48,K,D*31

$GPVTG,279.44,T,,M,1.65,N,3.05,K,D*30

$GPGGA,194020.000,0010.9545,S,07829.0607,W,2,12,0.72,2793.3,M,13.7,M,0000,0000*58

$GPGGA,194021.000,0010.9545,S,07829.0611,W,2,11,0.78,2793.3,M,13.7,M,0000,0000*57

$GPGSA,A,3,01,26,22,16,14,27,08,31,32,11,10,,1.11,0.78,0.79*0A

$GPGSA,A,3,01,26,22,16,14,27,08,31,32,11,10,,1.11,0.78,0.79*0A

$GPGSV,4,1,14,16,64,333,29,51,56,270,28,27,50,160,42,14,47,072,40*7A

$GPRMC,194022.000,A,0010.9545,S,07829.0614,W,1.23,269.33,230217,,,D*6B

$GPVTG,269.33,T,,M,1.23,N,2.28,K,D*3D

$GPVTG,250.40,T,,M,1.36,N,2.53,K,D*3B

$GPGGA,194024.000,0010.9546,S,07829.0622,W,2,12,0.72,2792.9,M,13.7,M,0000,0000*53

$GPGGA,194025.000,0010.9546,S,07829.0626,W,2,12,0.72,2792.8,M,13.7,M,0000,0000*57

$GPGSA,A,3,01,26,22,16,14,03,27,08,31,32,11,10,1.07,0.72,0.79*04

$GPGSA,A,3,01,26,22,16,14,03,27,08,31,32,11,10,1.07,0.72,0.79*04

$GPRMC,194026.000,A,0010.9546,S,07829.0630,W,1.32,269.24,230217,,,D*6C

$GPGSV,4,1,14,16,64,333,31,51,56,270,28,27,50,160,41,14,47,072,30*77

$GPGSV,4,2,14,22,44,286,29,26,41,009,31,32,36,106,41,03,29,303,25*7E

$GPVTG,275.00,T,,M,1.34,N,2.49,K,D*31

$GPGGA,194028.000,0010.9546,S,07829.0638,W,2,12,0.72,2792.7,M,13.7,M,0000,0000*5A

$GPGGA,194029.000,0010.9546,S,07829.0641,W,2,12,0.72,2792.6,M,13.7,M,0000,0000*54

$GPGSA,A,3,01,26,22,16,14,03,27,08,31,32,11,10,1.07,0.72,0.79*04

$GPGSA,A,3,01,26,22,16,14,03,27,08,31,32,11,10,1.07,0.72,0.79*04

$GPRMC,194030.000,A,0010.9550,S,07829.0642,W,2.10,174.67,230217,,,D*62

$GPRMC,194031.000,A,0010.9558,S,07829.0642,W,3.48,184.15,230217,,,D*6D

$GPVTG,184.15,T,,M,3.48,N,6.45,K,D*39

$GPGSV,4,2,14,22,44,286,35,26,41,009,26,32,36,106,37,03,29,303,26*77

$GPGSV,4,3,14,08,24,197,35,10,15,154,35,31,13,034,26,11,08,223,37*73

$GPGGA,194033.000,0010.9569,S,07829.0650,W,2,12,0.72,2792.2,M,13.7,M,0000,0000*56

$GPGSA,A,3,01,26,22,16,14,03,27,08,31,32,11,10,1.07,0.72,0.79*04

$GPGSA,A,3,01,26,22,16,14,27,08,31,32,11,10,,1.11,0.78,0.79*0A

$GPRMC,194034.000,A,0010.9569,S,07829.0655,W,1.78,258.56,230217,,,D*68

$GPRMC,194035.000,A,0010.9574,S,07829.0658,W,3.34,191.42,230217,,,D*61

$GPVTG,191.42,T,,M,3.34,N,6.18,K,D*3C

$GPVTG,190.75,T,,M,5.46,N,10.12,K,D*07

$GPGGA,194037.000,0010.9601,S,07829.0664,W,2,12,0.74,2792.0,M,13.7,M,0000,0000*5C

$GPGSV,4,3,14,08,24,197,18,10,15,154,28,31,13,034,40,11,08,223,15*70

$GPGSV,4,4,14,01,08,243,16,23,02,327,*72

$GPGSA,A,3,01,26,22,16,14,03,27,08,31,32,11,10,1.47,0.74,1.27*0C

$GPRMC,194038.000,A,0010.9617,S,07829.0669,W,6.06,198.74,230217,,,D*60

$GPRMC,194039.000,A,0010.9634,S,07829.0673,W,5.81,193.98,230217,,,D*6E

$GPVTG,193.98,T,,M,5.81,N,10.77,K,D*0F

$GPVTG,169.31,T,,M,4.97,N,9.20,K,D*35

$GPGGA,194041.000,0010.9661,S,07829.0671,W,2,12,0.74,2792.3,M,13.7,M,0000,0000*5C

$GPGGA,194042.000,0010.9669,S,07829.0669,W,2,12,0.72,2792.3,M,13.7,M,0000,0000*58

$GPGSA,A,3,01,26,22,16,14,03,27,08,31,32,11,10,1.07,0.72,0.79*04

$GPGSV,4,4,14,01,08,243,22,23,02,327,*75

$GPRMC,194042.000,A,0010.9669,S,07829.0669,W,2.57,158.09,230217,,,D*62

$GPRMC,194043.000,A,0010.9673,S,07829.0667,W,0.71,79.59,230217,,,D*57

$GPVTG,79.59,T,,M,0.71,N,1.32,K,D*0C

$GPVTG,217.59,T,,M,0.87,N,1.61,K,D*39

$GPGGA,194045.000,0010.9682,S,07829.0668,W,2,12,0.72,2792.3,M,13.7,M,0000,0000*5B

$GPGGA,194046.000,0010.9687,S,07829.0667,W,2,12,0.72,2792.4,M,13.7,M,0000,0000*55

$GPGSA,A,3,01,26,22,16,14,03,27,08,31,32,11,10,1.07,0.72,0.79*04

$GPGSA,A,3,01,26,22,16,14,03,27,08,31,32,11,10,1.07,0.72,0.79*04

$GPGSV,4,1,14,16,64,334,30,51,56,270,35,27,50,160,43,14,47,072,31*7E

$GPRMC,194047.000,A,0010.9691,S,07829.0666,W,1.47,174.51,230217,,,D*6E

$GPVTG,174.51,T,,M,1.47,N,2.72,K,D*3B

$GPVTG,173.14,T,,M,0.63,N,1.17,K,D*3A

$GPGGA,194049.000,0010.9690,S,07829.0665,W,2,12,0.72,2792.6,M,13.7,M,0000,0000*5C

$GPGGA,194050.000,0010.9685,S,07829.0664,W,2,11,0.78,2792.6,M,13.7,M,0000,0000*58

$GPGSA,A,3,01,26,22,16,14,27,08,31,32,11,10,,1.11,0.78,0.79*0A

$GPGSA,A,3,01,26,22,16,14,03,27,08,31,32,11,10,1.47,0.74,1.27*0C

$GPRMC,194051.000,A,0010.9681,S,07829.0665,W,1.24,341.91,230217,,,D*66

$GPGSV,4,1,14,16,64,334,30,51,56,270,31,27,50,160,43,14,47,072,32*79

$GPGSV,4,2,14,22,44,286,27,26,40,009,26,32,36,106,36,03,29,303,19*78

$GPVTG,325.21,T,,M,1.84,N,3.42,K,D*37

$GPGGA,194053.000,0010.9670,S,07829.0672,W,2,11,0.78,2792.7,M,13.7,M,0000,0000*57

$GPGGA,194054.000,0010.9663,S,07829.0676,W,2,11,0.78,2792.7,M,13.7,M,0000,0000*56

$GPGSA,A,3,01,26,22,16,14,27,08,31,32,11,10,,1.11,0.78,0.79*0A

$GPGSA,A,3,01,26,22,16,14,03,27,08,31,32,11,10,1.07,0.72,0.79*04

$GPRMC,194055.000,A,0010.9657,S,07829.0682,W,3.11,308.00,230217,,,D*61

$GPRMC,194056.000,A,0010.9652,S,07829.0688,W,2.72,306.08,230217,,,D*6F

$GPVTG,306.08,T,,M,2.72,N,5.03,K,D*34

$GPGSV,4,2,14,22,44,286,26,26,40,009,29,32,36,106,39,03,29,303,21*72

$GPGSV,4,3,14,08,24,197,34,10,15,154,39,31,13,034,28,11,08,223,30*77

$GPGGA,194058.000,0010.9644,S,07829.0696,W,2,12,0.72,2792.7,M,13.7,M,0000,0000*58

$GPGSA,A,3,01,26,22,16,14,03,27,08,31,32,11,10,1.07,0.72,0.79*04

$GPGSA,A,3,01,26,22,16,14,03,27,08,31,32,11,10,1.47,0.74,1.27*0C

$GPRMC,194059.000,A,0010.9641,S,07829.0698,W,1.81,321.22,230217,,,D*61

$GPRMC,194100.000,A,0010.9640,S,07829.0699,W,0.54,316.86,230217,,,D*6F

$GPVTG,316.86,T,,M,0.54,N,1.01,K,D*33

$GPVTG,175.80,T,,M,1.34,N,2.48,K,D*3B

