
$GPRMC,193434.000,A,0010.6775,S,07829.5972,W,0.84,291.69,230217,,,A*6A

$GPVTG,291.69,T,,M,0.84,N,1.56,K,A*36

$GPGSV,3,2,10,22,,,31,10,,,34,11,,,32,04,,,36*7D

$GPGSV,3,3,10,26,,,34,31,,,36*7C

$GPGSA,A,2,27,32,14,,,,,,,,,,4.29,4.17,1.00*0E

$GPRMC,193436.000,A,0010.6775,S,07829.5967,W,1.02,296.16,230217,,,A*6C

$GPRMC,193436.220,A,0010.6775,S,07829.5964,W,1.00,300.36,230217,,,A*61

$GPVTG,300.36,T,,M,1.00,N,1.85,K,A*36

$GPVTG,304.65,T,,M,0.82,N,1.51,K,A*36

$GPGGA,193439.000,0010.6771,S,07829.5967,W,1,03,4.17,136.4,M,13.7,M,,*6D

$GPGGA,193440.000,0010.6769,S,07829.5972,W,1,03,4.17,136.4,M,13.7,M,,*6E

$GPGSA,A,2,27,32,14,,,,,,,,,,4.29,4.17,1.00*0E

$GPRMC,193440.000,A,0010.6769,S,07829.5972,W,0.77,294.40,230217,,,A*66

$GPVTG,294.40,T,,M,0.77,N,1.43,K,A*30

$GPVTG,300.86,T,,M,0.85,N,1.58,K,A*31

$GPGGA,193442.000,0010.6764,S,07829.5981,W,1,03,4.17,136.4,M,13.7,M,,*6D

$GPGGA,193442.215,0010.6764,S,07829.5981,W,1,03,4.17,136.4,M,13.7,M,,*6B

$GPGSA,A,2,27,32,14,,,,,,,,,,4.29,4.17,1.00*0E

$GPGSA,A,2,27,32,14,,,,,,,,,,4.29,4.17,1.00*0E

$GPRMC,193444.000,A,0010.6761,S,07829.5986,W,0.80,293.86,230217,,,A*64

$GPGSV,3,1,10,27,48,163,37,14,47,068,33,32,37,103,33,16,,,34*4C

$GPGSV,3,2,10,22,,,30,10,,,31,11,,,22,04,,,36*78

$GPGGA,193446.000,0010.6757,S,07829.5995,W,1,03,4.17,136.5,M,13.7,M,,*6D

$GPGSA,A,2,27,32,14,,,,,,,,,,4.29,4.17,1.00*0E

$GPGSA,A,2,27,32,14,,,,,,,,,,4.29,4.17,1.00*0E

$GPRMC,193447.000,A,0010.6754,S,07829.5999,W,1.05,292.37,230217,,,A*68

$GPRMC,193448.000,A,0010.6753,S,07829.6002,W,1.00,287.56,230217,,,A*6E

$GPVTG,287.56,T,,M,1.00,N,1.86,K,A*3D

$GPVTG,284.55,T,,M,0.92,N,1.70,K,A*3E

$GPGGA,193450.000,0010.6765,S,07829.5984,W,1,03,4.17,136.5,M,13.7,M,,*6B

$GPGSV,3,3,10,26,,,36,31,,,36*7E

$GPRMC,193450.000,A,0010.6765,S,07829.5984,W,2.51,121.66,230217,,,A*6D

$GPRMC,193451.000,A,0010.6764,S,07829.5986,W,4.52,298.07,230217,,,A*6C

$GPVTG,298.07,T,,M,4.52,N,8.37,K,A*36

$GPVTG,287.98,T,,M,0.92,N,1.71,K,A*3D

$GPGGA,193453.000,0010.6761,S,07829.5990,W,1,03,4.17,137.4,M,13.7,M,,*69

$GPGGA,193454.000,0010.6761,S,07829.5992,W,1,03,4.17,137.7,M,13.7,M,,*6F

$GPGSA,A,2,27,32,14,,,,,,,,,,4.29,4.17,1.00*0E

$GPGSA,A,2,27,32,14,,,,,,,,,,4.29,4.17,1.00*0E

$GPGSV,3,1,10,27,48,163,38,14,47,068,36,32,37,103,41,16,,,35*42

$GPVTG,294.62,T,,M,2.53,N,4.69,K,A*39

$GPGGA,193456.000,0010.6757,S,07829.6001,W,1,03,4.17,138.4,M,13.7,M,,*64

$GPGGA,193457.000,0010.6756,S,07829.6003,W,1,03,4.17,138.7,M,13.7,M,,*65

$GPGSA,A,2,27,32,14,,,,,,,,,,4.29,4.17,1.00*0E

$GPGSA,A,2,27,32,14,,,,,,,,,,4.29,4.17,1.00*0E

$GPRMC,193458.000,A,0010.6756,S,07829.6003,W,0.75,117.70,230217,,,A*66

$GPRMC,193459.000,A,0010.6757,S,07829.6002,W,0.96,136.97,230217,,,A*60

$GPVTG,136.97,T,,M,0.96,N,1.78,K,A*36

$GPGSV,3,2,11,22,,,38,10,,,31,11,,,38,04,,,37*7B

$GPGSV,3,3,11,26,,,35,03,,,34,31,,,30*7E

$GPGGA,193505.000,0010.9306,S,07829.0428,W,1,07,1.09,2788.5,M,13.7,M,,*55

$GPGSA,A,3,11,27,10,16,14,26,32,,,,,,1.42,1.09,0.91*06

$GPVTG,199.63,T,,M,0.14,N,0.25,K,A*3B

$GPGGA,193506.000,0010.9304,S,07829.0432,W,1,07,1.09,2789.3,M,13.7,M,,*58

$GPGGA,193507.000,0010.9304,S,07829.0439,W,1,07,1.09,2790.1,M,13.7,M,,*58

$GPGSA,A,3,11,27,10,16,14,26,32,,,,,,1.42,1.09,0.91*06

$GPGSA,A,3,11,27,10,16,14,26,32,,,,,,1.42,1.09,0.91*06

$GPRMC,193508.000,A,0010.9304,S,07829.0439,W,0.24,60.32,230217,,,A*56

$GPRMC,193509.000,A,0010.9304,S,07829.0438,W,0.21,57.22,230217,,,A*56

$GPVTG,57.22,T,,M,0.21,N,0.39,K,A*06

$GPGSV,3,2,09,26,43,008,22,32,37,103,37,10,17,154,21,11,07,225,33*7F

$GPGSV,3,3,09,22,,,38*7B

$GPGSA,A,3,11,27,10,16,14,26,32,,,,,,1.42,1.09,0.91*06

$GPRMC,193511.000,A,0010.9303,S,07829.0437,W,0.29,26.95,230217,,,A*55

$GPRMC,193512.000,A,0010.9302,S,07829.0437,W,0.24,2.46,230217,,,A*62

$GPVTG,2.46,T,,M,0.24,N,0.44,K,A*3B

$GPVTG,343.64,T,,M,0.28,N,0.52,K,A*36

$GPGGA,193514.000,0010.9301,S,07829.0437,W,1,07,1.09,2790.3,M,13.7,M,,*53

$GPGGA,193515.000,0010.9300,S,07829.0437,W,1,07,1.26,2790.3,M,13.7,M,,*5E

$GPGSA,A,3,11,27,10,16,14,26,32,,,,,,2.48,1.26,2.13*0A

$GPRMC,193515.000,A,0010.9300,S,07829.0437,W,0.35,346.02,230217,,,A*64

$GPVTG,346.02,T,,M,0.35,N,0.66,K,A*38

$GPVTG,293.26,T,,M,0.07,N,0.14,K,A*33

$GPGGA,193517.000,0010.9299,S,07829.0437,W,1,07,1.09,2790.4,M,13.7,M,,*57

$GPGGA,193518.000,0010.9299,S,07829.0438,W,1,07,1.09,2790.4,M,13.7,M,,*57

$GPGSA,A,3,11,27,10,16,14,26,32,,,,,,1.42,1.09,0.91*06

$GPGSA,A,3,11,27,10,16,14,26,32,,,,,,1.42,1.09,0.91*06

$GPRMC,193519.000,A,0010.9298,S,07829.0438,W,0.20,115.62,230217,,,A*61

$GPGSV,3,1,09,16,66,329,34,27,48,163,40,14,47,068,25,26,43,008,31*75

$GPGSV,3,2,09,32,37,103,27,48,27,270,,10,17,154,21,11,07,225,37*7D

$GPGGA,193521.000,0010.9299,S,07829.0437,W,1,07,1.09,2790.5,M,13.7,M,,*53

$GPGSA,A,3,11,27,10,16,14,26,32,,,,,,1.42,1.09,0.91*06

$GPGSA,A,3,11,27,10,16,14,26,32,,,,,,1.42,1.09,0.91*06

$GPRMC,193522.000,A,0010.9302,S,07829.0437,W,0.24,76.53,230217,,,A*56

$GPRMC,193523.000,A,0010.9303,S,07829.0438,W,0.14,245.90,230217,,,A*67

$GPVTG,245.90,T,,M,0.14,N,0.27,K,A*37

$GPVTG,243.61,T,,M,0.41,N,0.76,K,A*3B

$GPGGA,193525.000,0010.9306,S,07829.0439,W,1,07,1.09,2793.2,M,13.7,M,,*5A

$GPGSV,3,3,09,22,,,39*7A

$GPRMC,193525.000,A,0010.9306,S,07829.0439,W,0.15,260.82,230217,,,A*60

$GPRMC,193526.000,A,0010.9306,S,07829.0440,W,0.35,147.66,230217,,,A*63

$GPVTG,147.66,T,,M,0.35,N,0.64,K,A*3B

$GPVTG,114.68,T,,M,0.42,N,0.79,K,A*3F

$GPGGA,193528.000,0010.9308,S,07829.0438,W,1,07,1.09,2793.2,M,13.7,M,,*58

$GPGGA,193529.000,0010.9309,S,07829.0433,W,1,07,1.09,2793.4,M,13.7,M,,*55

$GPGSA,A,3,11,27,10,16,14,26,32,,,,,,1.42,1.09,0.91*06

$GPGSA,A,3,11,27,10,16,14,26,32,,,,,,1.42,1.09,0.91*06

$GPGSV,3,1,09,16,66,330,30,27,48,163,36,14,47,069,29,26,43,008,31*75

$GPVTG,66.47,T,,M,1.34,N,2.48,K,A*06

$GPGGA,193531.000,0010.9304,S,07829.0431,W,1,08,0.98,2794.2,M,13.7,M,,*54

$GPGGA,193532.000,0010.9302,S,07829.0428,W,1,08,1.16,2794.2,M,13.7,M,,*5E

$GPGSA,A,3,11,27,10,16,14,26,32,22,,,,,2.40,1.16,2.10*02

$GPGSA,A,3,11,27,10,16,14,26,32,22,,,,,2.40,1.16,2.10*02

$GPRMC,193533.000,A,0010.9303,S,07829.0428,W,0.29,301.74,230217,,,A*62

$GPRMC,193534.000,A,0010.9303,S,07829.0428,W,0.26,3.69,230217,,,A*67

$GPVTG,3.69,T,,M,0.26,N,0.49,K,A*38

$GPGSV,3,2,09,22,43,289,27,26,43,008,31,32,37,103,44,10,17,154,36*7C

$GPGSV,3,3,09,11,07,225,31*40

$GPGSA,A,3,11,27,10,16,14,26,32,22,,,,,1.33,0.98,0.90*08

$GPRMC,193536.000,A,0010.9307,S,07829.0428,W,0.44,175.45,230217,,,A*6B

$GPRMC,193537.000,A,0010.9309,S,07829.0428,W,0.21,67.53,230217,,,A*52

$GPVTG,67.53,T,,M,0.21,N,0.39,K,A*03

$GPVTG,10.83,T,,M,0.60,N,1.11,K,A*00

$GPGGA,193539.000,0010.9306,S,07829.0428,W,1,08,1.16,2796.1,M,13.7,M,,*50

$GPGGA,193540.000,0010.9304,S,07829.0430,W,1,08,0.98,2796.0,M,13.7,M,,*53

$GPGSA,A,3,11,27,10,16,14,26,32,22,,,,,1.33,0.98,0.90*08

$GPRMC,193540.000,A,0010.9304,S,07829.0430,W,0.67,309.93,230217,,,A*63

$GPVTG,309.93,T,,M,0.67,N,1.24,K,A*3B

$GPVTG,246.17,T,,M,0.42,N,0.77,K,A*3D

$GPGGA,193542.000,0010.9304,S,07829.0431,W,1,08,0.98,2796.0,M,13.7,M,,*50

$GPGGA,193543.000,0010.9305,S,07829.0434,W,1,08,0.98,2796.1,M,13.7,M,,*54

$GPGSA,A,3,11,27,10,16,14,26,32,22,,,,,1.33,0.98,0.90*08

$GPGSA,A,3,11,27,10,16,14,26,32,22,,,,,1.33,0.98,0.90*08

$GPRMC,193544.000,A,0010.9307,S,07829.0433,W,0.68,183.95,230217,,,A*6E

$GPGSV,3,1,09,16,66,330,33,51,56,270,33,27,48,162,39,14,47,069,39*72

$GPGSV,3,2,09,22,43,289,33,26,43,008,28,32,36,103,36,10,17,154,38*7B

$GPGGA,193546.000,0010.9311,S,07829.0435,W,1,08,0.98,2796.3,M,13.7,M,,*57

$GPGSA,A,3,11,27,10,16,14,26,32,22,,,,,1.33,0.98,0.90*08

$GPGSA,A,3,11,27,10,16,14,26,32,22,,,,,1.33,0.98,0.90*08

$GPRMC,193547.000,A,0010.9314,S,07829.0436,W,0.87,210.92,230217,,,A*65

$GPRMC,193548.000,A,0010.9315,S,07829.0438,W,0.82,219.74,230217,,,A*61

$GPVTG,219.74,T,,M,0.82,N,1.51,K,A*3B

$GPVTG,104.54,T,,M,0.49,N,0.92,K,A*3F

$GPGGA,193550.000,0010.9316,S,07829.0435,W,1,08,0.98,2797.1,M,13.7,M,,*54

$GPGSV,3,3,09,11,07,225,42*44

$GPRMC,193550.000,A,0010.9316,S,07829.0435,W,0.16,170.01,230217,,,A*65

$GPRMC,193551.000,A,0010.9315,S,07829.0435,W,0.27,315.46,230217,,,A*67

$GPVTG,315.46,T,,M,0.27,N,0.49,K,A*30

$GPVTG,301.85,T,,M,0.72,N,1.33,K,A*36

$GPGGA,193553.000,0010.9315,S,07829.0438,W,1,08,0.98,2797.3,M,13.7,M,,*5B

$GPGGA,193554.000,0010.9317,S,07829.0438,W,1,08,0.98,2797.3,M,13.7,M,,*5E

$GPGSA,A,3,11,27,10,16,14,26,32,22,,,,,1.33,0.98,0.90*08

$GPGSA,A,3,11,27,10,16,14,26,32,22,,,,,1.33,0.98,0.90*08

$GPGSV,3,1,10,16,66,330,30,51,56,270,33,27,48,162,40,14,47,069,33*7D

$GPVTG,227.43,T,,M,0.32,N,0.60,K,A*3A

$GPGGA,193556.000,0010.9318,S,07829.0439,W,1,08,0.98,2797.5,M,13.7,M,,*54

$GPGGA,193557.000,0010.9318,S,07829.0439,W,1,08,0.98,2797.5,M,13.7,M,,*55

$GPGSA,A,3,11,27,10,16,14,26,32,22,,,,,1.33,0.98,0.90*08

$GPGSA,A,3,11,27,10,16,14,26,32,22,,,,,1.33,0.98,0.90*08

$GPRMC,193558.000,A,0010.9317,S,07829.0440,W,0.35,336.32,230217,,,A*6F

$GPRMC,193559.000,A,0010.9316,S,07829.0440,W,0.86,341.40,230217,,,A*62

$GPVTG,341.40,T,,M,0.86,N,1.60,K,A*36

$GPGSV,3,2,10,22,43,289,33,26,43,008,23,32,36,103,37,10,17,154,37*76

$GPGSV,3,3,10,11,07,225,37,08,,,28*4C

$GPGSA,A,3,11,27,10,16,14,26,32,22,,,,,1.33,0.98,0.90*08

$GPRMC,193601.000,A,0010.9312,S,07829.0444,W,0.82,328.87,230217,,,A*6C

$GPRMC,193602.000,A,0010.9312,S,07829.0444,W,0.44,345.37,230217,,,A*65

$GPVTG,345.37,T,,M,0.44,N,0.82,K,A*31

$GPVTG,355.09,T,,M,0.77,N,1.42,K,A*30

$GPGGA,193604.000,0010.9308,S,07829.0446,W,1,08,1.16,2797.8,M,13.7,M,,*53

$GPGGA,193605.000,0010.9308,S,07829.0445,W,1,08,0.98,2797.8,M,13.7,M,,*56

$GPGSA,A,3,11,27,10,16,14,26,32,22,,,,,1.33,0.98,0.90*08

$GPRMC,193605.000,A,0010.9308,S,07829.0445,W,0.31,14.51,230217,,,A*5D

$GPVTG,14.51,T,,M,0.31,N,0.58,K,A*03

$GPVTG,16.69,T,,M,0.44,N,0.81,K,A*0C

$GPGGA,193607.000,0010.9307,S,07829.0443,W,1,08,0.98,2797.9,M,13.7,M,,*5C

$GPGGA,193608.000,0010.9308,S,07829.0442,W,1,08,0.98,2797.9,M,13.7,M,,*5D

$GPGSA,A,3,11,27,10,16,14,26,32,22,,,,,1.33,0.98,0.90*08

$GPGSA,A,3,11,27,10,16,14,26,32,22,,,,,1.33,0.98,0.90*08

$GPRMC,193609.000,A,0010.9309,S,07829.0442,W,0.29,177.32,230217,,,A*6F

$GPGSV,3,1,11,16,66,330,36,51,56,270,33,27,48,162,37,14,47,069,40*7E

$GPGSV,3,2,11,22,43,289,32,26,43,008,41,32,36,103,41,10,17,154,36*72

$GPGGA,193611.000,0010.9311,S,07829.0443,W,1,08,0.98,2797.9,M,13.7,M,,*5C

$GPGSA,A,3,11,27,10,16,14,26,32,22,,,,,1.33,0.98,0.90*08

$GPGSA,A,3,11,27,10,16,14,26,32,22,,,,,1.33,0.98,0.90*08

$GPRMC,193612.000,A,0010.9311,S,07829.0444,W,0.20,284.39,230217,,,A*67

$GPRMC,193613.000,A,0010.9311,S,07829.0444,W,0.18,340.86,230217,,,A*60

$GPVTG,340.86,T,,M,0.18,N,0.32,K,A*3C

$GPVTG,270.27,T,,M,0.42,N,0.78,K,A*34

$GPGGA,193615.000,0010.9310,S,07829.0445,W,1,08,0.98,2797.9,M,13.7,M,,*5F

$GPGSV,3,3,12,11,07,225,38,23,01,327,,08,,,38,01,,,33*77

$GPRMC,193615.000,A,0010.9310,S,07829.0445,W,0.65,278.51,230217,,,A*6C

$GPRMC,193616.000,A,0010.9311,S,07829.0445,W,0.15,239.91,230217,,,A*60

$GPVTG,239.91,T,,M,0.15,N,0.27,K,A*3C

$GPVTG,67.96,T,,M,0.16,N,0.29,K,A*0F

$GPGGA,193618.000,0010.9310,S,07829.0445,W,2,08,0.98,2798.1,M,13.7,M,0000,0000*56

$GPGGA,193619.000,0010.9310,S,07829.0446,W,2,08,1.16,2798.2,M,13.7,M,0000,0000*50

$GPGSA,A,3,11,27,10,16,14,26,32,22,,,,,2.39,1.16,2.09*04

$GPGSA,A,3,11,27,16,14,26,32,22,,,,,,1.40,1.07,0.91*0B

$GPGSV,3,1,12,16,66,330,39,51,56,270,40,27,48,162,35,14,47,069,35*76

$GPVTG,330.33,T,,M,0.32,N,0.59,K,D*35

$GPGGA,193621.000,0010.9309,S,07829.0447,W,2,08,0.98,2798.3,M,13.7,M,0000,0000*54

$GPGGA,193622.000,0010.9308,S,07829.0448,W,2,08,0.98,2798.4,M,13.7,M,0000,0000*5E

$GPGSA,A,3,11,27,10,16,14,26,32,22,,,,,1.33,0.98,0.90*08

$GPGSA,A,3,11,27,16,14,26,32,22,,,,,,2.50,1.21,2.19*0F

$GPRMC,193623.000,A,0010.9308,S,07829.0449,W,0.14,356.64,230217,,,D*64

$GPRMC,193624.000,A,0010.9308,S,07829.0449,W,0.09,340.46,230217,,,D*68

$GPVTG,340.46,T,,M,0.09,N,0.16,K,D*33

$GPGSV,3,2,12,22,43,289,39,26,42,009,35,32,36,104,38,10,17,154,24*73

$GPGSV,3,3,12,11,07,225,41,23,01,327,,08,,,39,01,,,38*73

$GPGSA,A,3,11,27,10,16,14,26,32,22,,,,,1.33,0.98,0.90*08

$GPRMC,193626.000,A,0010.9309,S,07829.0450,W,0.34,238.77,230217,,,D*61

$GPRMC,193627.000,A,0010.9310,S,07829.0451,W,0.17,153.10,230217,,,D*67

$GPVTG,153.10,T,,M,0.17,N,0.32,K,D*39

$GPVTG,69.97,T,,M,0.56,N,1.05,K,D*0E

$GPGGA,193629.000,0010.9308,S,07829.0450,W,2,08,0.98,2799.1,M,13.7,M,0000,0000*58

$GPGGA,193630.000,0010.9308,S,07829.0449,W,2,08,0.98,2799.3,M,13.7,M,0000,0000*5A

$GPGSA,A,3,11,27,10,16,14,26,32,22,,,,,1.33,0.98,0.90*08

$GPRMC,193630.000,A,0010.9308,S,07829.0449,W,0.50,78.23,230217,,,D*5A

$GPVTG,78.23,T,,M,0.50,N,0.93,K,D*09

$GPVTG,87.64,T,,M,0.28,N,0.51,K,D*0B

$GPGGA,193632.000,0010.9310,S,07829.0447,W,2,10,0.87,2799.7,M,13.7,M,0000,0000*5C

$GPGGA,193633.000,0010.9310,S,07829.0447,W,2,10,0.87,2799.9,M,13.7,M,0000,0000*53

$GPGSA,A,3,11,27,10,16,14,26,32,22,08,01,,,1.24,0.87,0.88*00

$GPGSA,A,3,11,27,10,16,14,26,32,22,08,01,,,1.24,0.87,0.88*00

$GPRMC,193634.000,A,0010.9311,S,07829.0446,W,0.30,185.69,230217,,,D*62

$GPGSV,3,1,12,16,66,330,37,51,56,270,39,27,48,162,40,14,47,069,31*70

$GPGSV,3,2,12,22,43,289,40,26,42,009,32,32,36,104,33,08,23,198,32*78

$GPGGA,193636.000,0010.9312,S,07829.0445,W,2,10,0.87,2800.6,M,13.7,M,0000,0000*56

$GPGSA,A,3,11,27,10,16,14,26,32,22,08,01,,,1.24,0.87,0.88*00

$GPGSA,A,3,11,27,10,16,14,26,32,22,08,01,,,1.24,0.87,0.88*00

$GPRMC,193637.000,A,0010.9312,S,07829.0445,W,0.04,66.92,230217,,,D*5E

$GPRMC,193638.000,A,0010.9312,S,07829.0446,W,0.06,27.09,230217,,,D*57

$GPVTG,27.09,T,,M,0.06,N,0.12,K,D*01

$GPVTG,20.20,T,,M,0.02,N,0.04,K,D*0E

$GPGGA,193640.000,0010.9312,S,07829.0447,W,2,10,0.87,2801.4,M,13.7,M,0000,0000*56

$GPGSV,3,3,12,10,16,154,37,01,08,244,39,11,07,225,38,23,01,327,*76

$GPRMC,193640.000,A,0010.9312,S,07829.0447,W,0.03,81.00,230217,,,D*59

$GPRMC,193641.000,A,0010.9313,S,07829.0447,W,0.02,250.17,230217,,,D*60

$GPVTG,250.17,T,,M,0.02,N,0.04,K,D*3F

$GPVTG,197.10,T,,M,0.05,N,0.09,K,D*3A

$GPGGA,193643.000,0010.9313,S,07829.0447,W,2,10,0.87,2801.7,M,13.7,M,0000,0000*57

$GPGGA,193644.000,0010.9313,S,07829.0448,W,2,10,0.87,2801.8,M,13.7,M,0000,0000*50

$GPGSA,A,3,11,27,10,16,14,26,32,22,08,01,,,1.24,0.87,0.88*00

$GPGSA,A,3,11,27,10,16,14,26,32,22,08,01,,,1.24,0.87,0.88*00

$GPGSV,3,1,12,16,66,331,28,51,56,270,37,27,48,162,39,14,47,070,36*70

$GPVTG,246.32,T,,M,0.10,N,0.18,K,D*31

$GPGGA,193646.000,0010.9313,S,07829.0448,W,2,10,0.87,2802.0,M,13.7,M,0000,0000*59

$GPGGA,193647.000,0010.9311,S,07829.0447,W,2,10,0.87,2802.1,M,13.7,M,0000,0000*54

$GPGSA,A,3,11,27,10,16,14,26,32,22,08,01,,,1.24,0.87,0.88*00

$GPGSA,A,3,11,27,10,16,14,26,32,22,08,01,,,1.24,0.87,0.88*00

$GPRMC,193648.000,A,0010.9311,S,07829.0445,W,0.94,65.82,230217,,,D*5E

$GPRMC,193649.000,A,0010.9312,S,07829.0444,W,0.53,232.38,230217,,,D*67

$GPVTG,232.38,T,,M,0.53,N,0.98,K,D*37

$GPGSV,3,2,12,22,43,288,38,26,42,009,29,32,36,104,32,08,23,198,31*7E

$GPGSV,3,3,12,10,16,154,35,01,08,244,37,11,07,225,41,23,01,327,*74

$GPGSA,A,3,11,27,10,16,14,26,32,22,08,01,,,1.24,0.87,0.88*00

$GPRMC,193651.000,A,0010.9315,S,07829.0445,W,0.41,232.20,230217,,,D*62

$GPRMC,193652.000,A,0010.9316,S,07829.0446,W,0.21,253.62,230217,,,D*66

$GPVTG,253.62,T,,M,0.21,N,0.39,K,D*31

$GPVTG,112.45,T,,M,0.13,N,0.25,K,D*3E

$GPGGA,193654.000,0010.9316,S,07829.0445,W,2,10,0.87,2802.6,M,13.7,M,0000,0000*54

$GPGGA,193655.000,0010.9316,S,07829.0445,W,2,10,0.87,2802.6,M,13.7,M,0000,0000*55

$GPGSA,A,3,11,27,10,16,14,26,32,22,08,01,,,1.24,0.87,0.88*00

$GPRMC,193655.000,A,0010.9316,S,07829.0445,W,0.05,27.25,230217,,,D*56

$GPVTG,27.25,T,,M,0.05,N,0.09,K,D*06

$GPVTG,289.19,T,,M,0.20,N,0.37,K,D*35

$GPGGA,193657.000,0010.9314,S,07829.0445,W,2,10,0.87,2802.9,M,13.7,M,0000,0000*5A

$GPGGA,193658.000,0010.9314,S,07829.0444,W,2,10,0.87,2802.9,M,13.7,M,0000,0000*54

$GPGSA,A,3,11,27,10,16,14,26,32,22,08,01,,,1.24,0.87,0.88*00

$GPGSA,A,3,11,27,10,16,14,26,32,22,08,01,,,1.24,0.87,0.88*00

$GPRMC,193659.000,A,0010.9313,S,07829.0445,W,0.22,287.46,230217,,,D*67

$GPGSV,3,1,12,16,66,331,35,51,56,270,38,27,48,162,38,14,47,070,29*7C

$GPGSV,3,2,12,22,43,288,38,26,42,009,22,32,36,104,27,08,23,198,31*71

$GPGGA,193701.000,0010.9314,S,07829.0445,W,2,10,0.87,2802.9,M,13.7,M,0000,0000*58

$GPGSA,A,3,11,27,10,16,14,26,32,22,08,01,,,1.24,0.87,0.88*00

$GPGSA,A,3,11,27,10,16,14,26,32,22,08,01,,,1.24,0.87,0.88*00

$GPRMC,193702.000,A,0010.9314,S,07829.0445,W,0.06,102.87,230217,,,D*6A

$GPRMC,193703.000,A,0010.9314,S,07829.0445,W,0.21,208.37,230217,,,D*6C

$GPVTG,208.37,T,,M,0.21,N,0.39,K,D*3F

$GPVTG,245.41,T,,M,0.05,N,0.09,K,D*32

$GPGGA,193705.000,0010.9314,S,07829.0445,W,2,10,0.87,2803.0,M,13.7,M,0000,0000*54

$GPGSV,3,3,12,10,16,154,38,01,08,244,39,11,07,225,39,23,01,327,*78

$GPRMC,193705.000,A,0010.9314,S,07829.0445,W,0.58,282.76,230217,,,D*63

$GPRMC,193706.000,A,0010.9313,S,07829.0447,W,0.11,309.25,230217,,,D*6C

$GPVTG,309.25,T,,M,0.11,N,0.20,K,D*37

$GPVTG,335.37,T,,M,0.05,N,0.09,K,D*35

$GPGGA,193708.000,0010.9313,S,07829.0447,W,2,10,0.87,2803.0,M,13.7,M,0000,0000*5C

$GPGGA,193709.000,0010.9313,S,07829.0447,W,2,10,0.87,2803.0,M,13.7,M,0000,0000*5D

$GPGSA,A,3,11,27,10,16,14,26,32,22,08,01,,,1.24,0.87,0.88*00

$GPGSA,A,3,11,27,10,16,14,26,32,22,08,01,,,1.24,0.87,0.88*00

$GPGSV,3,1,12,16,66,331,34,51,56,270,38,27,48,162,28,14,47,070,31*75

$GPVTG,269.18,T,,M,0.20,N,0.36,K,D*3B

$GPGGA,193711.000,0010.9313,S,07829.0447,W,2,10,0.87,2803.0,M,13.7,M,0000,0000*54

$GPGGA,193712.000,0010.9313,S,07829.0447,W,2,10,0.87,2803.0,M,13.7,M,0000,0000*57

$GPGSA,A,3,11,27,10,16,14,26,32,22,08,01,,,1.24,0.87,0.88*00

$GPGSA,A,3,11,27,10,16,14,26,32,22,08,01,,,1.24,0.87,0.88*00

$GPRMC,193713.000,A,0010.9313,S,07829.0447,W,0.04,136.83,230217,,,D*6E

$GPRMC,193714.000,A,0010.9313,S,07829.0447,W,0.01,189.81,230217,,,D*6A

$GPVTG,189.81,T,,M,0.01,N,0.01,K,D*31

$GPGSV,3,2,12,22,43,288,38,26,42,009,30,32,36,104,35,08,23,198,41*76

$GPGSV,3,3,12,10,16,154,37,01,08,244,38,11,07,225,40,23,01,327,*78

$GPGSA,A,3,11,27,10,16,14,26,32,22,08,01,,,1.24,0.87,0.88*00

$GPRMC,193716.000,A,0010.9313,S,07829.0447,W,0.13,319.72,230217,,,D*6C

$GPRMC,193717.000,A,0010.9313,S,07829.0447,W,0.06,338.83,230217,,,D*64

$GPVTG,338.83,T,,M,0.06,N,0.11,K,D*3D

$GPVTG,50.98,T,,M,0.27,N,0.50,K,D*0C

$GPGGA,193719.000,0010.9313,S,07829.0447,W,2,10,0.87,2803.1,M,13.7,M,0000,0000*5D

$GPGGA,193720.000,0010.9313,S,07829.0447,W,2,10,0.87,2803.1,M,13.7,M,0000,0000*57

$GPGSA,A,3,11,27,10,16,14,26,32,22,08,01,,,1.24,0.87,0.88*00

$GPRMC,193720.000,A,0010.9313,S,07829.0447,W,0.36,93.76,230217,,,D*5B

$GPVTG,93.76,T,,M,0.36,N,0.67,K,D*07

$GPVTG,9.80,T,,M,0.48,N,0.89,K,D*34

$GPGGA,193722.000,0010.9312,S,07829.0447,W,2,10,1.04,2803.1,M,13.7,M,0000,0000*5E

$GPGGA,193723.000,0010.9314,S,07829.0446,W,2,10,0.87,2803.1,M,13.7,M,0000,0000*52

$GPGSA,A,3,11,27,10,16,14,26,32,22,08,01,,,1.24,0.87,0.88*00

$GPGSA,A,3,11,27,10,16,14,26,32,22,08,01,,,1.24,0.87,0.88*00

$GPRMC,193724.000,A,0010.9321,S,07829.0445,W,2.20,167.22,230217,,,D*62

$GPGSV,3,1,12,16,65,331,36,51,56,270,38,27,48,162,27,14,47,070,34*7E

$GPGSV,3,2,12,22,43,288,44,26,42,009,40,32,36,104,28,08,23,198,24*75

$GPGGA,193726.000,0010.9337,S,07829.0440,W,2,10,0.87,2803.5,M,13.7,M,0000,0000*54

$GPGSA,A,3,11,27,10,16,14,26,32,22,08,01,,,1.24,0.87,0.88*00

$GPGSA,A,3,11,27,10,16,14,26,32,22,08,01,,,1.24,0.87,0.88*00

$GPRMC,193727.000,A,0010.9344,S,07829.0437,W,2.28,152.88,230217,,,D*69

$GPRMC,193728.000,A,0010.9350,S,07829.0435,W,1.92,149.28,230217,,,D*63

$GPVTG,149.28,T,,M,1.92,N,3.56,K,D*34

$GPVTG,136.59,T,,M,2.05,N,3.79,K,D*3A

$GPGGA,193730.000,0010.9358,S,07829.0427,W,2,10,0.87,2804.0,M,13.7,M,0000,0000*59

$GPGSV,3,3,12,10,16,154,32,01,08,244,37,11,07,225,42,23,01,327,*70

$GPRMC,193730.000,A,0010.9358,S,07829.0427,W,2.17,93.84,230217,,,D*5F

$GPRMC,193731.000,A,0010.9357,S,07829.0422,W,2.21,30.33,230217,,,D*54

$GPVTG,30.33,T,,M,2.21,N,4.09,K,D*07

$GPVTG,353.38,T,,M,1.57,N,2.90,K,D*3E

$GPGGA,193733.000,0010.9350,S,07829.0423,W,2,09,1.08,2804.6,M,13.7,M,0000,0000*5E

$GPGGA,193734.000,0010.9349,S,07829.0426,W,2,10,0.87,2804.7,M,13.7,M,0000,0000*5B

$GPGSA,A,3,11,27,10,16,14,26,32,22,08,01,,,1.24,0.87,0.88*00

$GPGSA,A,3,11,27,10,16,14,26,32,22,08,,,,1.29,0.92,0.90*01

$GPGSV,3,1,12,16,65,331,32,51,56,270,30,27,49,162,41,14,47,070,43*73

$GPVTG,296.13,T,,M,1.83,N,3.39,K,D*34

$GPGGA,193736.000,0010.9345,S,07829.0435,W,2,10,0.87,2804.7,M,13.7,M,0000,0000*57

$GPGGA,193737.000,0010.9344,S,07829.0436,W,2,10,0.87,2804.8,M,13.7,M,0000,0000*5B

$GPGSA,A,3,11,27,10,16,14,26,32,22,08,01,,,1.24,0.87,0.88*00

$GPGSA,A,3,11,27,10,16,14,26,32,22,08,01,,,1.24,0.87,0.88*00

$GPRMC,193738.000,A,0010.9346,S,07829.0433,W,1.75,110.46,230217,,,D*6E

$GPRMC,193739.000,A,0010.9350,S,07829.0428,W,3.12,132.37,230217,,,D*67

$GPVTG,132.37,T,,M,3.12,N,5.78,K,D*36

$GPGSV,3,2,12,22,43,288,41,26,42,009,37,32,36,104,25,08,23,198,24*7D

$GPGSV,3,3,12,10,16,154,20,01,08,244,37,11,07,225,32,23,01,327,*74

$GPGSA,A,3,11,27,10,16,14,26,32,22,08,01,,,1.24,0.87,0.88*00

$GPRMC,193741.000,A,0010.9369,S,07829.0420,W,4.28,161.73,230217,,,D*62

$GPRMC,193742.000,A,0010.9380,S,07829.0415,W,4.28,155.21,230217,,,D*60

$GPVTG,155.21,T,,M,4.28,N,7.93,K,D*39

$GPVTG,158.99,T,,M,2.50,N,4.64,K,D*35

$GPGGA,193744.000,0010.9395,S,07829.0408,W,2,10,0.87,2806.1,M,13.7,M,0000,0000*55

$GPGGA,193745.000,0010.9394,S,07829.0405,W,2,10,0.87,2806.3,M,13.7,M,0000,0000*5A

$GPGSA,A,3,11,27,10,16,14,26,32,22,08,01,,,1.24,0.87,0.88*00

$GPRMC,193745.000,A,0010.9394,S,07829.0405,W,1.34,357.22,230217,,,D*68

$GPVTG,357.22,T,,M,1.34,N,2.48,K,D*31

$GPVTG,296.19,T,,M,1.26,N,2.33,K,D*3A

$GPGGA,193747.000,0010.9393,S,07829.0413,W,2,09,0.92,2807.0,M,13.7,M,0000,0000*56

$GPGGA,193748.000,0010.9390,S,07829.0417,W,2,10,0.87,2807.3,M,13.7,M,0000,0000*51

$GPGSA,A,3,11,27,10,16,14,26,32,22,08,01,,,1.24,0.87,0.88*00

$GPGSA,A,3,11,27,10,16,14,26,32,22,08,01,,,1.24,0.87,0.88*00

$GPRMC,193749.000,A,0010.9386,S,07829.0421,W,2.00,324.12,230217,,,D*62

$GPGSV,3,1,12,16,65,332,30,51,56,270,32,27,49,162,41,14,47,070,40*73

$GPGSV,3,2,12,22,43,288,27,26,42,009,27,32,36,104,41,08,23,198,36*7D

$GPGGA,193751.000,0010.9378,S,07829.0426,W,2,10,0.87,2807.8,M,13.7,M,0000,0000*56

$GPGSA,A,3,11,27,10,16,14,26,32,22,08,01,,,1.24,0.87,0.88*00

$GPGSA,A,3,11,27,10,16,14,26,32,22,08,01,,,1.24,0.87,0.88*00

$GPRMC,193752.000,A,0010.9376,S,07829.0429,W,1.65,300.29,230217,,,D*61

$GPRMC,193753.000,A,0010.9371,S,07829.0431,W,2.04,353.51,230217,,,D*63

$GPVTG,353.51,T,,M,2.04,N,3.78,K,D*33

$GPVTG,341.33,T,,M,1.79,N,3.31,K,D*30

$GPGGA,193755.000,0010.9361,S,07829.0434,W,2,10,0.87,2808.1,M,13.7,M,0000,0000*5F

$GPGSV,3,3,12,10,16,154,41,01,08,244,27,11,07,224,33,23,01,327,*72

$GPRMC,193755.000,A,0010.9361,S,07829.0434,W,2.03,323.94,230217,,,D*68

$GPRMC,193756.000,A,0010.9357,S,07829.0438,W,2.01,321.35,230217,,,D*69

$GPVTG,321.35,T,,M,2.01,N,3.72,K,D*3B

$GPVTG,331.25,T,,M,1.92,N,3.56,K,D*34

$GPGGA,193758.000,0010.9348,S,07829.0444,W,2,10,0.87,2808.4,M,13.7,M,0000,0000*5B

$GPGGA,193759.000,0010.9343,S,07829.0446,W,2,10,0.87,2808.5,M,13.7,M,0000,0000*52

$GPGSA,A,3,11,27,10,16,14,26,32,22,08,01,,,1.24,0.87,0.88*00

$GPGSA,A,3,11,27,10,16,14,26,32,22,08,01,,,1.24,0.87,0.88*00

$GPGSV,3,1,12,16,65,332,26,51,56,270,36,27,49,162,40,14,47,070,38*7E

$GPVTG,359.77,T,,M,1.42,N,2.63,K,D*37

$GPGGA,193801.000,0010.9335,S,07829.0448,W,2,10,1.04,2808.3,M,13.7,M,0000,0000*53

$GPGGA,193802.000,0010.9331,S,07829.0448,W,2,10,0.87,2808.2,M,13.7,M,0000,0000*5F

$GPGSA,A,3,11,27,10,16,14,26,32,22,08,01,,,1.24,0.87,0.88*00

$GPGSA,A,3,11,27,10,16,14,26,32,22,08,01,,,2.13,1.04,1.86*02

$GPRMC,193803.000,A,0010.9327,S,07829.0449,W,1.79,339.11,230217,,,D*64

$GPRMC,193804.000,A,0010.9323,S,07829.0450,W,1.02,345.88,230217,,,D*68

$GPVTG,345.88,T,,M,1.02,N,1.89,K,D*39

$GPGSV,3,2,12,22,44,288,27,26,41,009,33,32,36,104,41,08,23,198,36*7C

$GPGSV,3,3,12,10,16,154,33,01,08,244,24,11,07,224,35,23,02,327,*71

$GPGSA,A,3,11,27,10,16,14,26,32,22,08,01,,,1.24,0.87,0.88*00

$GPRMC,193806.000,A,0010.9320,S,07829.0455,W,0.92,268.87,230217,,,D*65

$GPRMC,193807.000,A,0010.9320,S,07829.0455,W,0.06,321.54,230217,,,D*6B

$GPVTG,321.54,T,,M,0.06,N,0.11,K,D*3F

$GPVTG,44.97,T,,M,0.40,N,0.75,K,D*00

$GPGGA,193809.000,0010.9319,S,07829.0455,W,2,10,0.87,2807.7,M,13.7,M,0000,0000*58

$GPGGA,193810.000,0010.9318,S,07829.0456,W,2,10,0.87,2807.7,M,13.7,M,0000,0000*52

$GPGSA,A,3,11,27,10,16,14,26,32,22,08,01,,,1.24,0.87,0.88*00

$GPRMC,193810.000,A,0010.9318,S,07829.0456,W,0.06,351.07,230217,,,D*64

$GPVTG,351.07,T,,M,0.06,N,0.12,K,D*3D

$GPVTG,79.18,T,,M,0.07,N,0.13,K,D*0A

$GPGGA,193812.000,0010.9318,S,07829.0455,W,2,10,0.87,2807.7,M,13.7,M,0000,0000*53

$GPGGA,193813.000,0010.9318,S,07829.0455,W,2,10,0.87,2807.7,M,13.7,M,0000,0000*52

$GPGSA,A,3,11,27,10,16,14,26,32,22,08,01,,,1.24,0.87,0.88*00

$GPGSA,A,3,11,27,10,16,14,26,32,22,08,01,,,1.24,0.87,0.88*00

$GPRMC,193814.000,A,0010.9320,S,07829.0454,W,0.30,77.48,230217,,,D*50

$GPGSV,3,1,12,16,65,332,37,51,56,270,38,27,49,161,37,14,47,070,36*7D

$GPGSV,3,2,12,22,44,288,36,26,41,009,29,32,36,105,37,08,23,198,40*76

$GPGGA,193816.000,0010.9317,S,07829.0452,W,2,10,0.87,2807.7,M,13.7,M,0000,0000*5F

$GPGSA,A,3,11,27,10,16,14,26,32,22,08,01,,,1.24,0.87,0.88*00

$GPGSA,A,3,11,27,10,16,14,26,32,22,08,01,,,1.24,0.87,0.88*00

$GPRMC,193817.000,A,0010.9314,S,07829.0450,W,1.42,61.60,230217,,,D*59

$GPRMC,193818.000,A,0010.9312,S,07829.0449,W,0.85,27.76,230217,,,D*57

$GPVTG,27.76,T,,M,0.85,N,1.57,K,D*02

$GPVTG,41.79,T,,M,0.56,N,1.04,K,D*05

$GPGGA,193820.000,0010.9309,S,07829.0449,W,2,10,0.87,2807.8,M,13.7,M,0000,0000*50

$GPGSV,3,3,12,10,16,154,30,01,08,244,18,11,07,224,17,23,02,327,*7D

$GPRMC,193820.000,A,0010.9309,S,07829.0449,W,0.72,349.69,230217,,,D*6B

$GPRMC,193821.000,A,0010.9308,S,07829.0449,W,0.44,342.96,230217,,,D*65

$GPVTG,342.96,T,,M,0.44,N,0.81,K,D*3B

$GPVTG,352.82,T,,M,0.19,N,0.36,K,D*3B

$GPGGA,193823.000,0010.9307,S,07829.0450,W,2,10,1.04,2807.9,M,13.7,M,0000,0000*5E

$GPGGA,193824.000,0010.9308,S,07829.0450,W,2,10,0.87,2808.0,M,13.7,M,0000,0000*5A

$GPGSA,A,3,11,27,10,16,14,26,32,22,08,01,,,1.24,0.87,0.88*00

$GPGSA,A,3,11,27,10,16,14,26,32,22,08,01,,,1.24,0.87,0.88*00

$GPGSV,3,1,12,16,65,332,36,51,56,270,30,27,49,161,22,14,47,071,41*71

$GPVTG,175.82,T,,M,0.06,N,0.10,K,D*36

$GPGGA,193826.000,0010.9308,S,07829.0450,W,2,10,0.87,2808.0,M,13.7,M,0000,0000*58

$GPGGA,193827.000,0010.9308,S,07829.0450,W,2,10,0.87,2808.0,M,13.7,M,0000,0000*59

$GPGSA,A,3,11,27,10,16,14,26,32,22,08,01,,,1.24,0.87,0.88*00

$GPGSA,A,3,11,27,10,16,14,26,32,22,08,01,,,1.24,0.87,0.88*00

$GPRMC,193828.000,A,0010.9308,S,07829.0449,W,0.12,156.51,230217,,,D*63

$GPRMC,193829.000,A,0010.9309,S,07829.0449,W,0.14,223.79,230217,,,D*6E

$GPVTG,223.79,T,,M,0.14,N,0.26,K,D*34

$GPGSV,3,2,12,22,44,288,33,26,41,009,43,32,36,105,36,08,24,197,21*71

$GPGSV,3,3,12,10,16,154,26,01,08,244,24,11,07,224,17,23,02,327,*75

$GPGSA,A,3,11,27,10,16,14,26,32,22,08,01,,,1.24,0.87,0.88*00

$GPRMC,193831.000,A,0010.9309,S,07829.0450,W,0.22,307.70,230217,,,D*64

$GPRMC,193832.000,A,0010.9309,S,07829.0450,W,0.32,227.62,230217,,,D*66

$GPVTG,227.62,T,,M,0.32,N,0.60,K,D*3C

$GPVTG,199.74,T,,M,0.33,N,0.61,K,D*3D

$GPGGA,193834.000,0010.9310,S,07829.0451,W,2,10,0.87,2808.1,M,13.7,M,0000,0000*52

$GPGGA,193835.000,0010.9311,S,07829.0451,W,2,10,0.87,2808.1,M,13.7,M,0000,0000*52

$GPGSA,A,3,11,27,10,16,14,26,32,22,08,01,,,1.24,0.87,0.88*00

$GPRMC,193835.000,A,0010.9311,S,07829.0451,W,0.14,143.10,230217,,,D*69

$GPVTG,143.10,T,,M,0.14,N,0.27,K,D*3F

$GPVTG,56.19,T,,M,0.26,N,0.49,K,D*0A

$GPGGA,193837.000,0010.9311,S,07829.0450,W,2,10,0.87,2808.1,M,13.7,M,0000,0000*51

$GPGGA,193838.000,0010.9310,S,07829.0449,W,2,10,0.87,2808.1,M,13.7,M,0000,0000*57

$GPGSA,A,3,11,27,10,16,14,26,32,22,08,01,,,1.24,0.87,0.88*00

$GPGSA,A,3,11,27,10,16,14,26,32,22,08,01,,,1.24,0.87,0.88*00

$GPRMC,193839.000,A,0010.9309,S,07829.0449,W,0.17,58.77,230217,,,D*5C

$GPGSV,3,1,12,16,65,332,41,51,56,270,38,27,49,161,31,14,47,071,38*75

$GPGSV,3,2,12,22,44,287,37,26,41,009,40,32,36,105,33,08,24,197,20*7D

$GPGGA,193841.000,0010.9309,S,07829.0449,W,2,10,1.04,2808.1,M,13.7,M,0000,0000*5B

$GPGSA,A,3,11,27,10,16,14,26,32,22,08,01,,,2.12,1.04,1.85*00

$GPGSA,A,3,11,27,10,16,14,26,32,22,08,01,,,1.24,0.87,0.88*00

$GPRMC,193842.000,A,0010.9310,S,07829.0449,W,0.95,207.40,230217,,,D*6E

$GPRMC,193843.000,A,0010.9313,S,07829.0453,W,1.27,215.38,230217,,,D*63

$GPVTG,215.38,T,,M,1.27,N,2.35,K,D*35

$GPVTG,221.86,T,,M,1.51,N,2.80,K,D*38

$GPGGA,193845.000,0010.9319,S,07829.0460,W,2,10,0.87,2807.9,M,13.7,M,0000,0000*58

$GPGSV,4,3,13,08,24,197,37,10,16,154,27,01,08,244,41,11,07,224,40*73

$GPGSV,4,4,13,23,02,327,*4E

$GPGSA,A,3,11,27,10,16,14,26,32,22,08,01,,,1.24,0.87,0.88*00

$GPRMC,193846.000,A,0010.9319,S,07829.0459,W,0.21,104.51,230217,,,D*6D

$GPRMC,193847.000,A,0010.9318,S,07829.0460,W,0.48,319.70,230217,,,D*65

$GPVTG,319.70,T,,M,0.48,N,0.90,K,D*31

$GPVTG,338.31,T,,M,0.91,N,1.68,K,D*35

$GPGGA,193849.000,0010.9312,S,07829.0461,W,2,09,0.94,2807.8,M,13.7,M,0000,0000*55

$GPGGA,193850.000,0010.9310,S,07829.0462,W,2,10,0.87,2807.8,M,13.7,M,0000,0000*56

$GPGSA,A,3,11,27,10,16,14,26,32,22,08,01,,,1.24,0.87,0.88*00

$GPGSV,4,4,13,23,02,327,*4E

$GPRMC,193850.000,A,0010.9310,S,07829.0462,W,0.83,339.99,230217,,,D*6B

$GPRMC,193851.000,A,0010.9308,S,07829.0463,W,0.90,340.22,230217,,,D*6E

$GPVTG,340.22,T,,M,0.90,N,1.66,K,D*37

$GPVTG,341.28,T,,M,0.88,N,1.64,K,D*37

$GPGGA,193853.000,0010.9305,S,07829.0464,W,2,10,0.87,2807.9,M,13.7,M,0000,0000*56

$GPGGA,193854.000,0010.9305,S,07829.0467,W,2,09,0.92,2808.0,M,13.7,M,0000,0000*58

$GPGSA,A,3,11,27,10,16,14,26,32,22,01,,,,1.28,0.92,0.89*01

$GPGSA,A,3,11,27,10,16,14,26,32,22,08,01,,,1.24,0.87,0.88*00

$GPGSV,4,1,13,16,65,332,39,51,56,270,31,27,49,161,28,14,47,071,40*72

$GPRMC,193855.000,A,0010.9305,S,07829.0468,W,0.53,324.95,230217,,,D*6D

$GPVTG,324.95,T,,M,0.53,N,0.97,K,D*39

$GPVTG,345.25,T,,M,0.44,N,0.81,K,D*34

$GPGGA,193857.000,0010.9305,S,07829.0468,W,2,10,0.87,2808.1,M,13.7,M,0000,0000*59

$GPGGA,193858.000,0010.9305,S,07829.0467,W,2,10,0.87,2808.2,M,13.7,M,0000,0000*5A

$GPGSA,A,3,11,27,10,16,14,26,32,22,08,01,,,1.24,0.87,0.88*00

$GPGSA,A,3,11,27,10,16,14,26,32,22,01,,,,1.28,0.92,0.89*01

$GPRMC,193859.000,A,0010.9304,S,07829.0467,W,0.20,15.63,230217,,,D*53

$GPGSV,4,1,13,16,65,332,40,51,56,270,38,27,49,161,27,14,47,071,39*74

$GPGSV,4,2,13,22,44,287,36,26,41,009,43,32,36,105,39,03,29,304,*7F

$GPVTG,335.42,T,,M,0.22,N,0.41,K,D*3E

$GPGGA,193901.000,0010.9303,S,07829.0467,W,2,10,0.87,2808.3,M,13.7,M,0000,0000*50

$GPGGA,193902.000,0010.9302,S,07829.0467,W,2,10,0.87,2808.3,M,13.7,M,0000,0000*52

$GPGSA,A,3,11,27,16,14,26,32,22,08,01,10,,,1.24,0.87,0.88*00

$GPGSA,A,3,11,27,16,14,26,32,22,08,01,10,,,1.24,0.87,0.88*00

$GPRMC,193903.000,A,0010.9302,S,07829.0467,W,0.08,342.83,230217,,,D*6E

$GPRMC,193904.000,A,0010.9302,S,07829.0467,W,0.09,265.71,230217,,,D*61

$GPVTG,265.71,T,,M,0.09,N,0.16,K,D*31

$GPGSV,4,2,13,22,44,287,38,26,41,009,43,32,36,105,39,03,29,304,36*74

$GPGSV,4,3,13,08,24,197,29,10,16,154,23,01,08,243,28,11,07,224,24*72

$GPGGA,193906.000,0010.9302,S,07829.0467,W,2,10,0.87,2808.4,M,13.7,M,0000,0000*51

$GPGSA,A,3,11,27,16,14,26,32,22,08,01,10,,,1.24,0.87,0.88*00

$GPGSA,A,3,11,27,16,14,26,32,22,08,01,10,,,1.24,0.87,0.88*00

$GPRMC,193907.000,A,0010.9302,S,07829.0467,W,0.03,120.22,230217,,,D*6C

$GPRMC,193908.000,A,0010.9302,S,07829.0467,W,0.13,287.17,230217,,,D*6A

$GPVTG,287.17,T,,M,0.13,N,0.24,K,D*37

$GPVTG,270.96,T,,M,0.24,N,0.44,K,D*34

$GPGGA,193910.000,0010.9302,S,07829.0468,W,2,09,0.91,2808.6,M,13.7,M,0000,0000*54

$GPGSV,4,3,13,08,24,197,28,10,16,154,27,01,08,243,18,11,07,224,20*70

$GPGSV,4,4,13,23,02,327,*4E

$GPGSA,A,3,11,27,16,14,26,32,22,01,10,,,,1.28,0.92,0.88*00

$GPRMC,193911.000,A,0010.9301,S,07829.0469,W,0.51,260.65,230217,,,D*65

$GPRMC,193912.000,A,0010.9302,S,07829.0471,W,0.66,245.15,230217,,,D*68

$GPVTG,245.15,T,,M,0.66,N,1.22,K,D*3E

$GPVTG,243.46,T,,M,0.77,N,1.44,K,D*3E

$GPGGA,193914.000,0010.9306,S,07829.0478,W,2,08,0.98,2809.0,M,13.7,M,0000,0000*5A

$GPGGA,193915.000,0010.9312,S,07829.0483,W,2,10,0.87,2809.4,M,13.7,M,0000,0000*59

$GPGSA,A,3,11,27,16,14,26,32,22,08,01,10,,,1.24,0.87,0.88*00

$GPGSV,4,4,13,23,02,327,*4E

$GPRMC,193915.000,A,0010.9312,S,07829.0483,W,1.22,234.14,230217,,,D*65

$GPRMC,193916.000,A,0010.9315,S,07829.0488,W,1.67,236.05,230217,,,D*69

$GPVTG,236.05,T,,M,1.67,N,3.10,K,D*38

$GPVTG,222.06,T,,M,1.86,N,3.45,K,D*31

$GPGGA,193918.000,0010.9324,S,07829.0495,W,2,08,0.98,2809.8,M,13.7,M,0000,0000*5D

$GPGGA,193919.000,0010.9329,S,07829.0498,W,2,08,0.98,2810.0,M,13.7,M,0000,0000*5C

$GPGSA,A,3,27,16,14,26,32,22,01,10,,,,,1.32,0.98,0.89*00

$GPGSA,A,3,11,27,16,14,26,32,22,08,01,10,,,1.24,0.87,0.88*00

$GPGSV,4,1,13,16,64,333,41,51,56,270,32,27,49,161,26,14,47,071,41*71

$GPRMC,193920.000,A,0010.9332,S,07829.0501,W,1.45,233.29,230217,,,D*62

$GPVTG,233.29,T,,M,1.45,N,2.69,K,D*3C

$GPVTG,229.21,T,,M,1.46,N,2.71,K,D*35

$GPGGA,193922.000,0010.9339,S,07829.0506,W,2,10,0.87,2810.4,M,13.7,M,0000,0000*50

$GPGGA,193923.000,0010.9342,S,07829.0507,W,2,10,0.87,2810.6,M,13.7,M,0000,0000*5E

$GPGSA,A,3,11,27,16,14,26,32,22,08,01,10,,,1.24,0.87,0.88*00

$GPGSA,A,3,11,27,16,14,26,32,22,08,01,10,,,1.24,0.87,0.88*00

$GPRMC,193924.000,A,0010.9346,S,07829.0508,W,1.25,188.44,230217,,,D*62

$GPGSV,4,1,13,16,64,333,37,51,56,270,38,27,49,161,29,14,47,071,30*73

$GPGSV,4,2,13,22,44,287,44,26,41,009,39,32,36,105,26,03,29,304,40*7D

$GPVTG,177.84,T,,M,1.72,N,3.19,K,D*3A

$GPGGA,193926.000,0010.9357,S,07829.0508,W,2,10,0.87,2811.2,M,13.7,M,0000,0000*55

$GPGGA,193927.000,0010.9359,S,07829.0512,W,2,10,0.87,2811.3,M,13.7,M,0000,0000*50

$GPGSA,A,3,11,27,16,14,26,32,22,08,01,10,,,1.24,0.87,0.88*00

$GPGSA,A,3,11,27,16,14,26,32,22,08,01,10,,,1.24,0.87,0.88*00

$GPRMC,193928.000,A,0010.9362,S,07829.0514,W,1.08,205.85,230217,,,D*61

$GPRMC,193929.000,A,0010.9367,S,07829.0514,W,1.33,188.54,230217,,,D*67

$GPVTG,188.54,T,,M,1.33,N,2.47,K,D*38

$GPGSV,4,2,13,22,44,287,36,26,41,009,41,32,36,105,33,03,29,304,38*7C

$GPGSV,4,3,13,08,24,197,21,10,16,154,20,01,08,243,23,11,07,224,18*7D

$GPGGA,193931.000,0010.9377,S,07829.0528,W,2,09,0.91,2811.9,M,13.7,M,0000,0000*57

$GPGSA,A,3,27,16,14,26,32,22,08,01,10,,,,1.27,0.91,0.89*05

$GPGSA,A,3,11,27,16,14,26,32,22,08,01,10,,,2.11,1.03,1.84*05

$GPRMC,193932.000,A,0010.9382,S,07829.0540,W,4.30,246.70,230217,,,D*66

$GPRMC,193933.000,A,0010.9389,S,07829.0549,W,3.93,228.56,230217,,,D*67

$GPVTG,228.56,T,,M,3.93,N,7.28,K,D*37

$GPVTG,281.11,T,,M,1.77,N,3.27,K,D*34

$GPGGA,193935.000,0010.9390,S,07829.0555,W,2,10,0.87,2811.9,M,13.7,M,0000,0000*5F

$GPGSV,4,3,13,08,24,197,38,10,15,154,42,01,08,243,35,11,07,224,38*77

$GPGSV,4,4,13,23,02,327,*4E

$GPGSA,A,3,11,27,16,14,26,32,22,08,01,10,,,1.24,0.87,0.88*00

$GPRMC,193936.000,A,0010.9385,S,07829.0552,W,1.98,60.15,230217,,,D*54

$GPRMC,193937.000,A,0010.9387,S,07829.0550,W,1.09,186.25,230217,,,D*67

$GPVTG,186.25,T,,M,1.09,N,2.02,K,D*38

$GPVTG,209.12,T,,M,1.64,N,3.04,K,D*34

$GPGGA,193939.000,0010.9400,S,07829.0561,W,2,09,0.91,2812.7,M,13.7,M,0000,0000*58

$GPGGA,193940.000,0010.9408,S,07829.0570,W,2,09,0.91,2812.9,M,13.7,M,0000,0000*50

$GPGSA,A,3,27,16,14,26,32,22,08,01,10,,,,1.27,0.91,0.89*05

$GPGSV,4,4,13,23,02,327,*4E

$GPRMC,193940.000,A,0010.9408,S,07829.0570,W,4.50,228.67,230217,,,D*6D

$GPRMC,193941.000,A,0010.9416,S,07829.0580,W,3.55,233.12,230217,,,D*66

$GPVTG,233.12,T,,M,3.55,N,6.58,K,D*31

$GPVTG,242.34,T,,M,1.35,N,2.50,K,D*3B

$GPGGA,193943.000,0010.9425,S,07829.0590,W,2,10,0.87,2813.6,M,13.7,M,0000,0000*53

$GPGGA,193944.000,0010.9431,S,07829.0594,W,2,10,0.87,2813.9,M,13.7,M,0000,0000*5A

$GPGSA,A,3,11,27,16,14,26,32,22,08,01,10,,,1.24,0.87,0.88*00

$GPGSA,A,3,11,27,16,14,26,32,22,08,01,10,,,1.24,0.87,0.88*00

$GPGSV,4,1,13,16,64,333,39,51,56,270,31,27,49,161,28,14,47,072,38*7E

$GPRMC,193945.000,A,0010.9438,S,07829.0601,W,2.88,223.44,230217,,,D*67

$GPVTG,223.44,T,,M,2.88,N,5.33,K,D*3C

$GPVTG,211.97,T,,M,3.45,N,6.40,K,D*34

$GPGGA,193947.000,0010.9454,S,07829.0614,W,2,10,0.87,2814.6,M,13.7,M,0000,0000*59

$GPGGA,193948.000,0010.9462,S,07829.0624,W,2,10,1.03,2814.8,M,13.7,M,0000,0000*53

$GPGSA,A,3,11,27,16,14,26,32,22,08,01,10,,,2.11,1.03,1.84*05

$GPGSA,A,3,27,16,14,26,32,22,08,01,10,,,,2.20,1.04,1.94*01

$GPRMC,193949.000,A,0010.9470,S,07829.0633,W,3.84,226.74,230217,,,D*6D

$GPGSV,4,1,13,16,64,333,38,51,56,270,43,27,50,160,36,14,47,072,28*7D

$GPGSV,4,2,13,22,44,286,41,26,41,009,32,32,36,105,24,03,29,304,39*7E

$GPVTG,265.72,T,,M,2.82,N,5.23,K,D*30

$GPGGA,193951.000,0010.9476,S,07829.0652,W,2,10,0.87,2815.2,M,13.7,M,0000,0000*59

$GPGGA,193952.000,0010.9474,S,07829.0658,W,2,10,0.87,2815.4,M,13.7,M,0000,0000*54

$GPGSA,A,3,11,27,16,14,26,32,22,08,01,10,,,1.24,0.87,0.88*00

$GPGSA,A,3,11,27,16,14,26,32,22,08,01,10,,,1.24,0.87,0.88*00

$GPRMC,193953.000,A,0010.9474,S,07829.0663,W,1.70,274.44,230217,,,D*6A

$GPRMC,193954.000,A,0010.9473,S,07829.0667,W,1.62,283.08,230217,,,D*6D

$GPVTG,283.08,T,,M,1.62,N,3.01,K,D*3E

$GPGSV,4,2,13,22,44,286,28,26,41,009,45,32,36,106,41,03,29,304,28*71

$GPGSV,4,3,13,08,24,197,20,10,15,154,27,01,08,243,21,11,07,224,20*71

$GPGGA,193956.000,0010.9481,S,07829.0671,W,2,10,0.87,2816.0,M,13.7,M,0000,0000*56

$GPGSA,A,3,11,27,16,14,26,32,22,08,01,10,,,1.24,0.87,0.88*00

$GPGSA,A,3,11,27,16,14,26,32,22,08,01,10,,,1.24,0.87,0.88*00

$GPRMC,193957.000,A,0010.9486,S,07829.0674,W,2.19,200.70,230217,,,D*6D

$GPRMC,193958.000,A,0010.9492,S,07829.0675,W,2.06,180.91,230217,,,D*6C

$GPVTG,180.91,T,,M,2.06,N,3.81,K,D*37

$GPVTG,205.81,T,,M,2.41,N,4.46,K,D*37

$GPGGA,194000.000,0010.9502,S,07829.0685,W,2,10,0.87,2816.4,M,13.7,M,0000,0000*5E

$GPGSV,4,3,13,08,24,197,42,10,15,154,35,01,08,243,42,11,07,224,40*75

$GPGSV,4,4,13,23,02,327,*4E

$GPGSA,A,3,11,27,03,16,14,26,32,22,08,01,10,,1.19,0.81,0.87*04

$GPRMC,194001.000,A,0010.9500,S,07829.0696,W,4.53,289.74,230217,,,D*6E

$GPRMC,194002.000,A,0010.9495,S,07829.0708,W,4.14,291.11,230217,,,D*6F

$GPVTG,291.11,T,,M,4.14,N,7.68,K,D*3A

$GPVTG,263.56,T,,M,1.91,N,3.53,K,D*30

$GPGGA,194004.000,0010.9496,S,07829.0717,W,2,11,0.81,2816.6,M,13.7,M,0000,0000*59

$GPGGA,194005.000,0010.9497,S,07829.0715,W,2,11,0.81,2816.7,M,13.7,M,0000,0000*5A

$GPGSA,A,3,11,27,03,16,14,26,32,22,08,01,10,,1.19,0.81,0.87*04

$GPGSV,4,4,13,23,02,327,*4E

$GPRMC,194005.000,A,0010.9497,S,07829.0715,W,0.55,136.21,230217,,,D*6A

$GPRMC,194006.000,A,0010.9498,S,07829.0716,W,0.65,213.73,230217,,,D*65

$GPVTG,213.73,T,,M,0.65,N,1.21,K,D*3D

$GPVTG,212.82,T,,M,1.24,N,2.30,K,D*35

$GPGGA,194008.000,0010.9506,S,07829.0722,W,2,11,0.81,2817.1,M,13.7,M,0000,0000*5D

$GPGGA,194009.000,0010.9514,S,07829.0724,W,2,11,0.81,2817.4,M,13.7,M,0000,0000*5C

$GPGSA,A,3,11,27,03,16,14,26,32,22,08,01,10,,1.19,0.81,0.87*04

$GPGSA,A,3,27,03,16,14,26,32,22,08,01,10,,,1.22,0.85,0.88*07

$GPGSV,4,1,13,16,64,333,40,51,56,270,39,27,50,160,30,14,47,072,32*72

$GPRMC,194010.000,A,0010.9523,S,07829.0726,W,4.02,187.00,230217,,,D*6F

$GPVTG,187.00,T,,M,4.02,N,7.44,K,D*37

$GPVTG,186.14,T,,M,4.32,N,8.00,K,D*3F

$GPGGA,194012.000,0010.9545,S,07829.0728,W,2,11,0.96,2818.0,M,13.7,M,0000,0000*53

$GPGGA,194013.000,0010.9552,S,07829.0725,W,2,10,0.88,2818.3,M,13.7,M,0000,0000*54

$GPGSA,A,3,11,27,03,16,14,26,22,08,01,10,,,1.24,0.88,0.88*0D

$GPGSA,A,3,11,27,03,16,14,26,22,08,01,10,,,1.24,0.88,0.88*0D

$GPRMC,194014.000,A,0010.9559,S,07829.0720,W,3.41,142.86,230217,,,D*67

$GPGSV,4,1,13,16,64,334,41,51,56,270,40,27,50,160,29,14,47,072,30*70

$GPGSV,4,2,13,22,44,286,32,26,41,009,40,32,36,106,25,03,29,303,42*76

$GPVTG,196.08,T,,M,3.39,N,6.29,K,D*3A

$GPGGA,194016.000,0010.9578,S,07829.0724,W,2,11,0.81,2819.2,M,13.7,M,0000,0000*50

$GPGGA,194017.000,0010.9587,S,07829.0730,W,2,11,0.81,2819.4,M,13.7,M,0000,0000*52

$GPGSA,A,3,11,27,03,16,14,26,32,22,08,01,10,,1.19,0.81,0.87*04

$GPGSA,A,3,11,27,03,16,14,26,32,22,08,01,10,,2.03,0.96,1.79*0A

$GPRMC,194018.000,A,0010.9599,S,07829.0731,W,4.10,179.98,230217,,,D*63

$GPRMC,194019.000,A,0010.9614,S,07829.0729,W,4.03,184.49,230217,,,D*61

$GPVTG,184.49,T,,M,4.03,N,7.46,K,D*3A

$GPGSV,4,2,13,22,44,286,34,26,41,009,42,32,36,106,42,03,29,303,27*70

$GPGSV,4,3,13,08,24,197,36,10,15,154,36,11,08,224,24,01,08,243,18*77

$GPGGA,194021.000,0010.9622,S,07829.0754,W,2,10,1.03,2819.9,M,13.7,M,0000,0000*5E

$GPGSA,A,3,11,27,16,14,26,32,22,08,01,10,,,2.10,1.03,1.83*03

$GPGSA,A,3,11,27,16,14,26,32,22,08,01,10,,,2.10,1.03,1.83*03

$GPRMC,194022.000,A,0010.9620,S,07829.0765,W,2.82,285.56,230217,,,D*65

$GPRMC,194023.000,A,0010.9615,S,07829.0771,W,3.86,319.22,230217,,,D*65

$GPVTG,319.22,T,,M,3.86,N,7.15,K,D*3D

$GPVTG,358.23,T,,M,4.12,N,7.64,K,D*35

$GPGGA,194025.000,0010.9594,S,07829.0771,W,2,11,0.96,2819.2,M,13.7,M,0000,0000*54

$GPGSV,4,3,13,08,24,197,40,10,15,154,40,11,08,224,33,01,08,243,22*78

$GPGSV,4,4,13,23,02,327,*4E

$GPGSA,A,3,11,27,03,16,14,26,32,22,08,01,10,,2.03,0.96,1.79*0A

$GPRMC,194026.000,A,0010.9588,S,07829.0768,W,1.23,49.26,230217,,,D*50

$GPRMC,194027.000,A,0010.9591,S,07829.0767,W,1.20,179.27,230217,,,D*66

$GPVTG,179.27,T,,M,1.20,N,2.22,K,D*33

$GPVTG,180.08,T,,M,1.98,N,3.66,K,D*3A

$GPGGA,194029.000,0010.9603,S,07829.0765,W,2,11,0.81,2818.1,M,13.7,M,0000,0000*54

$GPGGA,194030.000,0010.9605,S,07829.0760,W,2,11,0.81,2818.2,M,13.7,M,0000,0000*5C

$GPGSA,A,3,11,27,03,16,14,26,32,22,08,01,10,,1.19,0.81,0.87*04

$GPGSV,4,4,13,23,02,327,*4E

$GPRMC,194030.000,A,0010.9605,S,07829.0760,W,3.13,117.92,230217,,,D*6D

$GPRMC,194031.000,A,0010.9610,S,07829.0753,W,3.15,125.88,230217,,,D*64

$GPVTG,125.88,T,,M,3.15,N,5.84,K,D*30

$GPVTG,132.21,T,,M,2.88,N,5.34,K,D*3B

$GPGGA,194033.000,0010.9620,S,07829.0741,W,2,11,0.81,2818.1,M,13.7,M,0000,0000*58

$GPGGA,194034.000,0010.9621,S,07829.0735,W,2,11,0.81,2817.7,M,13.7,M,0000,0000*54

$GPGSA,A,3,11,27,03,16,14,26,32,22,08,01,10,,1.19,0.81,0.87*04

$GPGSA,A,3,11,27,03,16,14,26,32,22,08,01,10,,1.19,0.81,0.87*04

$GPGSV,4,1,13,16,64,334,38,51,56,270,41,27,50,160,37,14,47,072,30*70

$GPRMC,194035.000,A,0010.9619,S,07829.0740,W,1.90,286.42,230217,,,D*68

$GPVTG,286.42,T,,M,1.90,N,3.51,K,D*3D

$GPVTG,224.88,T,,M,1.89,N,3.50,K,D*3A

$GPGGA,194037.000,0010.9624,S,07829.0746,W,2,11,0.81,2817.2,M,13.7,M,0000,0000*53

$GPGGA,194038.000,0010.9631,S,07829.0745,W,2,11,0.81,2817.1,M,13.7,M,0000,0000*58

$GPGSA,A,3,11,27,03,16,14,26,32,22,08,01,10,,1.19,0.81,0.87*04

$GPGSA,A,3,11,27,03,16,14,26,32,22,08,01,10,,1.19,0.81,0.87*04

$GPRMC,194039.000,A,0010.9638,S,07829.0742,W,2.60,165.53,230217,,,D*67

$GPGSV,4,1,13,16,64,334,40,51,56,270,41,27,50,160,32,14,47,072,39*73

$GPGSV,4,2,13,22,44,286,41,26,40,009,40,32,36,106,35,03,29,303,38*7F

$GPVTG,183.47,T,,M,3.97,N,7.36,K,D*3E

$GPGGA,194041.000,0010.9659,S,07829.0743,W,2,11,0.96,2817.0,M,13.7,M,0000,0000*59

$GPGGA,194042.000,0010.9667,S,07829.0746,W,2,11,0.96,2817.1,M,13.7,M,0000,0000*53

$GPGSA,A,3,11,27,03,16,14,26,32,22,08,01,10,,2.03,0.96,1.78*0B

$GPGSA,A,3,11,27,03,16,14,26,32,22,08,01,10,,1.19,0.81,0.87*04

$GPRMC,194043.000,A,0010.9668,S,07829.0750,W,1.60,293.33,230217,,,D*63

$GPRMC,194044.000,A,0010.9665,S,07829.0753,W,2.29,322.22,230217,,,D*6F

$GPVTG,322.22,T,,M,2.29,N,4.25,K,D*31

$GPGSV,4,2,13,22,44,286,40,26,40,009,28,32,36,106,36,03,29,303,30*7B

$GPGSV,4,3,13,08,24,197,43,10,15,154,44,11,08,224,39,01,08,243,26*71

$GPGGA,194046.000,0010.9651,S,07829.0754,W,2,11,0.96,2816.5,M,13.7,M,0000,0000*54

$GPGSA,A,3,11,27,03,16,14,26,32,22,08,01,10,,2.03,0.96,1.78*0B

$GPGSA,A,3,11,27,03,16,14,26,32,22,08,01,10,,2.03,0.96,1.78*0B

$GPRMC,194047.000,A,0010.9643,S,07829.0754,W,2.79,346.49,230217,,,D*65

$GPRMC,194048.000,A,0010.9637,S,07829.0755,W,2.17,346.84,230217,,,D*61

$GPVTG,346.84,T,,M,2.17,N,4.01,K,D*34

$GPVTG,297.86,T,,M,1.89,N,3.50,K,D*3C

$GPGGA,194050.000,0010.9635,S,07829.0763,W,2,11,0.81,2814.9,M,13.7,M,0000,0000*5D

$GPGSV,4,3,13,08,24,197,41,10,15,154,31,11,08,223,39,01,08,243,37*76

$GPGSV,4,4,13,23,02,327,*4E

$GPGSA,A,3,11,27,03,16,14,26,32,22,08,01,10,,1.19,0.81,0.87*04

$GPRMC,194051.000,A,0010.9642,S,07829.0767,W,2.57,189.77,230217,,,D*63

$GPRMC,194052.000,A,0010.9648,S,07829.0767,W,1.50,171.03,230217,,,D*6A

$GPVTG,171.03,T,,M,1.50,N,2.77,K,D*3A

$GPVTG,170.84,T,,M,1.20,N,2.22,K,D*33

$GPGGA,194054.000,0010.9654,S,07829.0767,W,2,11,0.81,2813.9,M,13.7,M,0000,0000*5D

$GPGGA,194055.000,0010.9654,S,07829.0768,W,2,11,0.81,2813.6,M,13.7,M,0000,0000*5C

$GPGSA,A,3,11,27,03,16,14,26,32,22,08,01,10,,1.19,0.81,0.87*04

$GPGSV,4,4,13,23,02,327,*4E

$GPRMC,194055.000,A,0010.9654,S,07829.0768,W,0.63,277.75,230217,,,D*6A

$GPRMC,194056.000,A,0010.9652,S,07829.0769,W,0.90,327.82,230217,,,D*6E

$GPVTG,327.82,T,,M,0.90,N,1.66,K,D*3C

$GPVTG,15.82,T,,M,0.99,N,1.84,K,D*0B

$GPGGA,194058.000,0010.9647,S,07829.0764,W,2,11,0.81,2813.1,M,13.7,M,0000,0000*58

$GPGGA,194059.000,0010.9646,S,07829.0760,W,2,11,0.81,2813.0,M,13.7,M,0000,0000*5D

$GPGSA,A,3,11,27,03,16,14,26,32,22,08,01,10,,1.19,0.81,0.87*04

$GPGSA,A,3,11,27,03,16,14,26,32,22,08,01,10,,1.19,0.81,0.87*04

$GPGSV,4,1,13,16,64,334,38,51,56,270,41,27,50,160,29,14,47,073,29*76

$GPRMC,194100.000,A,0010.9649,S,07829.0752,W,2.41,116.09,230217,,,D*63

$GPVTG,116.09,T,,M,2.41,N,4.47,K,D*37

$GPVTG,127.91,T,,M,2.32,N,4.31,K,D*31

$GPGGA,194102.000,0010.9658,S,07829.0742,W,2,11,0.81,2813.0,M,13.7,M,0000,0000*5D

$GPGGA,194103.000,0010.9665,S,07829.0736,W,2,11,0.81,2813.0,M,13.7,M,0000,0000*51

$GPGSA,A,3,11,27,03,16,14,26,32,22,08,01,10,,1.19,0.81,0.87*04

$GPGSA,A,3,11,27,03,16,14,26,32,22,08,01,10,,2.02,0.96,1.78*0A

$GPRMC,194104.000,A,0010.9673,S,07829.0730,W,2.98,139.80,230217,,,D*62

$GPGSV,4,1,13,16,64,334,40,51,56,270,41,27,50,160,39,14,47,073,38*78

$GPGSV,4,2,13,22,44,286,42,26,40,009,36,32,36,106,41,03,29,303,38*7E

$GPVTG,146.45,T,,M,1.98,N,3.66,K,D*39

$GPGGA,194106.000,0010.9682,S,07829.0719,W,2,11,0.81,2812.4,M,13.7,M,0000,0000*55

$GPGGA,194107.000,0010.9682,S,07829.0713,W,2,11,0.81,2812.3,M,13.7,M,0000,0000*59

$GPGSA,A,3,11,27,03,16,14,26,32,22,08,01,10,,1.19,0.81,0.87*04

$GPGSA,A,3,11,27,03,16,14,26,32,22,08,01,10,,1.19,0.81,0.87*04

$GPRMC,194108.000,A,0010.9680,S,07829.0712,W,1.30,24.98,230217,,,D*57

$GPRMC,194109.000,A,0010.9678,S,07829.0712,W,1.44,295.34,230217,,,D*6C

$GPVTG,295.34,T,,M,1.44,N,2.66,K,D*32

$GPGSV,4,2,13,22,44,286,38,26,40,009,31,32,36,106,39,03,29,303,30*73

$GPGSV,4,3,13,08,24,197,40,10,15,154,42,11,08,223,32,01,08,243,22*7C

$GPGGA,194111.000,0010.9678,S,07829.0718,W,2,11,0.81,2811.8,M,13.7,M,0000,0000*58

$GPGSA,A,3,11,27,03,16,14,26,32,22,08,01,10,,1.19,0.81,0.87*04

$GPGSA,A,3,11,27,03,16,14,26,32,22,08,01,10,,1.19,0.81,0.87*04

$GPRMC,194112.000,A,0010.9680,S,07829.0715,W,2.23,127.38,230217,,,D*62

$GPRMC,194113.000,A,0010.9682,S,07829.0713,W,0.50,261.11,230217,,,D*6B

$GPVTG,261.11,T,,M,0.50,N,0.92,K,D*33

$GPVTG,323.99,T,,M,1.03,N,1.92,K,D*32

$GPGGA,194115.000,0010.9680,S,07829.0713,W,2,11,0.81,2811.6,M,13.7,M,0000,0000*5E

$GPGSV,4,3,13,08,24,197,41,10,15,154,41,11,08,223,37,01,08,242,17*7C

$GPGSV,4,4,13,23,02,328,*41

$GPGSA,A,3,11,27,03,16,14,26,32,22,08,01,10,,1.19,0.81,0.87*04

$GPRMC,194116.000,A,0010.9681,S,07829.0711,W,0.92,101.50,230217,,,D*61

$GPRMC,194117.000,A,0010.9677,S,07829.0710,W,1.53,4.44,230217,,,D*65

$GPVTG,4.44,T,,M,1.53,N,2.83,K,D*32

$GPVTG,305.18,T,,M,1.15,N,2.13,K,D*32

$GPGGA,194119.000,0010.9673,S,07829.0714,W,2,11,0.81,2811.3,M,13.7,M,0000,0000*5C

$GPGGA,194120.000,0010.9675,S,07829.0713,W,2,11,0.81,2811.2,M,13.7,M,0000,0000*56

$GPGSA,A,3,11,27,03,16,14,26,32,22,08,01,10,,1.19,0.81,0.87*04

$GPGSV,4,4,13,23,02,328,*41

$GPRMC,194120.000,A,0010.9675,S,07829.0713,W,2.19,137.05,230217,,,D*69

$GPRMC,194121.000,A,0010.9679,S,07829.0710,W,1.21,147.55,230217,,,D*6D

$GPVTG,147.55,T,,M,1.21,N,2.25,K,D*3D

$GPVTG,238.34,T,,M,1.98,N,3.67,K,D*34

$GPGGA,194123.000,0010.9683,S,07829.0719,W,2,10,0.85,2811.0,M,13.7,M,0000,0000*51

$GPGGA,194124.000,0010.9684,S,07829.0725,W,2,11,0.81,2810.7,M,13.7,M,0000,0000*5D

$GPGSA,A,3,11,27,03,16,14,26,32,22,08,01,10,,1.19,0.81,0.87*04

$GPGSA,A,3,11,27,03,16,14,26,32,22,08,01,10,,1.19,0.81,0.87*04

$GPGSV,4,1,13,16,64,334,33,51,56,270,40,27,50,160,40,14,47,073,27*7D

$GPRMC,194125.000,A,0010.9682,S,07829.0720,W,1.43,63.41,230217,,,D*58

$GPVTG,63.41,T,,M,1.43,N,2.64,K,D*0E

$GPVTG,79.80,T,,M,2.57,N,4.76,K,D*0B

$GPGGA,194127.000,0010.9680,S,07829.0705,W,2,11,0.81,2810.6,M,13.7,M,0000,0000*59

$GPGGA,194128.000,0010.9677,S,07829.0698,W,2,11,0.81,2810.6,M,13.7,M,0000,0000*5B

$GPGSA,A,3,11,27,03,16,14,26,32,22,08,01,10,,1.19,0.81,0.87*04

$GPGSA,A,3,11,27,03,16,14,26,32,22,08,01,10,,1.19,0.81,0.87*04

$GPRMC,194129.000,A,0010.9671,S,07829.0692,W,3.67,32.61,230217,,,D*52

$GPGSV,4,1,13,16,63,334,35,51,56,270,41,27,50,160,38,14,47,073,28*7D

$GPGSV,4,2,13,22,44,286,41,26,40,009,25,32,36,106,38,03,29,303,36*7F

$GPVTG,13.29,T,,M,5.23,N,9.70,K,D*0B

$GPGGA,194131.000,0010.9645,S,07829.0684,W,2,11,0.96,2810.6,M,13.7,M,0000,0000*59

$GPGGA,194132.000,0010.9632,S,07829.0681,W,2,11,0.96,2810.6,M,13.7,M,0000,0000*5F

$GPGSA,A,3,11,27,03,16,14,26,32,22,08,01,10,,2.02,0.96,1.78*0A

$GPGSA,A,3,11,27,03,16,14,26,32,22,08,01,10,,2.02,0.96,1.78*0A

$GPRMC,194133.000,A,0010.9626,S,07829.0682,W,1.23,302.60,230217,,,D*69

$GPRMC,194134.000,A,0010.9626,S,07829.0686,W,1.38,267.05,230217,,,D*61

$GPVTG,267.05,T,,M,1.38,N,2.56,K,D*35

$GPGSV,4,2,13,22,44,285,31,26,40,009,24,32,36,106,43,03,29,303,20*71

$GPGSV,4,3,13,08,25,197,38,10,15,154,41,11,08,223,35,01,08,242,19*7F

$GPGGA,194136.000,0010.9617,S,07829.0707,W,2,10,0.87,2810.9,M,13.7,M,0000,0000*5D

$GPGSA,A,3,11,27,16,14,26,32,22,08,01,10,,,1.23,0.87,0.88*07

$GPGSA,A,3,11,27,03,16,14,26,32,22,08,01,10,,2.02,0.96,1.78*0A

$GPRMC,194137.000,A,0010.9606,S,07829.0720,W,6.03,315.25,230217,,,D*64

$GPRMC,194138.000,A,0010.9594,S,07829.0728,W,4.59,329.09,230217,,,D*67

$GPVTG,329.09,T,,M,4.59,N,8.51,K,D*3D

$GPVTG,334.63,T,,M,4.73,N,8.77,K,D*31

$GPGGA,194140.000,0010.9573,S,07829.0739,W,2,11,0.96,2810.6,M,13.7,M,0000,0000*5E

$GPGSV,4,3,14,08,25,197,39,10,15,154,43,31,13,035,,11,08,223,24*78

$GPGSV,4,4,14,01,08,242,31,23,03,328,*78

$GPGSA,A,3,11,27,03,16,14,26,32,22,08,01,10,,1.19,0.81,0.87*04

$GPRMC,194141.000,A,0010.9573,S,07829.0742,W,1.86,207.17,230217,,,D*69

$GPRMC,194142.000,A,0010.9577,S,07829.0742,W,2.00,183.65,230217,,,D*69

$GPVTG,183.65,T,,M,2.00,N,3.71,K,D*36

$GPVTG,125.19,T,,M,0.89,N,1.66,K,D*36

$GPGGA,194144.000,0010.9580,S,07829.0735,W,2,11,0.81,2810.9,M,13.7,M,0000,0000*53

$GPGGA,194145.000,0010.9578,S,07829.0728,W,2,11,0.81,2811.0,M,13.7,M,0000,0000*51

$GPGSA,A,3,11,27,03,16,14,26,32,22,08,01,10,,1.19,0.81,0.87*04

$GPGSV,4,4,14,01,08,242,37,23,03,328,*7E

$GPRMC,194145.000,A,0010.9578,S,07829.0728,W,2.43,69.10,230217,,,D*5D

$GPRMC,194146.000,A,0010.9576,S,07829.0721,W,2.81,73.33,230217,,,D*5D

$GPVTG,73.33,T,,M,2.81,N,5.20,K,D*00

$GPVTG,73.89,T,,M,5.08,N,9.42,K,D*0F

$GPGGA,194148.000,0010.9568,S,07829.0696,W,2,11,0.96,2811.2,M,13.7,M,0000,0000*5D

$GPGGA,194149.000,0010.9559,S,07829.0682,W,2,11,0.96,2811.3,M,13.7,M,0000,0000*5A

$GPGSA,A,3,11,27,03,16,14,26,32,22,08,01,10,,2.02,0.96,1.77*05

$GPGSA,A,3,11,27,03,16,14,26,32,22,08,01,10,,2.01,0.96,1.77*06

$GPGSV,4,1,14,16,63,334,39,51,56,270,40,27,50,160,38,14,47,073,37*79

$GPRMC,194150.000,A,0010.9556,S,07829.0677,W,0.54,293.86,230217,,,D*62

$GPVTG,293.86,T,,M,0.54,N,1.01,K,D*3F

$GPVTG,212.00,T,,M,1.61,N,2.98,K,D*3C

$GPGGA,194152.000,0010.9560,S,07829.0680,W,2,11,0.81,2811.7,M,13.7,M,0000,0000*5A

$GPGGA,194153.000,0010.9557,S,07829.0677,W,2,11,0.81,2811.8,M,13.7,M,0000,0000*58

$GPGSA,A,3,11,27,03,16,14,26,32,22,08,01,10,,1.19,0.81,0.87*04

$GPGSA,A,3,11,27,16,14,26,32,22,08,01,10,,,1.23,0.87,0.88*07

$GPRMC,194154.000,A,0010.9556,S,07829.0673,W,1.29,78.90,230217,,,D*59

$GPGSV,4,1,14,16,63,334,33,51,56,270,27,27,50,160,42,14,47,073,41*7E

$GPGSV,4,2,14,22,44,285,33,26,40,009,22,32,36,107,43,03,29,302,23*71

$GPVTG,137.04,T,,M,1.45,N,2.69,K,D*34

$GPGGA,194156.000,0010.9566,S,07829.0668,W,2,11,0.81,2811.5,M,13.7,M,0000,0000*5C

$GPGGA,194157.000,0010.9572,S,07829.0669,W,2,11,0.81,2811.4,M,13.7,M,0000,0000*58

$GPGSA,A,3,11,27,03,16,14,26,32,22,08,01,10,,1.19,0.81,0.87*04

$GPGSA,A,3,11,27,03,16,14,26,32,22,08,01,10,,1.19,0.81,0.87*04

$GPRMC,194158.000,A,0010.9579,S,07829.0672,W,2.52,217.17,230217,,,D*62

$GPRMC,194159.000,A,0010.9580,S,07829.0675,W,1.33,317.77,230217,,,D*61

$GPVTG,317.77,T,,M,1.33,N,2.46,K,D*3C

$GPGSV,4,2,14,22,44,285,36,26,40,009,28,32,36,107,31,03,29,302,28*70

$GPGSV,4,3,14,08,25,197,40,10,14,154,42,31,13,035,23,11,08,223,38*7A

$GPGGA,194201.000,0010.9583,S,07829.0675,W,2,10,0.85,2811.2,M,13.7,M,0000,0000*58

$GPGSA,A,3,11,27,03,16,14,26,32,22,08,10,,,1.23,0.85,0.88*07

$GPGSA,A,3,11,27,03,16,14,26,32,22,08,10,01,,1.19,0.81,0.87*04

$GPRMC,194202.000,A,0010.9584,S,07829.0675,W,0.35,217.12,230217,,,D*6D

$GPRMC,194203.000,A,0010.9586,S,07829.0685,W,3.95,252.32,230217,,,D*6B

$GPVTG,252.32,T,,M,3.95,N,7.33,K,D*34

$GPVTG,267.36,T,,M,7.12,N,13.19,K,D*00

$GPGGA,194205.000,0010.9589,S,07829.0719,W,2,11,0.96,2811.4,M,13.7,M,0000,0000*58

$GPGSV,4,3,14,08,25,197,29,10,14,154,31,31,13,035,42,11,08,223,19*75

$GPGSV,4,4,14,01,08,242,16,23,03,328,*7D

$GPGSA,A,3,11,27,03,16,14,26,32,22,08,10,01,,2.01,0.96,1.77*06

$GPRMC,194206.000,A,0010.9590,S,07829.0738,W,7.10,264.21,230217,,,D*60

$GPRMC,194207.000,A,0010.9593,S,07829.0757,W,6.08,261.00,230217,,,D*65

$GPVTG,261.00,T,,M,6.08,N,11.26,K,D*07

$GPVTG,261.09,T,,M,4.52,N,8.37,K,D*3B

$GPGGA,194209.000,0010.9594,S,07829.0778,W,2,11,0.96,2811.5,M,13.7,M,0000,0000*5E

$GPGGA,194210.000,0010.9590,S,07829.0779,W,2,11,0.81,2811.4,M,13.7,M,0000,0000*54

$GPGSA,A,3,11,27,03,16,14,26,32,22,08,10,01,,1.19,0.81,0.87*04

$GPGSV,4,4,14,01,08,242,24,23,03,328,*7C

$GPRMC,194210.000,A,0010.9590,S,07829.0779,W,1.84,356.95,230217,,,D*66

$GPRMC,194211.000,A,0010.9585,S,07829.0779,W,2.04,356.76,230217,,,D*65

$GPVTG,356.76,T,,M,2.04,N,3.79,K,D*32

$GPVTG,359.49,T,,M,1.36,N,2.51,K,D*38

$GPGGA,194213.000,0010.9578,S,07829.0781,W,2,11,0.81,2811.4,M,13.7,M,0000,0000*56

$GPGGA,194214.000,0010.9575,S,07829.0782,W,2,11,0.81,2811.5,M,13.7,M,0000,0000*5E

$GPGSA,A,3,11,27,03,16,14,26,32,22,08,10,01,,1.19,0.81,0.87*04

$GPGSA,A,3,11,27,03,16,14,26,32,22,08,10,01,,2.01,0.95,1.77*05

$GPGSV,4,1,14,16,63,335,42,51,56,270,37,27,50,160,34,14,47,074,40*7F

$GPRMC,194215.000,A,0010.9572,S,07829.0783,W,1.19,332.67,230217,,,D*61

$GPVTG,332.67,T,,M,1.19,N,2.20,K,D*32

$GPVTG,257.29,T,,M,0.06,N,0.12,K,D*36

$GPGGA,194217.000,0010.9572,S,07829.0785,W,2,11,0.81,2811.6,M,13.7,M,0000,0000*5E

$GPGGA,194218.000,0010.9572,S,07829.0783,W,2,11,0.81,2811.6,M,13.7,M,0000,0000*57

$GPGSA,A,3,11,27,03,16,14,26,32,22,08,10,01,,1.19,0.81,0.87*04

$GPGSA,A,3,11,27,03,16,14,26,32,22,08,10,01,,1.19,0.81,0.87*04

$GPRMC,194219.000,A,0010.9573,S,07829.0781,W,1.37,122.91,230217,,,D*68

$GPGSV,4,1,14,16,63,335,42,51,56,270,40,27,50,159,33,14,47,074,30*75

$GPGSV,4,2,14,22,44,285,40,26,40,009,36,32,36,107,25,03,29,302,41*74

$GPVTG,122.33,T,,M,1.85,N,3.42,K,D*30

$GPGGA,194221.000,0010.9575,S,07829.0778,W,2,11,0.81,2811.7,M,13.7,M,0000,0000*5F

$GPGGA,194222.000,0010.9580,S,07829.0773,W,2,11,0.81,2811.7,M,13.7,M,0000,0000*5D

$GPGSA,A,3,11,27,03,16,14,26,32,22,08,10,01,,1.19,0.81,0.87*04

$GPGSA,A,3,11,27,03,16,14,26,32,22,08,10,01,,1.19,0.81,0.87*04

$GPRMC,194223.000,A,0010.9584,S,07829.0769,W,2.12,135.70,230217,,,D*62

$GPRMC,194224.000,A,0010.9589,S,07829.0764,W,2.37,136.12,230217,,,D*65

$GPVTG,136.12,T,,M,2.37,N,4.39,K,D*37

$GPGSV,4,2,14,22,44,285,41,26,40,009,39,32,35,107,23,03,29,302,41*7F

$GPGSV,4,3,14,08,25,197,31,10,14,154,21,31,13,035,31,11,08,223,22*71

$GPGGA,194226.000,0010.9597,S,07829.0758,W,2,11,0.81,2812.1,M,13.7,M,0000,0000*53

$GPGSA,A,3,11,27,03,16,14,26,32,22,08,10,01,,1.19,0.81,0.87*04

$GPGSA,A,3,11,27,03,16,14,26,32,22,08,10,01,,1.19,0.81,0.87*04

$GPRMC,194227.000,A,0010.9602,S,07829.0754,W,2.25,137.41,230217,,,D*61

$GPRMC,194228.000,A,0010.9607,S,07829.0749,W,2.44,129.24,230217,,,D*6C

$GPVTG,129.24,T,,M,2.44,N,4.52,K,D*35

$GPVTG,127.26,T,,M,2.51,N,4.64,K,D*38

$GPGGA,194230.000,0010.9616,S,07829.0738,W,2,11,0.81,2812.1,M,13.7,M,0000,0000*58

$GPGSV,4,3,14,08,25,197,34,10,14,154,22,31,13,035,31,11,08,223,33*77

$GPGSV,4,4,14,01,08,242,25,23,03,328,*7D

$GPGSA,A,3,11,27,03,16,14,26,32,22,08,31,10,01,1.06,0.72,0.79*05

$GPRMC,194231.000,A,0010.9621,S,07829.0731,W,2.89,124.84,230217,,,D*69

$GPRMC,194232.000,A,0010.9626,S,07829.0724,W,2.73,130.99,230217,,,D*65

$GPVTG,130.99,T,,M,2.73,N,5.05,K,D*3C

$GPVTG,141.70,T,,M,3.66,N,6.79,K,D*30

$GPGGA,194234.000,0010.9643,S,07829.0708,W,2,12,0.72,2811.7,M,13.7,M,0000,0000*55

$GPGGA,194235.000,0010.9655,S,07829.0698,W,2,12,0.74,2811.7,M,13.7,M,0000,0000*5D

$GPGSA,A,3,11,27,03,16,14,26,32,22,08,31,10,01,1.47,0.74,1.27*0C

$GPGSV,4,4,14,01,08,242,26,23,03,328,*7E

$GPRMC,194235.000,A,0010.9655,S,07829.0698,W,5.70,139.86,230217,,,D*63

$GPRMC,194236.000,A,0010.9667,S,07829.0689,W,4.68,142.04,230217,,,D*6F

$GPVTG,142.04,T,,M,4.68,N,8.67,K,D*38

$GPVTG,139.62,T,,M,4.90,N,9.08,K,D*3B

$GPGGA,194238.000,0010.9686,S,07829.0671,W,2,12,0.74,2811.7,M,13.7,M,0000,0000*59

$GPGGA,194239.000,0010.9692,S,07829.0666,W,2,12,0.72,2811.7,M,13.7,M,0000,0000*5D

$GPGSA,A,3,11,27,03,16,14,26,32,22,08,31,10,01,1.06,0.72,0.78*04

$GPGSA,A,3,11,27,03,16,14,26,32,22,08,31,10,01,1.06,0.72,0.79*05

$GPGSV,4,1,14,16,63,335,40,51,56,270,42,27,50,159,29,14,47,074,30*7E

$GPRMC,194240.000,A,0010.9697,S,07829.0661,W,2.26,121.63,230217,,,D*6F

$GPVTG,121.63,T,,M,2.26,N,4.19,K,D*35

$GPVTG,110.47,T,,M,1.91,N,3.54,K,D*30

$GPGGA,194242.000,0010.9701,S,07829.0652,W,2,12,0.72,2811.7,M,13.7,M,0000,0000*5D

$GPGGA,194243.000,0010.9703,S,07829.0650,W,2,12,0.72,2811.5,M,13.7,M,0000,0000*5E

$GPGSA,A,3,11,27,03,16,14,26,32,22,08,31,10,01,1.06,0.72,0.78*04

$GPGSA,A,3,11,27,03,16,14,26,32,22,08,31,10,01,1.06,0.72,0.78*04

$GPRMC,194244.000,A,0010.9703,S,07829.0652,W,0.65,284.95,230217,,,D*67

$GPGSV,4,1,14,16,63,335,40,51,56,270,40,27,50,159,39,14,47,074,32*7F

$GPGSV,4,2,14,22,44,285,38,26,40,009,34,32,35,107,28,03,29,302,38*79

$GPVTG,302.38,T,,M,1.52,N,2.81,K,D*3F

$GPGGA,194246.000,0010.9698,S,07829.0659,W,2,12,0.72,2811.1,M,13.7,M,0000,0000*55

$GPGGA,194247.000,0010.9698,S,07829.0665,W,2,12,0.72,2811.1,M,13.7,M,0000,0000*5B

$GPGSA,A,3,11,27,03,16,14,26,32,22,08,31,10,01,1.06,0.72,0.78*04

