
$GPGSA,A,3,10,21,31,25,14,18,,,,,,,1.56,1.24,0.95*00

$GPRMC,153903.000,A,0012.5395,S,07825.1429,W,2.09,128.50,240217,,,A*64

$GPGSV,3,1,10,18,58,053,43,31,56,265,42,51,56,270,40,21,49,182,38*71

$GPGSV,3,2,10,10,45,006,41,25,44,085,41,14,19,319,39,04,,,34*4A

$GPGGA,153905.000,0012.5390,S,07825.1435,W,1,06,1.24,2304.2,M,13.7,M,,*5C

$GPGSA,A,3,10,21,31,25,14,18,,,,,,,1.56,1.24,0.95*00

$GPGSA,A,3,10,21,31,25,14,18,,,,,,,1.56,1.24,0.95*00

$GPRMC,153906.000,A,0012.5389,S,07825.1437,W,0.09,167.39,240217,,,A*65

$GPRMC,153907.000,A,0012.5389,S,07825.1439,W,0.09,232.22,240217,,,A*63

$GPVTG,232.22,T,,M,0.09,N,0.16,K,A*30

$GPVTG,181.71,T,,M,0.19,N,0.36,K,A*3E

$GPGGA,153909.000,0012.5390,S,07825.1443,W,1,06,1.24,2309.1,M,13.7,M,,*5F

$GPGSV,3,3,11,04,,,34,26,,,26,32,,,42*7D

$GPRMC,153909.000,A,0012.5390,S,07825.1443,W,0.03,122.15,240217,,,A*64

$GPRMC,153910.000,A,0012.5389,S,07825.1443,W,0.19,349.29,240217,,,A*6F

$GPVTG,349.29,T,,M,0.19,N,0.36,K,A*35

$GPVTG,354.87,T,,M,1.10,N,2.04,K,A*36

$GPGGA,153912.000,0012.5382,S,07825.1444,W,1,06,1.39,2308.2,M,13.7,M,,*5F

$GPGGA,153913.000,0012.5375,S,07825.1445,W,1,06,1.39,2308.1,M,13.7,M,,*54

$GPGSA,A,3,10,21,31,25,14,18,,,,,,,3.30,1.39,2.99*00

$GPGSA,A,3,10,21,31,25,14,18,,,,,,,3.30,1.39,2.99*00

$GPGSV,3,1,11,18,58,053,42,31,56,265,41,51,56,270,39,21,49,182,36*72

$GPVTG,355.37,T,,M,3.03,N,5.62,K,A*3B

$GPGGA,153915.000,0012.5359,S,07825.1445,W,1,06,1.39,2308.5,M,13.7,M,,*58

$GPGGA,153916.000,0012.5351,S,07825.1443,W,1,06,1.38,2308.8,M,13.7,M,,*59

$GPGSA,A,3,10,21,31,25,14,18,,,,,,,3.29,1.38,2.99*09

$GPGSA,A,3,10,21,31,25,14,18,,,,,,,3.30,1.39,2.99*00

$GPRMC,153917.000,A,0012.5343,S,07825.1443,W,2.90,359.73,240217,,,A*63

$GPRMC,153918.000,A,0012.5335,S,07825.1443,W,2.56,355.94,240217,,,A*62

$GPVTG,355.94,T,,M,2.56,N,4.75,K,A*34

$GPGSV,3,2,11,10,45,006,35,25,44,085,37,14,19,319,38,27,03,249,*72

$GPGSV,3,3,11,04,,,35,26,,,29,32,,,36*70

$GPGSA,A,3,10,21,31,25,14,18,,,,,,,3.29,1.38,2.99*09

$GPRMC,153920.000,A,0012.5322,S,07825.1443,W,2.44,349.87,240217,,,A*63

$GPRMC,153921.000,A,0012.5316,S,07825.1445,W,2.05,351.29,240217,,,A*6B

$GPVTG,351.29,T,,M,2.05,N,3.79,K,A*3B

$GPVTG,4.13,T,,M,2.18,N,4.04,K,A*30

$GPGGA,153923.000,0012.5306,S,07825.1444,W,1,06,1.39,2309.9,M,13.7,M,,*5B

$GPGGA,153924.000,0012.5301,S,07825.1445,W,1,06,1.38,2309.3,M,13.7,M,,*51

$GPGSA,A,3,10,21,31,25,14,18,,,,,,,3.29,1.38,2.98*08

$GPRMC,153924.000,A,0012.5301,S,07825.1445,W,1.32,352.32,240217,,,A*66

$GPVTG,352.32,T,,M,1.32,N,2.45,K,A*3B

$GPVTG,330.13,T,,M,0.37,N,0.69,K,A*34

$GPGGA,153926.000,0012.5299,S,07825.1445,W,1,06,1.24,2309.1,M,13.7,M,,*5C

$GPGGA,153927.000,0012.5300,S,07825.1445,W,1,06,1.24,2309.1,M,13.7,M,,*5C

$GPGSA,A,3,10,21,31,25,14,18,,,,,,,1.56,1.24,0.95*00

$GPGSA,A,3,10,21,31,25,14,18,,,,,,,1.56,1.24,0.95*00

$GPRMC,153928.000,A,0012.5300,S,07825.1445,W,0.03,59.32,240217,,,A*50

$GPGSV,3,1,11,18,58,053,40,31,57,266,41,51,56,270,38,21,49,182,37*72

$GPGSV,3,2,11,10,45,006,35,25,44,085,39,14,19,319,30,27,03,249,*74

$GPGGA,153930.000,0012.5299,S,07825.1447,W,1,06,1.24,2308.6,M,13.7,M,,*5F

$GPGSA,A,3,10,21,31,25,14,18,,,,,,,1.56,1.24,0.95*00

$GPGSA,A,3,10,21,31,25,14,18,,,,,,,1.56,1.24,0.95*00

$GPRMC,153931.000,A,0012.5298,S,07825.1446,W,0.10,289.59,240217,,,A*6B

$GPRMC,153932.000,A,0012.5298,S,07825.1447,W,0.05,199.37,240217,,,A*67

$GPVTG,199.37,T,,M,0.05,N,0.10,K,A*3C

$GPVTG,63.79,T,,M,0.36,N,0.67,K,A*02

$GPGGA,153934.000,0012.5298,S,07825.1445,W,1,06,1.24,2308.1,M,13.7,M,,*5F

$GPGSV,3,3,11,04,,,33,26,,,31,32,,,34*7D

$GPRMC,153934.000,A,0012.5298,S,07825.1445,W,0.22,320.67,240217,,,A*63

$GPRMC,153935.000,A,0012.5297,S,07825.1445,W,0.13,282.31,240217,,,A*65

$GPVTG,282.31,T,,M,0.13,N,0.24,K,A*33

$GPVTG,325.73,T,,M,0.45,N,0.84,K,A*30

$GPGGA,153937.000,0012.5296,S,07825.1446,W,1,06,1.24,2308.1,M,13.7,M,,*51

$GPGGA,153938.000,0012.5296,S,07825.1446,W,1,06,1.24,2308.1,M,13.7,M,,*5E

$GPGSA,A,3,10,21,31,25,14,18,,,,,,,1.56,1.24,0.95*00

$GPGSA,A,3,10,21,31,25,14,18,,,,,,,1.56,1.24,0.95*00

$GPGSV,3,1,11,18,58,053,31,31,57,266,43,51,56,270,41,21,49,182,35*7A

$GPVTG,136.99,T,,M,0.15,N,0.27,K,A*38

$GPGGA,153940.000,0012.5297,S,07825.1446,W,1,06,1.24,2308.1,M,13.7,M,,*50

$GPGGA,153941.000,0012.5297,S,07825.1445,W,1,06,1.24,2308.1,M,13.7,M,,*52

$GPGSA,A,3,10,21,31,25,14,18,,,,,,,1.56,1.24,0.95*00

$GPGSA,A,3,10,21,31,25,14,18,,,,,,,1.56,1.24,0.95*00

$GPRMC,153942.000,A,0012.5298,S,07825.1445,W,0.07,56.02,240217,,,A*54

$GPRMC,153943.000,A,0012.5298,S,07825.1445,W,0.09,26.94,240217,,,A*53

$GPVTG,26.94,T,,M,0.09,N,0.16,K,A*0A

$GPGSV,3,2,11,10,45,006,44,25,44,085,35,14,19,319,22,27,03,249,*7D

$GPGSV,3,3,11,04,,,28,26,,,24,32,,,32*75

$GPGSA,A,3,10,21,31,25,14,18,,,,,,,1.56,1.24,0.95*00

$GPRMC,153945.000,A,0012.5298,S,07825.1444,W,0.16,185.53,240217,,,A*69

$GPRMC,153946.000,A,0012.5298,S,07825.1445,W,0.29,202.58,240217,,,A*60

$GPVTG,202.58,T,,M,0.29,N,0.53,K,A*3D

$GPVTG,156.07,T,,M,0.15,N,0.27,K,A*39

$GPGGA,153948.000,0012.5299,S,07825.1445,W,1,06,1.24,2308.1,M,13.7,M,,*55

$GPGGA,153949.000,0012.5300,S,07825.1445,W,1,06,1.24,2308.1,M,13.7,M,,*55

$GPGSA,A,3,10,21,31,25,14,18,,,,,,,1.56,1.24,0.95*00

$GPRMC,153949.000,A,0012.5300,S,07825.1445,W,0.12,103.24,240217,,,A*6E

$GPVTG,103.24,T,,M,0.12,N,0.22,K,A*3A

$GPVTG,100.73,T,,M,0.54,N,0.99,K,A*39

$GPGGA,153951.000,0012.5300,S,07825.1443,W,1,06,1.24,2308.1,M,13.7,M,,*5A

$GPGGA,153952.000,0012.5300,S,07825.1441,W,1,06,1.24,2308.1,M,13.7,M,,*5B

$GPGSA,A,3,10,21,31,25,14,18,,,,,,,1.56,1.24,0.95*00

$GPGSA,A,3,10,21,31,25,14,18,,,,,,,1.56,1.24,0.95*00

$GPRMC,153953.000,A,0012.5300,S,07825.1441,W,0.85,346.81,240217,,,A*63

$GPGSV,3,1,11,18,58,054,43,31,57,266,35,51,56,270,33,21,49,182,43*7D

$GPGSV,3,2,11,10,45,006,33,25,44,085,41,14,19,319,17,27,03,249,*78

$GPGGA,153955.000,0012.5293,S,07825.1446,W,1,06,1.24,2308.7,M,13.7,M,,*56

$GPGSA,A,3,10,21,31,25,14,18,,,,,,,1.56,1.24,0.95*00

$GPGSA,A,3,10,21,31,25,14,18,,,,,,,1.56,1.24,0.95*00

$GPRMC,153956.000,A,0012.5289,S,07825.1448,W,1.11,325.59,240217,,,A*63

$GPRMC,153957.000,A,0012.5286,S,07825.1451,W,1.07,319.56,240217,,,A*62

$GPVTG,319.56,T,,M,1.07,N,1.98,K,A*33

$GPVTG,332.89,T,,M,1.35,N,2.50,K,A*3E

$GPGGA,153959.000,0012.5277,S,07825.1454,W,1,06,1.24,2309.2,M,13.7,M,,*57

$GPGSV,3,3,11,04,,,44,26,,,39,32,,,22*72

$GPRMC,153959.000,A,0012.5277,S,07825.1454,W,1.70,343.29,240217,,,A*60

$GPRMC,154000.000,A,0012.5273,S,07825.1457,W,1.47,323.23,240217,,,A*6D

$GPVTG,323.23,T,,M,1.47,N,2.73,K,A*3A

$GPVTG,336.40,T,,M,1.25,N,2.31,K,A*39

$GPGGA,154002.000,0012.5267,S,07825.1457,W,1,06,1.24,2309.5,M,13.7,M,,*52

$GPGGA,154003.000,0012.5267,S,07825.1454,W,1,06,1.24,2310.1,M,13.7,M,,*5C

$GPGSA,A,3,10,21,31,25,14,18,,,,,,,1.56,1.24,0.95*00

$GPGSA,A,3,10,21,31,25,14,18,,,,,,,1.56,1.24,0.95*00

$GPGSV,3,1,11,18,58,054,44,31,57,266,32,51,56,270,30,21,49,182,26*7D

$GPVTG,73.29,T,,M,0.35,N,0.65,K,A*07

$GPGGA,154005.000,0012.5267,S,07825.1454,W,1,06,1.24,2310.5,M,13.7,M,,*5E

$GPGGA,154006.000,0012.5267,S,07825.1454,W,1,06,1.24,2310.6,M,13.7,M,,*5E

$GPGSA,A,3,10,21,31,25,14,18,,,,,,,1.56,1.24,0.95*00

$GPGSA,A,3,10,21,31,25,14,18,,,,,,,1.56,1.24,0.95*00

$GPRMC,154007.000,A,0012.5266,S,07825.1453,W,0.04,206.92,240217,,,A*60

$GPRMC,154008.000,A,0012.5266,S,07825.1453,W,0.03,187.43,240217,,,A*6E

$GPVTG,187.43,T,,M,0.03,N,0.05,K,A*32

$GPGSV,3,2,11,10,45,006,47,25,44,084,39,14,19,319,36,27,03,248,*77

$GPGSV,3,3,11,04,,,26,26,,,24,32,,,32*7B

$GPGSA,A,3,10,21,31,25,14,18,,,,,,,1.56,1.24,0.95*00

$GPRMC,154010.000,A,0012.5266,S,07825.1453,W,0.02,208.75,240217,,,A*67

$GPRMC,154011.000,A,0012.5266,S,07825.1454,W,0.01,282.16,240217,,,A*65

$GPVTG,282.16,T,,M,0.01,N,0.02,K,A*31

$GPVTG,114.75,T,,M,0.02,N,0.03,K,A*3A

$GPGGA,154013.000,0012.5266,S,07825.1454,W,1,06,1.24,2310.6,M,13.7,M,,*5B

$GPGGA,154014.000,0012.5266,S,07825.1454,W,1,06,1.24,2310.6,M,13.7,M,,*5C

$GPGSA,A,3,10,21,31,25,14,18,,,,,,,1.56,1.24,0.95*00

$GPRMC,154014.000,A,0012.5266,S,07825.1454,W,0.35,296.63,240217,,,A*60

$GPVTG,296.63,T,,M,0.35,N,0.65,K,A*30

$GPVTG,316.55,T,,M,0.23,N,0.42,K,A*3E

$GPGGA,154016.000,0012.5266,S,07825.1455,W,1,06,1.24,2310.6,M,13.7,M,,*5F

$GPGGA,154017.000,0012.5266,S,07825.1455,W,1,06,1.24,2310.6,M,13.7,M,,*5E

$GPGSA,A,3,10,21,31,25,14,18,,,,,,,1.56,1.24,0.95*00

$GPGSA,A,3,10,21,31,25,14,18,,,,,,,1.56,1.24,0.95*00

$GPRMC,154018.000,A,0012.5266,S,07825.1455,W,0.07,28.70,240217,,,A*59

$GPGSV,3,1,11,18,58,054,45,31,57,266,33,51,56,270,31,21,49,182,31*7A

$GPGSV,3,2,11,10,45,006,46,25,44,084,41,14,19,319,32,27,03,248,*7D

$GPGGA,154020.000,0012.5265,S,07825.1454,W,1,06,1.24,2310.6,M,13.7,M,,*58

$GPGSA,A,3,10,21,31,25,14,18,,,,,,,1.56,1.24,0.95*00

$GPGSA,A,3,10,21,31,25,14,18,,,,,,,1.56,1.24,0.95*00

$GPRMC,154021.000,A,0012.5265,S,07825.1454,W,0.12,102.75,240217,,,A*69

$GPRMC,154022.000,A,0012.5265,S,07825.1454,W,0.27,333.70,240217,,,A*69

$GPVTG,333.70,T,,M,0.27,N,0.50,K,A*39

$GPVTG,334.89,T,,M,0.04,N,0.07,K,A*3B

$GPGGA,154024.000,0012.5264,S,07825.1454,W,1,06,1.24,2310.6,M,13.7,M,,*5D

$GPGSV,3,3,11,04,,,26,26,,,18,32,,,29*7E

$GPRMC,154024.000,A,0012.5264,S,07825.1454,W,0.33,249.26,240217,,,A*64

$GPRMC,154025.000,A,0012.5265,S,07825.1455,W,0.12,184.27,240217,,,A*65

$GPVTG,184.27,T,,M,0.12,N,0.23,K,A*37

$GPVTG,125.99,T,,M,0.13,N,0.23,K,A*38

$GPGGA,154027.000,0012.5265,S,07825.1455,W,1,07,1.17,2310.6,M,13.7,M,,*5F

$GPGGA,154028.000,0012.5265,S,07825.1455,W,1,07,1.17,2310.6,M,13.7,M,,*50

$GPGSA,A,3,10,21,31,25,14,18,32,,,,,,1.50,1.17,0.94*06

$GPGSA,A,3,10,21,31,25,14,18,32,,,,,,1.50,1.17,0.94*06

$GPGSV,3,1,10,18,58,054,35,31,57,266,32,51,56,270,32,21,49,182,29*77

$GPVTG,113.40,T,,M,0.06,N,0.11,K,A*3C

$GPGGA,154030.000,0012.5265,S,07825.1455,W,1,07,1.17,2310.7,M,13.7,M,,*58

$GPGGA,154031.000,0012.5265,S,07825.1455,W,1,07,1.36,2310.7,M,13.7,M,,*5A

$GPGSA,A,3,10,21,31,25,14,18,32,,,,,,3.05,1.36,2.73*0C

$GPGSA,A,3,10,21,31,25,14,18,32,,,,,,3.05,1.36,2.73*0C

$GPRMC,154032.000,A,0012.5265,S,07825.1455,W,0.32,102.55,240217,,,A*6A

$GPRMC,154033.000,A,0012.5265,S,07825.1454,W,0.45,147.83,240217,,,A*60

$GPVTG,147.83,T,,M,0.45,N,0.84,K,A*39

$GPGSV,3,2,10,10,45,007,45,25,44,084,39,32,22,344,26,14,19,319,40*7A

$GPGSV,3,3,10,27,03,248,,26,,,19*4C

$GPGSA,A,3,10,21,31,25,14,18,32,,,,,,1.50,1.17,0.94*06

$GPRMC,154035.000,A,0012.5266,S,07825.1453,W,0.15,250.23,240217,,,A*68

$GPRMC,154036.000,A,0012.5267,S,07825.1454,W,0.16,218.79,240217,,,A*6D

$GPVTG,218.79,T,,M,0.16,N,0.30,K,A*3C

$GPVTG,115.08,T,,M,0.36,N,0.67,K,A*34

$GPGGA,154038.000,0012.5267,S,07825.1454,W,1,07,1.17,2310.7,M,13.7,M,,*53

$GPGGA,154039.000,0012.5268,S,07825.1455,W,1,07,1.17,2310.7,M,13.7,M,,*5C

$GPGSA,A,3,10,21,31,25,14,18,32,,,,,,1.50,1.17,0.94*06

$GPRMC,154039.000,A,0012.5268,S,07825.1455,W,0.18,105.42,240217,,,A*65

$GPVTG,105.42,T,,M,0.18,N,0.33,K,A*36

$GPVTG,108.72,T,,M,0.23,N,0.42,K,A*36

$GPGGA,154041.000,0012.5270,S,07825.1459,W,1,07,1.17,2311.1,M,13.7,M,,*51

$GPGGA,154042.000,0012.5265,S,07825.1465,W,1,07,1.17,2311.3,M,13.7,M,,*5B

$GPGSA,A,3,10,21,31,25,14,18,32,,,,,,1.50,1.17,0.94*06

$GPGSA,A,3,10,21,31,25,14,18,32,,,,,,1.50,1.17,0.94*06

$GPRMC,154043.000,A,0012.5248,S,07825.1478,W,10.74,320.89,240217,,,A*5C

$GPGSV,3,1,12,18,58,054,38,31,57,266,32,51,56,270,31,21,49,181,42*75

$GPGSV,3,2,12,10,45,007,31,25,44,084,35,32,22,344,28,14,19,319,21*7E

$GPGGA,154045.000,0012.5197,S,07825.1516,W,1,06,1.24,2311.8,M,13.7,M,,*5D

$GPGSA,A,3,10,21,31,25,14,18,,,,,,,1.56,1.24,0.95*00

$GPGSA,A,3,10,21,31,25,14,18,,,,,,,1.56,1.24,0.95*00

$GPRMC,154046.000,A,0012.5181,S,07825.1513,W,4.37,78.48,240217,,,A*52

$GPRMC,154047.000,A,0012.5180,S,07825.1498,W,8.78,107.78,240217,,,A*6D

$GPVTG,107.78,T,,M,8.78,N,16.26,K,A*00

$GPVTG,115.58,T,,M,13.77,N,25.51,K,A*34

$GPGGA,154049.000,0012.5201,S,07825.1445,W,1,07,1.17,2311.7,M,13.7,M,,*54

$GPGSV,3,3,12,29,10,140,23,27,03,248,,26,,,27,12,,,26*7A

$GPRMC,154049.000,A,0012.5201,S,07825.1445,W,10.76,109.90,240217,,,A*56

$GPRMC,154050.000,A,0012.5214,S,07825.1425,W,7.26,145.64,240217,,,A*6C

$GPVTG,145.64,T,,M,7.26,N,13.45,K,A*0F

$GPVTG,160.16,T,,M,4.06,N,7.53,K,A*3E

$GPGGA,154052.000,0012.5234,S,07825.1424,W,1,07,1.36,2311.3,M,13.7,M,,*58

$GPGGA,154053.000,0012.5242,S,07825.1429,W,1,07,1.17,2311.2,M,13.7,M,,*57

$GPGSA,A,3,10,21,31,25,14,18,32,,,,,,1.50,1.17,0.94*06

$GPGSA,A,3,10,21,31,25,14,18,32,,,,,,1.50,1.17,0.94*06

$GPGSV,3,1,12,18,58,054,40,31,57,267,36,51,56,270,33,21,49,181,27*7E

$GPVTG,199.53,T,,M,2.71,N,5.03,K,A*38

$GPGGA,154055.000,0012.5253,S,07825.1440,W,1,07,1.17,2311.1,M,13.7,M,,*5D

$GPGGA,154056.000,0012.5259,S,07825.1444,W,1,07,1.17,2311.0,M,13.7,M,,*51

$GPGSA,A,3,10,21,31,25,14,18,32,,,,,,1.50,1.17,0.94*06

$GPGSA,A,3,10,21,31,25,14,18,32,,,,,,1.50,1.17,0.94*06

$GPRMC,154057.000,A,0012.5264,S,07825.1448,W,1.80,199.53,240217,,,A*68

$GPRMC,154058.000,A,0012.5267,S,07825.1450,W,1.83,199.53,240217,,,A*6E

$GPVTG,199.53,T,,M,1.83,N,3.40,K,A*37

$GPGSV,3,2,12,10,45,007,46,25,44,084,40,32,22,344,26,14,19,319,37*75

$GPGSV,3,3,12,29,10,140,22,27,03,248,,26,,,21,12,,,41*7C

$GPGSA,A,3,10,21,31,25,14,18,32,,,,,,1.50,1.17,0.94*06

$GPRMC,154100.000,A,0012.5276,S,07825.1458,W,2.49,199.53,240217,,,A*6F

$GPRMC,154101.000,A,0012.5278,S,07825.1461,W,1.85,199.53,240217,,,A*69

$GPVTG,199.53,T,,M,1.85,N,3.43,K,A*32

$GPVTG,199.53,T,,M,1.26,N,2.33,K,A*3D

$GPGGA,154103.000,0012.5278,S,07825.1467,W,1,07,1.17,2311.3,M,13.7,M,,*51

$GPGGA,154104.000,0012.5275,S,07825.1470,W,1,07,1.17,2311.3,M,13.7,M,,*5D

$GPGSA,A,3,10,21,31,25,14,18,32,,,,,,1.50,1.17,0.94*06

$GPRMC,154104.000,A,0012.5275,S,07825.1470,W,1.64,199.53,240217,,,A*6E

$GPVTG,199.53,T,,M,1.64,N,3.05,K,A*3F

$GPVTG,335.21,T,,M,9.22,N,17.08,K,A*0C

$GPGGA,154106.000,0012.5243,S,07825.1485,W,1,07,1.17,2311.6,M,13.7,M,,*55

$GPGGA,154107.000,0012.5212,S,07825.1499,W,1,07,1.17,2311.9,M,13.7,M,,*52

$GPGSA,A,3,10,21,31,25,14,18,32,,,,,,1.50,1.17,0.94*06

$GPGSA,A,3,10,21,31,25,14,18,32,,,,,,1.50,1.17,0.94*06

$GPRMC,154108.000,A,0012.5186,S,07825.1518,W,10.58,319.71,240217,,,A*57

$GPGSV,3,1,12,18,58,055,40,31,57,267,36,51,56,270,33,21,49,181,40*7E

$GPGSV,3,2,12,10,45,007,32,25,44,084,39,32,22,344,38,14,19,319,35*75

$GPGGA,154110.000,0012.5214,S,07825.1544,W,1,07,1.36,2312.5,M,13.7,M,,*5F

$GPGSA,A,3,10,21,31,25,14,18,32,,,,,,3.03,1.36,2.71*08

$GPGSA,A,3,10,21,31,25,14,18,32,,,,,,1.50,1.17,0.94*06

$GPRMC,154111.000,A,0012.5243,S,07825.1551,W,9.81,192.13,240217,,,A*61

$GPRMC,154112.000,A,0012.5262,S,07825.1559,W,6.82,209.06,240217,,,A*60

$GPVTG,209.06,T,,M,6.82,N,12.64,K,A*0D

$GPVTG,209.06,T,,M,2.58,N,4.78,K,A*34

$GPGGA,154114.000,0012.5273,S,07825.1555,W,1,07,1.17,2312.3,M,13.7,M,,*5F

$GPGSV,3,3,12,29,10,140,25,27,03,248,,26,,,35,12,,,23*7A

$GPRMC,154114.000,A,0012.5273,S,07825.1555,W,2.60,209.06,240217,,,A*62

$GPRMC,154115.000,A,0012.5274,S,07825.1549,W,2.34,209.06,240217,,,A*68

$GPVTG,209.06,T,,M,2.34,N,4.33,K,A*31

$GPVTG,209.06,T,,M,2.38,N,4.41,K,A*38

$GPGGA,154117.000,0012.5271,S,07825.1537,W,1,07,1.17,2311.8,M,13.7,M,,*52

$GPGGA,154118.000,0012.5273,S,07825.1528,W,1,07,1.17,2311.8,M,13.7,M,,*51

$GPGSA,A,3,10,21,31,25,14,18,32,,,,,,1.50,1.17,0.94*06

$GPGSA,A,3,10,21,31,25,14,18,32,,,,,,1.50,1.17,0.94*06

$GPGSV,3,1,12,18,58,055,32,31,57,267,44,51,56,270,41,21,48,181,37*7A

$GPVTG,209.06,T,,M,2.86,N,5.30,K,A*3A

$GPGGA,154120.000,0012.5275,S,07825.1515,W,1,07,1.17,2311.5,M,13.7,M,,*5F

$GPGGA,154121.000,0012.5275,S,07825.1511,W,1,07,1.17,2311.2,M,13.7,M,,*5D

$GPGSA,A,3,10,21,31,25,14,18,32,,,,,,1.50,1.17,0.94*06

$GPGSA,A,3,10,21,31,25,14,18,32,,,,,,1.50,1.17,0.94*06

$GPRMC,154122.000,A,0012.5275,S,07825.1506,W,3.33,108.84,240217,,,A*68

$GPRMC,154123.000,A,0012.5276,S,07825.1500,W,3.80,112.35,240217,,,A*65

$GPVTG,112.35,T,,M,3.80,N,7.04,K,A*31

$GPGSV,3,2,12,10,45,007,36,25,44,083,27,32,22,344,38,14,19,319,41*7A

$GPGSV,3,3,12,29,10,139,22,27,03,248,,26,,,36,12,,,23*70

$GPGSA,A,3,10,21,31,25,14,18,32,,,,,,1.50,1.17,0.94*06

$GPRMC,154125.000,A,0012.5283,S,07825.1484,W,3.03,112.51,240217,,,D*68

$GPRMC,154126.000,A,0012.5286,S,07825.1476,W,2.65,112.51,240217,,,D*62

$GPVTG,112.51,T,,M,2.65,N,4.92,K,D*30

$GPVTG,112.51,T,,M,1.72,N,3.18,K,D*30

$GPGGA,154128.000,0012.5283,S,07825.1463,W,2,07,1.17,2307.6,M,13.7,M,0000,0000*59

$GPGGA,154129.000,0012.5275,S,07825.1466,W,2,07,1.17,2307.0,M,13.7,M,0000,0000*52

$GPGSA,A,3,10,21,31,25,14,18,32,,,,,,1.50,1.17,0.94*06

$GPRMC,154129.000,A,0012.5275,S,07825.1466,W,5.00,317.53,240217,,,D*61

$GPVTG,317.53,T,,M,5.00,N,9.27,K,D*32

$GPVTG,321.06,T,,M,9.79,N,18.14,K,D*05

$GPGGA,154131.000,0012.5230,S,07825.1501,W,2,07,1.17,2306.3,M,13.7,M,0000,0000*58

$GPGGA,154132.000,0012.5198,S,07825.1523,W,2,07,1.17,2306.1,M,13.7,M,0000,0000*58

$GPGSA,A,3,10,21,31,25,14,18,32,,,,,,1.50,1.17,0.94*06

$GPGSA,A,3,10,21,31,25,14,18,32,,,,,,1.50,1.17,0.94*06

$GPRMC,154133.000,A,0012.5174,S,07825.1538,W,7.86,335.00,240217,,,D*68

$GPGSV,3,1,12,18,58,055,38,31,57,268,43,51,56,270,39,21,48,181,42*75

$GPGSV,3,2,12,10,45,007,40,25,44,083,35,32,22,344,29,14,19,319,24*7B

$GPGGA,154135.000,0012.5169,S,07825.1508,W,2,07,1.17,2304.7,M,13.7,M,0000,0000*5C

$GPGSA,A,3,10,21,31,25,14,18,32,,,,,,1.50,1.17,0.94*06

$GPGSA,A,3,10,21,31,25,14,18,32,,,,,,1.50,1.17,0.94*06

$GPRMC,154136.000,A,0012.5181,S,07825.1478,W,12.20,112.64,240217,,,D*5F

$GPRMC,154137.000,A,0012.5193,S,07825.1447,W,11.13,111.08,240217,,,D*5B

$GPVTG,111.08,T,,M,11.13,N,20.62,K,D*35

$GPVTG,126.04,T,,M,5.92,N,10.98,K,D*07

$GPGGA,154139.000,0012.5214,S,07825.1419,W,2,07,1.17,2301.7,M,13.7,M,0000,0000*5D

$GPGSV,3,3,12,29,10,139,18,27,03,248,,26,,,26,12,,,35*7F

$GPRMC,154139.000,A,0012.5214,S,07825.1419,W,3.18,142.01,240217,,,D*65

$GPRMC,154140.000,A,0012.5221,S,07825.1418,W,2.53,142.01,240217,,,D*62

$GPVTG,142.01,T,,M,2.53,N,4.70,K,D*39

$GPVTG,142.01,T,,M,2.77,N,5.14,K,D*3C

$GPGGA,154142.000,0012.5235,S,07825.1422,W,2,07,1.17,2299.9,M,13.7,M,0000,0000*54

$GPGGA,154143.000,0012.5239,S,07825.1425,W,2,07,1.17,2299.5,M,13.7,M,0000,0000*52

$GPGSA,A,3,10,21,31,25,14,18,32,,,,,,1.50,1.17,0.94*06

$GPGSA,A,3,10,21,31,25,14,18,32,,,,,,1.50,1.17,0.94*06

$GPGSV,3,1,12,18,58,055,43,31,57,268,37,51,56,270,33,21,48,181,28*7C

$GPVTG,142.01,T,,M,1.73,N,3.21,K,D*3B

$GPGGA,154145.000,0012.5252,S,07825.1428,W,2,07,1.17,2299.0,M,13.7,M,0000,0000*51

$GPGGA,154146.000,0012.5259,S,07825.1430,W,2,07,1.17,2298.7,M,13.7,M,0000,0000*56

$GPGSA,A,3,10,21,31,25,14,18,32,,,,,,1.50,1.17,0.94*06

$GPGSA,A,3,10,21,31,25,14,18,32,,,,,,1.50,1.17,0.94*06

$GPRMC,154147.000,A,0012.5265,S,07825.1434,W,2.16,142.01,240217,,,D*6A

$GPRMC,154148.000,A,0012.5268,S,07825.1439,W,2.17,142.01,240217,,,D*64

$GPVTG,142.01,T,,M,2.17,N,4.01,K,D*3F

$GPGSV,3,2,12,10,46,007,46,25,44,083,42,32,22,344,24,14,19,320,36*7A

$GPGSV,3,3,12,29,10,139,23,27,03,248,,26,,,22,12,,,41*70

$GPGSA,A,3,10,21,31,25,14,18,32,,,,,,1.50,1.17,0.94*06

$GPRMC,154150.000,A,0012.5277,S,07825.1451,W,1.91,142.01,240217,,,D*60

$GPRMC,154151.000,A,0012.5279,S,07825.1453,W,1.18,142.01,240217,,,D*6C

$GPVTG,142.01,T,,M,1.18,N,2.19,K,D*3C

$GPVTG,321.53,T,,M,3.20,N,5.93,K,D*30

$GPGGA,154153.000,0012.5260,S,07825.1471,W,2,07,1.17,2297.4,M,13.7,M,0000,0000*51

$GPGGA,154154.000,0012.5234,S,07825.1488,W,2,07,1.17,2297.2,M,13.7,M,0000,0000*57

$GPGSA,A,3,10,21,31,25,14,18,32,,,,,,1.50,1.17,0.94*06

$GPRMC,154154.000,A,0012.5234,S,07825.1488,W,11.87,324.55,240217,,,D*52

$GPVTG,324.55,T,,M,11.87,N,22.00,K,D*32

$GPVTG,324.82,T,,M,11.94,N,22.12,K,D*39

$GPGGA,154156.000,0012.5182,S,07825.1525,W,2,07,1.17,2296.7,M,13.7,M,0000,0000*59

$GPGGA,154157.000,0012.5185,S,07825.1542,W,2,07,1.17,2296.7,M,13.7,M,0000,0000*5E

$GPGSA,A,3,10,21,31,25,14,18,32,,,,,,1.50,1.17,0.94*06

$GPGSA,A,3,10,21,31,25,14,18,32,,,,,,3.00,1.35,2.68*00

$GPRMC,154158.000,A,0012.5211,S,07825.1552,W,11.62,191.56,240217,,,D*5B

$GPGSV,3,1,12,18,58,055,41,31,57,268,35,51,56,270,36,21,48,181,30*70

$GPGSV,3,2,12,10,46,007,47,25,44,083,35,32,22,345,39,14,19,320,34*74

$GPGGA,154200.000,0012.5263,S,07825.1560,W,2,07,1.17,2296.7,M,13.7,M,0000,0000*54

$GPGSA,A,3,10,21,31,25,14,18,32,,,,,,1.50,1.17,0.94*06

$GPGSA,A,3,10,21,31,25,14,18,32,,,,,,3.00,1.35,2.68*00

$GPRMC,154201.000,A,0012.5270,S,07825.1558,W,3.06,133.37,240217,,,D*67

$GPRMC,154202.000,A,0012.5274,S,07825.1554,W,2.29,133.37,240217,,,D*60

$GPVTG,133.37,T,,M,2.29,N,4.25,K,D*37

$GPVTG,133.37,T,,M,2.37,N,4.38,K,D*34

$GPGGA,154204.000,0012.5279,S,07825.1543,W,2,07,1.17,2295.7,M,13.7,M,0000,0000*59

$GPGSV,3,3,12,29,10,139,27,27,03,247,,26,,,38,12,,,23*74

$GPRMC,154204.000,A,0012.5279,S,07825.1543,W,2.83,133.37,240217,,,D*6D

$GPRMC,154205.000,A,0012.5282,S,07825.1535,W,2.88,104.95,240217,,,D*6E

$GPVTG,104.95,T,,M,2.88,N,5.34,K,D*31

$GPVTG,104.80,T,,M,2.95,N,5.47,K,D*3D

$GPGGA,154207.000,0012.5288,S,07825.1518,W,2,07,1.17,2295.5,M,13.7,M,0000,0000*58

$GPGGA,154208.000,0012.5289,S,07825.1511,W,2,07,1.17,2295.4,M,13.7,M,0000,0000*5E

$GPGSA,A,3,10,21,31,25,14,18,32,,,,,,1.50,1.17,0.94*06

$GPGSA,A,3,10,21,31,25,14,18,32,,,,,,1.50,1.17,0.94*06

$GPGSV,3,1,12,18,58,055,32,31,57,268,45,51,56,270,43,21,48,181,38*79

$GPVTG,107.70,T,,M,2.94,N,5.44,K,D*33

$GPGGA,154210.000,0012.5293,S,07825.1497,W,2,07,1.17,2294.6,M,13.7,M,0000,0000*50

$GPGGA,154211.000,0012.5297,S,07825.1491,W,2,07,1.17,2294.3,M,13.7,M,0000,0000*56

$GPGSA,A,3,10,21,31,25,14,18,32,,,,,,1.50,1.17,0.94*06

$GPGSA,A,3,10,21,31,25,14,18,32,,,,,,1.50,1.17,0.94*06

$GPRMC,154212.000,A,0012.5300,S,07825.1484,W,3.03,115.58,240217,,,D*6B

$GPRMC,154213.000,A,0012.5303,S,07825.1478,W,3.03,115.21,240217,,,D*64

$GPVTG,115.21,T,,M,3.03,N,5.62,K,D*3F

$GPGSV,3,2,12,10,46,007,39,25,44,083,28,32,22,345,39,14,19,320,40*72

$GPGSV,3,3,12,29,10,139,20,27,03,247,,26,,,40,12,,,23*7C

$GPGSA,A,3,10,21,31,25,14,18,32,,,,,,1.50,1.18,0.94*09

$GPRMC,154215.000,A,0012.5308,S,07825.1463,W,3.01,105.30,240217,,,D*60

$GPRMC,154216.000,A,0012.5307,S,07825.1456,W,2.77,105.30,240217,,,D*6A

$GPVTG,105.30,T,,M,2.77,N,5.13,K,D*3A

$GPVTG,105.30,T,,M,2.22,N,4.12,K,D*3A

$GPGGA,154218.000,0012.5295,S,07825.1454,W,2,07,1.17,2293.6,M,13.7,M,0000,0000*56

$GPGGA,154219.000,0012.5267,S,07825.1469,W,2,08,1.03,2293.9,M,13.7,M,0000,0000*51

$GPGSA,A,3,10,21,31,25,14,26,18,32,,,,,1.36,1.03,0.90*03

$GPRMC,154219.000,A,0012.5267,S,07825.1469,W,9.57,324.33,240217,,,D*65

$GPVTG,324.33,T,,M,9.57,N,17.74,K,D*03

$GPVTG,321.74,T,,M,11.84,N,21.93,K,D*3E

$GPGGA,154221.000,0012.5203,S,07825.1508,W,2,08,1.03,2294.3,M,13.7,M,0000,0000*53

$GPGGA,154222.000,0012.5175,S,07825.1526,W,2,08,1.03,2294.5,M,13.7,M,0000,0000*58

$GPGSA,A,3,10,21,31,25,14,26,18,32,,,,,1.36,1.03,0.90*03

$GPGSA,A,3,10,21,31,25,14,26,18,32,,,,,1.36,1.03,0.90*03

$GPRMC,154223.000,A,0012.5162,S,07825.1524,W,4.11,57.46,240217,,,D*58

$GPGSV,3,1,12,18,58,056,37,31,57,268,42,51,56,270,41,21,48,181,40*75

$GPGSV,3,2,12,10,46,007,41,25,44,083,36,26,24,199,31,32,22,345,30*72

$GPGGA,154225.000,0012.5179,S,07825.1481,W,2,08,1.03,2295.1,M,13.7,M,0000,0000*5A

$GPGSA,A,3,10,21,31,25,14,26,18,32,,,,,1.36,1.03,0.90*03

$GPGSA,A,3,10,21,31,25,14,26,18,32,,,,,2.33,1.11,2.05*08

$GPRMC,154226.000,A,0012.5196,S,07825.1453,W,10.30,119.60,240217,,,D*5E

$GPRMC,154227.000,A,0012.5209,S,07825.1429,W,7.89,115.17,240217,,,D*6F

$GPVTG,115.17,T,,M,7.89,N,14.62,K,D*0C

$GPVTG,137.50,T,,M,4.59,N,8.50,K,D*3D

$GPGGA,154229.000,0012.5226,S,07825.1414,W,2,08,1.11,2296.1,M,13.7,M,0000,0000*53

$GPGSV,3,3,12,14,19,320,37,29,10,139,22,27,03,247,,12,,,29*4C

$GPRMC,154229.000,A,0012.5226,S,07825.1414,W,2.58,137.50,240217,,,D*68

$GPRMC,154230.000,A,0012.5233,S,07825.1416,W,2.62,137.50,240217,,,D*6F

$GPVTG,137.50,T,,M,2.62,N,4.85,K,D*37

$GPVTG,214.81,T,,M,3.20,N,5.92,K,D*39

$GPGGA,154232.000,0012.5243,S,07825.1425,W,2,08,1.03,2296.5,M,13.7,M,0000,0000*5F

$GPGGA,154233.000,0012.5248,S,07825.1429,W,2,08,1.03,2296.8,M,13.7,M,0000,0000*54

$GPGSA,A,3,10,21,31,25,14,26,18,32,,,,,1.36,1.03,0.90*03

$GPGSA,A,3,10,21,31,25,14,26,18,32,,,,,1.36,1.03,0.90*03

$GPGSV,3,1,12,18,58,056,43,31,57,269,36,51,56,270,33,21,48,181,27*70

$GPVTG,214.81,T,,M,2.17,N,4.03,K,D*35

$GPGGA,154235.000,0012.5255,S,07825.1437,W,2,08,1.03,2297.2,M,13.7,M,0000,0000*5A

$GPGGA,154236.000,0012.5260,S,07825.1441,W,2,08,1.03,2297.6,M,13.7,M,0000,0000*5A

$GPGSA,A,3,10,21,31,25,14,26,18,32,,,,,1.36,1.03,0.90*03

$GPGSA,A,3,10,21,31,25,14,26,18,32,,,,,1.36,1.03,0.90*03

$GPRMC,154237.000,A,0012.5266,S,07825.1444,W,1.86,214.81,240217,,,D*68

$GPRMC,154238.000,A,0012.5271,S,07825.1445,W,2.10,214.81,240217,,,D*6C

$GPVTG,214.81,T,,M,2.10,N,3.90,K,D*3F

$GPGSV,3,2,12,10,46,007,46,25,44,082,41,26,24,198,20,32,22,345,33*76

$GPGSV,3,3,12,14,19,320,34,29,10,139,22,27,03,247,,12,,,40*40

$GPGSA,A,3,10,21,31,25,14,26,18,32,,,,,1.36,1.03,0.90*03

$GPRMC,154240.000,A,0012.5280,S,07825.1452,W,1.89,214.81,240217,,,D*68

$GPRMC,154241.000,A,0012.5279,S,07825.1461,W,4.30,302.83,240217,,,D*6C

$GPVTG,302.83,T,,M,4.30,N,7.97,K,D*3C

$GPVTG,324.95,T,,M,10.53,N,19.51,K,D*3A

$GPGGA,154243.000,0012.5231,S,07825.1492,W,2,08,1.11,2300.6,M,13.7,M,0000,0000*5E

$GPGGA,154244.000,0012.5199,S,07825.1508,W,2,08,1.03,2301.0,M,13.7,M,0000,0000*5E

$GPGSA,A,3,10,21,31,25,14,26,18,32,,,,,1.36,1.03,0.90*03

$GPRMC,154244.000,A,0012.5199,S,07825.1508,W,12.67,333.02,240217,,,D*54

$GPVTG,333.02,T,,M,12.67,N,23.47,K,D*39

$GPVTG,325.53,T,,M,9.26,N,17.15,K,D*05

$GPGGA,154246.000,0012.5168,S,07825.1536,W,2,08,1.11,2301.6,M,13.7,M,0000,0000*5A

$GPGGA,154247.000,0012.5188,S,07825.1549,W,2,08,1.11,2301.9,M,13.7,M,0000,0000*52

$GPGSA,A,3,10,21,31,25,14,26,18,32,,,,,2.33,1.11,2.05*08

$GPGSA,A,3,10,21,31,25,14,26,18,32,,,,,2.33,1.11,2.05*08

$GPRMC,154248.000,A,0012.5215,S,07825.1557,W,9.54,193.84,240217,,,D*69

$GPGSV,3,1,12,18,58,056,40,31,57,269,37,51,56,270,35,21,48,181,30*72

$GPGSV,3,2,12,10,46,007,44,25,44,082,37,26,24,198,20,32,22,345,35*73

$GPGGA,154250.000,0012.5254,S,07825.1559,W,2,08,1.11,2301.2,M,13.7,M,0000,0000*5C

$GPGSA,A,3,10,21,31,25,14,26,18,32,,,,,2.33,1.11,2.05*08

$GPGSA,A,3,10,21,31,25,14,26,18,32,,,,,1.36,1.03,0.90*03

$GPRMC,154251.000,A,0012.5258,S,07825.1554,W,2.52,147.46,240217,,,D*61

$GPRMC,154252.000,A,0012.5263,S,07825.1549,W,2.44,147.46,240217,,,D*61

$GPVTG,147.46,T,,M,2.44,N,4.53,K,D*38

$GPVTG,147.46,T,,M,2.10,N,3.89,K,D*39

$GPGGA,154254.000,0012.5268,S,07825.1540,W,2,08,1.03,2301.6,M,13.7,M,0000,0000*58

$GPGSV,3,3,12,14,19,320,38,29,10,139,27,27,03,247,,12,,,33*4D

$GPRMC,154254.000,A,0012.5268,S,07825.1540,W,2.60,147.46,240217,,,D*63

$GPRMC,154255.000,A,0012.5269,S,07825.1537,W,2.61,147.46,240217,,,D*62

$GPVTG,147.46,T,,M,2.61,N,4.83,K,D*32

$GPVTG,147.46,T,,M,2.42,N,4.48,K,D*34

$GPGGA,154257.000,0012.5268,S,07825.1528,W,2,08,1.03,2301.9,M,13.7,M,0000,0000*5A

$GPGGA,154258.000,0012.5268,S,07825.1523,W,2,08,1.03,2302.1,M,13.7,M,0000,0000*55

$GPGSA,A,3,10,21,31,25,14,26,18,32,,,,,1.36,1.03,0.90*03

$GPGSA,A,3,10,21,31,25,14,26,18,32,,,,,1.36,1.03,0.90*03

$GPGSV,3,1,12,18,59,056,32,31,57,269,44,51,56,270,41,21,47,181,36*78

$GPVTG,147.46,T,,M,2.31,N,4.27,K,D*39

$GPGGA,154300.000,0012.5272,S,07825.1512,W,2,08,1.03,2302.6,M,13.7,M,0000,0000*57

$GPGGA,154301.000,0012.5276,S,07825.1507,W,2,08,1.03,2302.7,M,13.7,M,0000,0000*57

$GPGSA,A,3,10,21,31,25,14,26,18,32,,,,,1.36,1.03,0.90*03

$GPGSA,A,3,10,21,31,25,14,26,18,32,,,,,1.36,1.03,0.90*03

$GPRMC,154302.000,A,0012.5280,S,07825.1501,W,1.99,147.46,240217,,,D*67

$GPRMC,154303.000,A,0012.5284,S,07825.1497,W,1.63,147.46,240217,,,D*69

$GPVTG,147.46,T,,M,1.63,N,3.02,K,D*3D

$GPGSV,3,2,12,10,46,007,41,25,44,082,34,26,24,198,41,32,22,345,33*74

$GPGSV,3,3,12,14,19,320,40,29,10,139,36,27,03,247,,12,,,31*40

$GPGSA,A,3,10,21,31,25,14,26,18,32,,,,,1.36,1.03,0.90*03

$GPRMC,154305.000,A,0012.5287,S,07825.1493,W,0.02,147.46,240217,,,D*6E

$GPRMC,154306.000,A,0012.5287,S,07825.1492,W,0.01,147.46,240217,,,D*6F

$GPVTG,147.46,T,,M,0.01,N,0.02,K,D*3B

$GPVTG,147.46,T,,M,0.01,N,0.01,K,D*38

$GPGGA,154308.000,0012.5287,S,07825.1493,W,2,08,1.03,2303.5,M,13.7,M,0000,0000*5F

$GPGGA,154309.000,0012.5287,S,07825.1493,W,2,08,1.03,2303.5,M,13.7,M,0000,0000*5E

$GPGSA,A,3,10,21,31,25,14,26,18,32,,,,,1.36,1.03,0.90*03

$GPRMC,154309.000,A,0012.5287,S,07825.1493,W,0.02,147.46,240217,,,D*62

$GPVTG,147.46,T,,M,0.02,N,0.04,K,D*3E

$GPVTG,147.46,T,,M,0.01,N,0.02,K,D*3B

$GPGGA,154311.000,0012.5288,S,07825.1492,W,2,08,1.03,2303.6,M,13.7,M,0000,0000*5A

$GPGGA,154312.000,0012.5287,S,07825.1494,W,2,08,1.03,2303.6,M,13.7,M,0000,0000*50

$GPGSA,A,3,10,21,31,25,14,26,18,32,,,,,1.36,1.03,0.90*03

$GPGSA,A,3,10,21,31,25,14,26,18,32,,,,,1.36,1.03,0.90*03

$GPRMC,154313.000,A,0012.5287,S,07825.1494,W,0.02,147.46,240217,,,D*6E

$GPGSV,3,1,12,18,59,056,37,31,57,269,43,51,56,270,41,21,47,181,36*7A

$GPGSV,3,2,12,10,46,007,41,25,44,082,30,26,24,198,36,32,22,345,36*75

$GPGGA,154315.000,0012.5287,S,07825.1495,W,2,08,1.03,2303.8,M,13.7,M,0000,0000*58

$GPGSA,A,3,10,21,31,25,14,26,18,32,,,,,1.36,1.03,0.90*03

$GPGSA,A,3,10,21,31,25,14,18,32,,,,,,1.50,1.18,0.94*09

$GPRMC,154316.000,A,0012.5286,S,07825.1495,W,0.02,147.46,240217,,,D*6B

$GPRMC,154317.000,A,0012.5286,S,07825.1494,W,0.03,147.46,240217,,,D*6A

$GPVTG,147.46,T,,M,0.03,N,0.06,K,D*3D

$GPVTG,147.46,T,,M,0.05,N,0.08,K,D*35

$GPGGA,154319.000,0012.5286,S,07825.1493,W,2,08,1.03,2303.9,M,13.7,M,0000,0000*52

$GPGSV,3,3,12,14,19,320,23,12,11,054,39,29,10,139,35,27,03,247,*7F

$GPRMC,154319.000,A,0012.5286,S,07825.1493,W,0.04,147.46,240217,,,D*64

$GPRMC,154320.000,A,0012.5285,S,07825.1493,W,0.79,147.46,240217,,,D*67

$GPVTG,147.46,T,,M,0.79,N,1.47,K,D*34

$GPVTG,147.46,T,,M,0.78,N,1.44,K,D*36

$GPGGA,154322.000,0012.5281,S,07825.1494,W,2,08,1.03,2304.0,M,13.7,M,0000,0000*54

$GPGGA,154323.000,0012.5278,S,07825.1496,W,2,08,1.03,2304.0,M,13.7,M,0000,0000*51

$GPGSA,A,3,10,21,31,25,14,26,18,32,,,,,1.37,1.03,0.90*02

$GPGSA,A,3,10,21,31,25,14,26,18,32,,,,,1.36,1.03,0.90*03

$GPGSV,3,1,12,18,59,056,42,31,57,269,33,51,56,270,29,21,47,181,38*7F

$GPVTG,147.46,T,,M,1.36,N,2.52,K,D*39

$GPGGA,154325.000,0012.5279,S,07825.1500,W,2,09,0.90,2304.0,M,13.7,M,0000,0000*52

$GPGGA,154326.000,0012.5279,S,07825.1503,W,2,08,1.05,2304.0,M,13.7,M,0000,0000*5E

$GPGSA,A,3,10,21,31,25,14,18,12,32,,,,,1.37,1.05,0.88*0A

$GPGSA,A,3,10,21,31,25,14,18,12,32,,,,,1.37,1.05,0.88*0A

$GPRMC,154327.000,A,0012.5281,S,07825.1504,W,0.02,147.46,240217,,,D*67

$GPRMC,154328.000,A,0012.5281,S,07825.1504,W,0.15,147.46,240217,,,D*6E

$GPVTG,147.46,T,,M,0.15,N,0.27,K,D*39

$GPGSV,3,2,12,10,46,008,42,25,44,082,42,26,24,198,18,32,22,345,38*7E

$GPGSV,3,3,12,14,19,321,26,12,11,054,38,29,10,139,35,27,03,247,*7A

$GPGSA,A,3,10,21,31,25,14,18,12,32,,,,,1.37,1.05,0.88*0A

$GPRMC,154330.000,A,0012.5278,S,07825.1501,W,0.10,147.46,240217,,,D*61

$GPRMC,154331.000,A,0012.5277,S,07825.1499,W,0.10,147.46,240217,,,D*6F

$GPVTG,147.46,T,,M,0.10,N,0.18,K,D*30

$GPVTG,147.46,T,,M,0.10,N,0.18,K,D*30

$GPGGA,154333.000,0012.5273,S,07825.1496,W,2,09,0.93,2305.0,M,13.7,M,0000,0000*53

$GPGGA,154334.000,0012.5273,S,07825.1497,W,2,09,0.93,2305.2,M,13.7,M,0000,0000*57

$GPGSA,A,3,10,29,21,31,25,14,18,12,32,,,,1.22,0.93,0.80*03

$GPRMC,154334.000,A,0012.5273,S,07825.1497,W,0.04,147.46,240217,,,D*65

$GPVTG,147.46,T,,M,0.04,N,0.07,K,D*3B

$GPVTG,147.46,T,,M,0.04,N,0.07,K,D*3B

$GPGGA,154336.000,0012.5273,S,07825.1495,W,2,10,0.82,2305.4,M,13.7,M,0000,0000*59

$GPGGA,154337.000,0012.5272,S,07825.1494,W,2,09,0.93,2305.4,M,13.7,M,0000,0000*50

$GPGSA,A,3,10,29,21,31,25,14,18,12,32,,,,1.22,0.93,0.80*03

$GPGSA,A,3,10,29,21,31,25,14,18,12,32,,,,1.22,0.93,0.80*03

$GPRMC,154338.000,A,0012.5270,S,07825.1493,W,0.05,147.46,240217,,,D*6F

$GPGSV,3,1,12,18,59,057,41,31,57,269,29,51,56,270,28,21,47,180,30*7E

$GPGSV,3,2,12,10,46,008,42,25,44,082,42,26,25,198,18,32,22,345,39*7E

$GPGGA,154340.000,0012.5267,S,07825.1492,W,2,10,0.82,2305.6,M,13.7,M,0000,0000*58

$GPGSA,A,3,10,29,21,31,25,14,26,18,12,32,,,1.14,0.82,0.79*04

$GPGSA,A,3,10,29,21,31,25,14,26,18,12,32,,,1.14,0.82,0.79*04

$GPRMC,154341.000,A,0012.5266,S,07825.1492,W,0.01,147.46,240217,,,D*63

$GPRMC,154342.000,A,0012.5266,S,07825.1492,W,0.06,147.46,240217,,,D*67

$GPVTG,147.46,T,,M,0.06,N,0.10,K,D*3F

$GPVTG,147.46,T,,M,0.08,N,0.14,K,D*35

$GPGGA,154344.000,0012.5267,S,07825.1496,W,2,09,0.93,2305.7,M,13.7,M,0000,0000*51

$GPGSV,3,3,12,14,19,321,34,12,11,054,41,29,10,138,33,27,03,247,*70

$GPRMC,154344.000,A,0012.5267,S,07825.1496,W,1.02,147.46,240217,,,D*61

$GPRMC,154345.000,A,0012.5268,S,07825.1498,W,0.56,147.46,240217,,,D*61

$GPVTG,147.46,T,,M,0.56,N,1.04,K,D*3E

$GPVTG,147.46,T,,M,0.48,N,0.89,K,D*35

$GPGGA,154347.000,0012.5267,S,07825.1499,W,2,09,0.92,2305.8,M,13.7,M,0000,0000*53

$GPGGA,154348.000,0012.5266,S,07825.1499,W,2,10,0.82,2305.8,M,13.7,M,0000,0000*54

$GPGSA,A,3,10,29,21,31,25,14,26,18,12,32,,,1.52,0.82,1.27*0C

$GPGSA,A,3,10,29,21,31,25,14,26,18,32,,,,1.70,0.92,1.43*0C

$GPGSV,3,1,12,18,59,057,32,31,57,270,43,51,56,270,41,21,47,180,41*77

$GPVTG,147.46,T,,M,1.19,N,2.21,K,D*30

$GPGGA,154350.000,0012.5262,S,07825.1496,W,2,10,0.82,2305.9,M,13.7,M,0000,0000*57

$GPGGA,154351.000,0012.5262,S,07825.1495,W,2,10,0.82,2305.9,M,13.7,M,0000,0000*55

$GPGSA,A,3,10,29,21,31,25,14,26,18,12,32,,,1.14,0.82,0.79*04

$GPGSA,A,3,10,29,21,31,25,14,26,18,12,32,,,1.14,0.82,0.79*04

$GPRMC,154352.000,A,0012.5261,S,07825.1494,W,0.43,147.46,240217,,,D*66

$GPRMC,154353.000,A,0012.5260,S,07825.1495,W,0.08,147.46,240217,,,D*68

$GPVTG,147.46,T,,M,0.08,N,0.14,K,D*35

$GPGSV,3,2,12,10,46,008,45,25,44,082,38,26,25,198,20,32,22,346,41*73

$GPGSV,3,3,12,14,19,321,29,12,11,054,37,29,10,138,31,27,03,247,*7F

$GPGSA,A,3,10,29,21,31,25,14,18,12,32,,,,1.22,0.93,0.80*03

$GPRMC,154355.000,A,0012.5260,S,07825.1495,W,0.28,147.46,240217,,,D*6C

$GPRMC,154356.000,A,0012.5261,S,07825.1494,W,0.26,147.46,240217,,,D*61

$GPVTG,147.46,T,,M,0.26,N,0.49,K,D*31

$GPVTG,147.46,T,,M,0.11,N,0.19,K,D*30

$GPGGA,154358.000,0012.5261,S,07825.1493,W,2,09,0.93,2306.0,M,13.7,M,0000,0000*5B

$GPGGA,154359.000,0012.5260,S,07825.1493,W,2,09,0.93,2306.0,M,13.7,M,0000,0000*5B

$GPGSA,A,3,10,29,21,31,25,14,18,12,32,,,,1.22,0.93,0.80*03

$GPRMC,154359.000,A,0012.5260,S,07825.1493,W,0.14,147.46,240217,,,D*69

$GPVTG,147.46,T,,M,0.14,N,0.26,K,D*39

$GPVTG,147.46,T,,M,0.20,N,0.38,K,D*31

$GPGGA,154401.000,0012.5259,S,07825.1493,W,2,09,0.93,2306.0,M,13.7,M,0000,0000*5B

$GPGGA,154402.000,0012.5259,S,07825.1493,W,2,09,0.94,2306.0,M,13.7,M,0000,0000*5F

$GPGSA,A,3,10,29,21,31,25,14,18,12,32,,,,1.62,0.94,1.32*08

$GPGSA,A,3,10,29,21,31,25,14,18,12,32,,,,1.22,0.93,0.80*03

$GPRMC,154403.000,A,0012.5258,S,07825.1493,W,0.12,147.46,240217,,,D*6C

$GPGSV,3,1,12,18,59,057,42,31,57,270,35,51,56,270,31,21,47,180,29*78

$GPGSV,3,2,12,10,47,008,45,25,44,082,42,26,25,198,20,32,22,346,37*7E

$GPGGA,154405.000,0012.5259,S,07825.1494,W,2,09,0.93,2306.0,M,13.7,M,0000,0000*58

$GPGSA,A,3,10,29,21,31,25,14,18,12,32,,,,1.22,0.93,0.80*03

$GPGSA,A,3,10,29,21,31,25,14,18,12,32,,,,1.22,0.93,0.80*03

$GPRMC,154406.000,A,0012.5259,S,07825.1495,W,0.09,147.46,240217,,,D*64

$GPRMC,154407.000,A,0012.5259,S,07825.1495,W,0.08,147.46,240217,,,D*64

$GPVTG,147.46,T,,M,0.08,N,0.14,K,D*35

$GPVTG,147.46,T,,M,0.16,N,0.30,K,D*3C

$GPGGA,154409.000,0012.5259,S,07825.1495,W,2,10,0.82,2306.1,M,13.7,M,0000,0000*5C

$GPGSV,3,3,12,14,19,321,38,12,11,054,42,29,10,138,27,27,03,247,*7A

$GPRMC,154409.000,A,0012.5259,S,07825.1495,W,0.00,147.46,240217,,,D*62

$GPRMC,154410.000,A,0012.5259,S,07825.1495,W,0.00,147.46,240217,,,D*6A

$GPVTG,147.46,T,,M,0.00,N,0.00,K,D*38

$GPVTG,147.46,T,,M,0.04,N,0.08,K,D*34

$GPGGA,154412.000,0012.5259,S,07825.1495,W,2,10,0.82,2306.1,M,13.7,M,0000,0000*56

$GPGGA,154413.000,0012.5259,S,07825.1495,W,2,09,0.93,2306.1,M,13.7,M,0000,0000*5F

$GPGSA,A,3,10,29,21,31,25,14,18,12,32,,,,1.22,0.93,0.80*03

$GPGSA,A,3,10,29,21,31,25,14,26,18,12,32,,,1.14,0.82,0.79*04

$GPGSV,3,1,12,18,59,058,43,31,57,270,36,51,56,270,35,21,47,180,31*78

$GPVTG,147.46,T,,M,0.15,N,0.27,K,D*39

$GPGGA,154415.000,0012.5259,S,07825.1495,W,2,09,0.93,2306.1,M,13.7,M,0000,0000*59

$GPGGA,154416.000,0012.5259,S,07825.1495,W,2,10,0.82,2306.1,M,13.7,M,0000,0000*52

$GPGSA,A,3,10,29,21,31,25,14,26,18,12,32,,,1.14,0.82,0.79*04

$GPGSA,A,3,10,29,21,31,25,14,26,18,12,32,,,1.14,0.82,0.79*04

$GPRMC,154417.000,A,0012.5259,S,07825.1495,W,0.19,147.46,240217,,,D*65

$GPRMC,154418.000,A,0012.5259,S,07825.1495,W,0.28,147.46,240217,,,D*68

$GPVTG,147.46,T,,M,0.28,N,0.51,K,D*36

$GPGSV,3,2,12,10,47,008,43,25,43,081,40,26,25,198,20,32,22,346,43*7D

$GPGSV,3,3,12,14,19,321,27,12,11,054,42,29,10,138,25,27,03,246,*77

$GPGSA,A,3,10,29,21,31,25,14,18,12,32,,,,1.22,0.93,0.80*03

$GPRMC,154420.000,A,0012.5257,S,07825.1495,W,0.26,147.46,240217,,,D*63

$GPRMC,154421.000,A,0012.5257,S,07825.1496,W,0.15,147.46,240217,,,D*61

$GPVTG,147.46,T,,M,0.15,N,0.27,K,D*39

$GPVTG,147.46,T,,M,0.16,N,0.29,K,D*34

$GPGGA,154423.000,0012.5256,S,07825.1495,W,2,09,0.93,2306.1,M,13.7,M,0000,0000*53

$GPGGA,154424.000,0012.5256,S,07825.1495,W,2,09,0.93,2306.1,M,13.7,M,0000,0000*54

$GPGSA,A,3,10,29,21,31,25,14,18,12,32,,,,1.22,0.93,0.80*03

$GPRMC,154424.000,A,0012.5256,S,07825.1495,W,0.10,351.12,240217,,,D*67

$GPVTG,351.12,T,,M,0.10,N,0.19,K,D*35

$GPVTG,351.12,T,,M,0.20,N,0.36,K,D*3B

$GPGGA,154426.000,0012.5255,S,07825.1496,W,2,09,0.86,2306.1,M,13.7,M,0000,0000*52

$GPGGA,154427.000,0012.5255,S,07825.1496,W,2,09,0.93,2306.1,M,13.7,M,0000,0000*57

$GPGSA,A,3,10,29,21,31,25,14,18,12,32,,,,1.22,0.93,0.80*03

$GPGSA,A,3,10,29,21,31,25,14,18,12,32,,,,1.22,0.93,0.80*03

$GPRMC,154428.000,A,0012.5255,S,07825.1496,W,0.02,351.12,240217,,,D*68

$GPGSV,3,1,12,18,59,058,41,31,57,270,41,51,56,270,39,21,47,180,26*70

$GPGSV,3,2,12,10,47,008,44,25,43,081,39,26,25,198,18,32,22,346,37*7C

$GPGGA,154430.000,0012.5255,S,07825.1496,W,2,10,0.82,2306.1,M,13.7,M,0000,0000*59

$GPGSA,A,3,10,29,21,31,25,14,26,18,12,32,,,1.14,0.82,0.79*04

$GPGSA,A,3,10,29,21,31,25,14,18,12,32,,,,1.22,0.93,0.80*03

$GPRMC,154431.000,A,0012.5255,S,07825.1496,W,0.06,351.12,240217,,,D*64

$GPRMC,154432.000,A,0012.5255,S,07825.1496,W,0.04,351.12,240217,,,D*65

$GPVTG,351.12,T,,M,0.04,N,0.07,K,D*3F

$GPVTG,351.12,T,,M,0.05,N,0.08,K,D*31

$GPGGA,154434.000,0012.5255,S,07825.1496,W,2,09,0.93,2306.1,M,13.7,M,0000,0000*55

$GPGSV,3,3,12,14,19,321,37,12,11,054,43,29,10,138,16,27,03,246,*77

$GPRMC,154434.000,A,0012.5255,S,07825.1496,W,0.02,351.12,240217,,,D*65

$GPRMC,154435.000,A,0012.5255,S,07825.1496,W,0.00,351.12,240217,,,D*66

$GPVTG,351.12,T,,M,0.00,N,0.01,K,D*3D

$GPVTG,351.12,T,,M,0.03,N,0.06,K,D*39

$GPGGA,154437.000,0012.5255,S,07825.1496,W,2,09,0.93,2306.1,M,13.7,M,0000,0000*56

$GPGGA,154438.000,0012.5255,S,07825.1496,W,2,09,0.93,2306.1,M,13.7,M,0000,0000*59

$GPGSA,A,3,10,29,21,31,25,14,18,12,32,,,,1.22,0.93,0.80*03

$GPGSA,A,3,10,29,21,31,25,14,18,12,32,,,,1.22,0.93,0.80*03

$GPGSV,3,1,12,18,59,058,43,31,57,270,42,51,56,270,40,21,47,180,29*70

$GPVTG,351.12,T,,M,0.01,N,0.02,K,D*3F

$GPGGA,154440.000,0012.5255,S,07825.1496,W,2,09,0.93,2306.1,M,13.7,M,0000,0000*56

$GPGGA,154441.000,0012.5255,S,07825.1496,W,2,09,0.93,2306.1,M,13.7,M,0000,0000*57

$GPGSA,A,3,10,29,21,31,25,14,18,12,32,,,,1.22,0.93,0.80*03

$GPGSA,A,3,10,29,21,31,25,14,18,12,32,,,,1.22,0.93,0.80*03

$GPRMC,154442.000,A,0012.5255,S,07825.1496,W,0.04,351.12,240217,,,D*62

$GPRMC,154443.000,A,0012.5255,S,07825.1496,W,0.03,351.12,240217,,,D*64

$GPVTG,351.12,T,,M,0.03,N,0.05,K,D*3A

$GPGSV,3,2,12,10,47,008,45,25,43,081,40,26,25,198,22,32,22,346,37*7A

$GPGSV,3,3,12,14,19,321,36,29,10,138,30,12,10,054,42,27,03,246,*72

$GPGSA,A,3,10,29,21,31,25,14,18,12,32,,,,1.22,0.93,0.80*03

$GPRMC,154445.000,A,0012.5255,S,07825.1496,W,0.02,351.12,240217,,,D*63

$GPRMC,154446.000,A,0012.5255,S,07825.1496,W,0.01,351.12,240217,,,D*63

$GPVTG,351.12,T,,M,0.01,N,0.01,K,D*3C

$GPVTG,351.12,T,,M,0.03,N,0.05,K,D*3A

$GPGGA,154448.000,0012.5255,S,07825.1496,W,2,09,0.93,2306.1,M,13.7,M,0000,0000*5E

$GPGGA,154449.000,0012.5255,S,07825.1496,W,2,10,0.82,2306.1,M,13.7,M,0000,0000*57

$GPGSA,A,3,10,29,21,31,25,14,26,18,12,32,,,1.14,0.82,0.79*04

$GPRMC,154449.000,A,0012.5255,S,07825.1496,W,0.00,351.12,240217,,,D*6D

$GPVTG,351.12,T,,M,0.00,N,0.00,K,D*3C

$GPVTG,351.12,T,,M,0.00,N,0.00,K,D*3C

$GPGGA,154451.000,0012.5255,S,07825.1496,W,2,09,0.93,2306.1,M,13.7,M,0000,0000*56

$GPGGA,154452.000,0012.5255,S,07825.1496,W,2,09,0.93,2306.1,M,13.7,M,0000,0000*55

$GPGSA,A,3,10,29,21,31,25,14,18,12,32,,,,1.22,0.93,0.80*03

$GPGSA,A,3,10,29,21,31,25,14,26,18,12,32,,,1.14,0.82,0.79*04

$GPRMC,154453.000,A,0012.5255,S,07825.1496,W,0.00,351.12,240217,,,D*66

$GPGSV,3,1,12,18,59,058,41,31,57,270,36,51,56,270,32,21,47,180,28*75

$GPGSV,3,2,12,10,47,008,46,25,43,081,40,26,25,198,21,32,22,346,39*74

$GPGGA,154455.000,0012.5255,S,07825.1496,W,2,09,0.93,2306.1,M,13.7,M,0000,0000*52

$GPGSA,A,3,10,29,21,31,25,14,18,12,32,,,,1.22,0.93,0.80*03

$GPGSA,A,3,10,29,21,31,25,14,18,12,32,,,,1.22,0.93,0.80*03

$GPRMC,154456.000,A,0012.5255,S,07825.1496,W,0.02,351.12,240217,,,D*61

$GPRMC,154457.000,A,0012.5255,S,07825.1496,W,0.03,351.12,240217,,,D*61

$GPVTG,351.12,T,,M,0.03,N,0.05,K,D*3A

$GPVTG,351.12,T,,M,0.01,N,0.02,K,D*3F

$GPGGA,154459.000,0012.5255,S,07825.1496,W,2,10,0.82,2306.1,M,13.7,M,0000,0000*56

$GPGSV,3,3,12,14,19,321,21,29,10,138,29,12,10,054,42,27,03,246,*7C

$GPRMC,154459.000,A,0012.5255,S,07825.1496,W,0.02,351.12,240217,,,D*6E

$GPRMC,154500.000,A,0012.5255,S,07825.1496,W,0.04,351.12,240217,,,D*65

$GPVTG,351.12,T,,M,0.04,N,0.07,K,D*3F

$GPVTG,351.12,T,,M,0.02,N,0.03,K,D*3D

$GPGGA,154502.000,0012.5255,S,07825.1496,W,2,10,0.82,2306.1,M,13.7,M,0000,0000*59

$GPGGA,154503.000,0012.5255,S,07825.1496,W,2,09,0.93,2306.1,M,13.7,M,0000,0000*50

$GPGSA,A,3,10,29,21,31,25,14,18,12,32,,,,1.23,0.93,0.80*02

$GPGSA,A,3,10,29,21,31,25,14,18,12,32,,,,1.22,0.93,0.80*03

$GPGSV,3,1,12,18,59,058,38,31,57,271,30,51,56,270,32,21,47,180,21*75

$GPVTG,351.12,T,,M,0.01,N,0.01,K,D*3C

$GPGGA,154505.000,0012.5255,S,07825.1496,W,2,09,0.93,2306.1,M,13.7,M,0000,0000*56

$GPGGA,154506.000,0012.5255,S,07825.1496,W,2,09,0.93,2306.1,M,13.7,M,0000,0000*55

$GPGSA,A,3,10,29,21,31,25,14,18,12,32,,,,1.22,0.93,0.80*03

$GPGSA,A,3,10,29,21,31,25,14,18,12,32,,,,1.22,0.93,0.80*03

$GPRMC,154507.000,A,0012.5255,S,07825.1496,W,0.01,351.12,240217,,,D*67

$GPRMC,154508.000,A,0012.5255,S,07825.1496,W,0.01,351.12,240217,,,D*68

$GPVTG,351.12,T,,M,0.01,N,0.02,K,D*3F

$GPGSV,3,2,12,10,47,008,46,25,43,081,42,26,25,198,16,32,22,346,40*7C

$GPGSV,3,3,12,14,19,321,31,29,10,138,32,12,10,054,42,27,03,246,*77

$GPGSA,A,3,10,29,21,31,25,14,18,12,32,,,,1.22,0.93,0.80*03

$GPRMC,154510.000,A,0012.5255,S,07825.1496,W,0.01,351.12,240217,,,D*61

$GPRMC,154511.000,A,0012.5255,S,07825.1496,W,0.01,351.12,240217,,,D*60

$GPVTG,351.12,T,,M,0.01,N,0.03,K,D*3E

$GPVTG,351.12,T,,M,0.03,N,0.06,K,D*39

$GPGGA,154513.000,0012.5255,S,07825.1496,W,2,09,0.93,2306.1,M,13.7,M,0000,0000*51

$GPGGA,154514.000,0012.5255,S,07825.1496,W,2,09,0.93,2306.1,M,13.7,M,0000,0000*56

$GPGSA,A,3,10,29,21,31,25,14,18,12,32,,,,1.23,0.93,0.80*02

$GPGSV,4,4,13,16,01,211,*4F

$GPRMC,154514.000,A,0012.5255,S,07825.1496,W,0.06,351.12,240217,,,D*62

$GPRMC,154515.000,A,0012.5255,S,07825.1496,W,0.12,351.12,240217,,,D*66

$GPVTG,351.12,T,,M,0.12,N,0.21,K,D*3C

$GPVTG,351.12,T,,M,0.08,N,0.15,K,D*30

$GPGGA,154517.000,0012.5255,S,07825.1496,W,2,09,0.92,2306.1,M,13.7,M,0000,0000*54

$GPGGA,154518.000,0012.5255,S,07825.1496,W,2,10,0.82,2306.1,M,13.7,M,0000,0000*52

$GPGSA,A,3,10,29,21,31,25,14,26,18,12,32,,,1.14,0.82,0.79*04

$GPGSA,A,3,10,29,21,31,25,14,18,12,32,,,,1.23,0.93,0.80*02

$GPGSV,4,1,13,18,59,059,38,31,57,271,35,51,56,270,31,21,47,180,26*73

$GPRMC,154519.000,A,0012.5255,S,07825.1496,W,0.01,351.12,240217,,,D*68

$GPVTG,351.12,T,,M,0.01,N,0.02,K,D*3F

$GPVTG,351.12,T,,M,0.02,N,0.04,K,D*3A

$GPGGA,154521.000,0012.5255,S,07825.1496,W,2,09,0.92,2306.1,M,13.7,M,0000,0000*51

$GPGGA,154522.000,0012.5255,S,07825.1496,W,2,09,0.92,2306.1,M,13.7,M,0000,0000*52

$GPGSA,A,3,10,29,21,31,25,26,18,12,32,,,,1.23,0.92,0.81*03

$GPGSA,A,3,10,29,21,31,25,26,18,12,32,,,,1.23,0.92,0.81*03

$GPRMC,154523.000,A,0012.5255,S,07825.1496,W,0.03,351.12,240217,,,D*63

$GPGSV,4,1,13,18,59,059,38,31,57,271,36,51,56,270,34,10,47,008,46*70

$GPGSV,4,2,13,21,46,180,28,25,43,081,41,26,25,198,19,32,22,346,42*7E

$GPVTG,351.12,T,,M,0.08,N,0.14,K,D*31

$GPGGA,154525.000,0012.5255,S,07825.1496,W,2,10,0.82,2306.1,M,13.7,M,0000,0000*5C

$GPGGA,154526.000,0012.5255,S,07825.1496,W,2,10,0.82,2306.1,M,13.7,M,0000,0000*5F

$GPGSA,A,3,10,29,21,31,25,14,26,18,12,32,,,1.14,0.82,0.79*04

$GPGSA,A,3,10,29,21,31,25,14,26,18,12,32,,,1.14,0.82,0.79*04

$GPRMC,154527.000,A,0012.5255,S,07825.1496,W,0.00,351.12,240217,,,D*64

$GPRMC,154528.000,A,0012.5255,S,07825.1496,W,0.00,351.12,240217,,,D*6B

$GPVTG,351.12,T,,M,0.00,N,0.00,K,D*3C

$GPGSV,4,2,13,21,46,180,35,25,43,080,31,26,25,198,28,32,22,346,32*71

$GPGSV,4,3,13,14,19,321,37,29,10,138,25,12,10,053,25,27,03,246,*77

$GPGGA,154530.000,0012.5255,S,07825.1494,W,2,10,0.82,2306.0,M,13.7,M,0000,0000*5B

$GPGSA,A,3,10,29,21,31,25,14,26,18,12,32,,,1.14,0.82,0.79*04

$GPGSA,A,3,10,29,21,31,25,14,26,18,12,32,,,1.14,0.82,0.79*04

$GPRMC,154531.000,A,0012.5256,S,07825.1492,W,1.45,351.12,240217,,,D*64

$GPRMC,154532.000,A,0012.5257,S,07825.1488,W,1.41,351.12,240217,,,D*69

$GPVTG,351.12,T,,M,1.41,N,2.61,K,D*3D

$GPVTG,351.12,T,,M,1.64,N,3.04,K,D*38

$GPGGA,154534.000,0012.5263,S,07825.1482,W,2,10,0.82,2306.0,M,13.7,M,0000,0000*5D

$GPGSV,4,3,13,14,19,321,37,29,10,138,22,12,10,053,28,27,03,246,*7D

$GPGSV,4,4,13,16,01,211,*4F

$GPGSA,A,3,10,29,21,31,25,14,26,18,12,32,,,1.14,0.82,0.79*04

$GPRMC,154535.000,A,0012.5264,S,07825.1477,W,2.18,74.95,240217,,,D*5A

$GPRMC,154536.000,A,0012.5267,S,07825.1475,W,2.17,65.04,240217,,,D*5F

$GPVTG,65.04,T,,M,2.17,N,4.02,K,D*0D

$GPVTG,57.00,T,,M,2.10,N,3.89,K,D*0B

$GPGGA,154538.000,0012.5271,S,07825.1468,W,2,09,0.92,2306.4,M,13.7,M,0000,0000*5B

$GPGGA,154539.000,0012.5269,S,07825.1459,W,2,09,0.92,2306.5,M,13.7,M,0000,0000*50

$GPGSA,A,3,10,29,21,31,25,26,18,12,32,,,,1.23,0.92,0.81*03

$GPGSV,4,4,13,16,01,211,*4F

$GPRMC,154539.000,A,0012.5269,S,07825.1459,W,0.65,42.72,240217,,,D*53

$GPRMC,154540.000,A,0012.5261,S,07825.1454,W,2.09,17.67,240217,,,D*54

$GPVTG,17.67,T,,M,2.09,N,3.86,K,D*09

$GPVTG,32.72,T,,M,3.37,N,6.25,K,D*0A

$GPGGA,154542.000,0012.5230,S,07825.1440,W,2,10,0.82,2307.0,M,13.7,M,0000,0000*55

$GPGGA,154543.000,0012.5201,S,07825.1441,W,2,09,0.96,2307.1,M,13.7,M,0000,0000*5B

$GPGSA,A,3,10,29,21,31,25,26,18,12,32,,,,1.70,0.96,1.40*0D

$GPGSA,A,3,10,29,21,31,25,14,26,18,12,,,,1.59,0.88,1.32*08

$GPGSV,4,1,13,18,59,059,43,31,57,272,29,51,56,270,28,10,47,008,39*74

$GPRMC,154544.000,A,0012.5178,S,07825.1456,W,11.00,297.30,240217,,,D*5A

$GPVTG,297.30,T,,M,11.00,N,20.39,K,D*3F

$GPVTG,289.57,T,,M,12.14,N,22.49,K,D*32

$GPGGA,154546.000,0012.5155,S,07825.1514,W,2,10,0.82,2307.3,M,13.7,M,0000,0000*52

$GPGGA,154547.000,0012.5169,S,07825.1534,W,2,10,0.83,2307.1,M,13.7,M,0000,0000*5D

$GPGSA,A,3,10,29,21,31,25,14,26,18,12,32,,,1.52,0.83,1.27*0D

$GPGSA,A,3,10,29,21,31,25,14,26,18,12,32,,,1.52,0.83,1.27*0D

$GPRMC,154548.000,A,0012.5191,S,07825.1545,W,11.37,193.55,240217,,,D*52

$GPGSV,4,1,13,18,59,059,33,31,57,272,38,51,56,270,35,10,47,008,45*74

$GPGSV,4,2,13,21,46,180,28,25,43,080,37,26,25,198,21,32,22,346,44*73

$GPVTG,177.39,T,,M,8.81,N,16.32,K,D*04

$GPGGA,154550.000,0012.5235,S,07825.1547,W,2,10,0.83,2304.4,M,13.7,M,0000,0000*53

$GPGGA,154551.000,0012.5243,S,07825.1542,W,2,10,0.82,2303.7,M,13.7,M,0000,0000*53

$GPGSA,A,3,10,29,21,31,25,14,26,18,12,32,,,1.14,0.82,0.79*04

$GPGSA,A,3,10,29,21,31,25,14,26,18,12,32,,,1.14,0.82,0.79*04

$GPRMC,154552.000,A,0012.5246,S,07825.1537,W,2.50,154.47,240217,,,D*6E

$GPRMC,154553.000,A,0012.5247,S,07825.1532,W,2.44,154.47,240217,,,D*6E

$GPVTG,154.47,T,,M,2.44,N,4.52,K,D*3A

$GPGSV,4,2,13,21,46,180,38,25,43,080,28,26,25,198,30,32,22,346,38*77

$GPGSV,4,3,13,14,19,322,39,29,10,138,26,12,10,053,25,27,03,246,*79

$GPGGA,154555.000,0012.5248,S,07825.1523,W,2,10,0.82,2302.9,M,13.7,M,0000,0000*54

$GPGSA,A,3,10,29,21,31,25,14,26,18,12,32,,,1.14,0.82,0.79*04

$GPGSA,A,3,10,29,21,31,25,14,26,18,12,32,,,1.14,0.82,0.79*04

$GPRMC,154556.000,A,0012.5249,S,07825.1516,W,3.16,95.30,240217,,,D*59

$GPRMC,154557.000,A,0012.5251,S,07825.1509,W,2.69,95.30,240217,,,D*56

$GPVTG,95.30,T,,M,2.69,N,4.98,K,D*0F

$GPVTG,95.30,T,,M,1.89,N,3.51,K,D*00

$GPGGA,154559.000,0012.5257,S,07825.1501,W,2,10,0.82,2302.8,M,13.7,M,0000,0000*57

$GPGSV,4,3,13,14,19,322,39,29,10,138,27,12,10,053,32,27,03,246,*7E

$GPGSV,4,4,13,16,01,211,*4F

$GPGSA,A,3,10,29,21,31,25,14,26,18,12,32,,,1.14,0.82,0.79*04

$GPRMC,154600.000,A,0012.5260,S,07825.1496,W,1.73,95.30,240217,,,D*5A

$GPRMC,154601.000,A,0012.5263,S,07825.1493,W,2.18,95.30,240217,,,D*53

$GPVTG,95.30,T,,M,2.18,N,4.04,K,D*0C

$GPVTG,95.30,T,,M,2.16,N,4.01,K,D*07

$GPGGA,154603.000,0012.5268,S,07825.1482,W,2,10,0.82,2303.2,M,13.7,M,0000,0000*56

$GPGGA,154604.000,0012.5271,S,07825.1475,W,2,10,0.82,2303.4,M,13.7,M,0000,0000*57

$GPGSA,A,3,10,29,21,31,25,14,26,18,12,32,,,1.14,0.82,0.79*04

$GPGSV,4,4,13,16,01,211,*4F

$GPRMC,154604.000,A,0012.5271,S,07825.1475,W,2.48,95.30,240217,,,D*58

$GPRMC,154605.000,A,0012.5274,S,07825.1469,W,2.48,95.30,240217,,,D*51

$GPVTG,95.30,T,,M,2.48,N,4.59,K,D*01

$GPVTG,95.30,T,,M,2.43,N,4.49,K,D*0B

$GPGGA,154607.000,0012.5282,S,07825.1460,W,2,10,0.82,2304.1,M,13.7,M,0000,0000*5E

$GPGGA,154608.000,0012.5275,S,07825.1453,W,2,10,0.82,2304.5,M,13.7,M,0000,0000*5D

$GPGSA,A,3,10,29,21,31,25,14,26,18,12,32,,,1.14,0.82,0.79*04

$GPGSA,A,3,10,29,21,31,25,14,26,18,12,32,,,1.52,0.83,1.27*0D

$GPGSV,4,1,13,18,59,059,35,31,57,272,44,51,56,270,42,10,47,008,39*72

$GPRMC,154609.000,A,0012.5258,S,07825.1443,W,8.16,22.37,240217,,,D*51

$GPVTG,22.37,T,,M,8.16,N,15.12,K,D*34

$GPVTG,18.88,T,,M,11.03,N,20.44,K,D*00

$GPGGA,154611.000,0012.5208,S,07825.1423,W,2,10,0.83,2305.0,M,13.7,M,0000,0000*5D

$GPGGA,154612.000,0012.5189,S,07825.1432,W,2,10,0.83,2304.9,M,13.7,M,0000,0000*5C

$GPGSA,A,3,10,29,21,31,25,14,26,18,12,32,,,1.52,0.83,1.27*0D

$GPGSA,A,3,10,29,21,31,25,14,26,18,12,32,,,1.52,0.83,1.27*0D

$GPRMC,154613.000,A,0012.5177,S,07825.1459,W,12.42,291.93,240217,,,D*51

$GPGSV,4,1,13,18,59,059,38,31,57,272,38,51,56,270,30,10,47,008,40*7F

$GPGSV,4,2,13,21,46,180,38,25,43,080,42,26,25,198,30,32,22,347,30*72

$GPVTG,285.28,T,,M,10.31,N,19.10,K,D*37

$GPGGA,154615.000,0012.5174,S,07825.1511,W,2,10,0.83,2305.0,M,13.7,M,0000,0000*51

$GPGGA,154616.000,0012.5199,S,07825.1522,W,2,10,0.83,2304.9,M,13.7,M,0000,0000*59

$GPGSA,A,3,10,29,21,31,25,14,26,18,12,32,,,1.52,0.83,1.27*0D

$GPGSA,A,3,10,29,21,31,25,14,26,18,12,32,,,1.52,0.83,1.27*0D

$GPRMC,154617.000,A,0012.5227,S,07825.1529,W,9.40,192.57,240217,,,D*65

$GPRMC,154618.000,A,0012.5243,S,07825.1531,W,4.13,155.58,240217,,,D*6E

$GPVTG,155.58,T,,M,4.13,N,7.65,K,D*36

$GPGSV,4,2,13,21,46,180,35,25,43,080,31,26,25,198,24,32,22,347,42*7B

$GPGSV,4,3,13,14,19,322,42,29,10,137,24,12,10,053,38,27,03,246,*74

$GPGGA,154620.000,0012.5251,S,07825.1530,W,2,10,0.82,2303.6,M,13.7,M,0000,0000*51

$GPGSA,A,3,10,29,21,31,25,14,26,18,12,32,,,1.14,0.82,0.79*04

$GPGSA,A,3,10,29,21,31,25,14,26,18,12,32,,,1.14,0.82,0.79*04

$GPRMC,154621.000,A,0012.5252,S,07825.1529,W,1.76,155.58,240217,,,D*6B

$GPRMC,154622.000,A,0012.5252,S,07825.1525,W,1.97,155.58,240217,,,D*6B

$GPVTG,155.58,T,,M,1.97,N,3.65,K,D*3B

$GPVTG,155.58,T,,M,2.01,N,3.73,K,D*30

$GPGGA,154624.000,0012.5256,S,07825.1516,W,2,10,0.82,2303.0,M,13.7,M,0000,0000*50

$GPGSV,4,3,13,14,19,322,40,29,10,137,25,12,10,053,30,27,03,246,*7F

$GPGSV,4,4,13,16,01,211,*4F

$GPGSA,A,3,10,29,21,31,25,14,26,18,12,32,,,1.14,0.82,0.79*04

$GPRMC,154625.000,A,0012.5259,S,07825.1512,W,1.80,155.58,240217,,,D*65

$GPRMC,154626.000,A,0012.5260,S,07825.1510,W,1.87,155.58,240217,,,D*69

$GPVTG,155.58,T,,M,1.87,N,3.46,K,D*3B

$GPVTG,155.58,T,,M,1.85,N,3.42,K,D*3D

$GPGGA,154628.000,0012.5264,S,07825.1504,W,2,10,0.82,2303.3,M,13.7,M,0000,0000*5D

$GPGGA,154629.000,0012.5265,S,07825.1499,W,2,10,0.82,2303.3,M,13.7,M,0000,0000*58

$GPGSA,A,3,10,29,21,31,25,14,26,18,12,32,,,1.14,0.82,0.79*04

$GPGSV,4,4,13,16,01,211,*4F

$GPRMC,154629.000,A,0012.5265,S,07825.1499,W,1.96,155.58,240217,,,D*63

$GPRMC,154630.000,A,0012.5266,S,07825.1494,W,1.89,100.78,240217,,,D*69

$GPVTG,100.78,T,,M,1.89,N,3.50,K,D*30

$GPVTG,105.29,T,,M,1.88,N,3.48,K,D*39

$GPGGA,154632.000,0012.5271,S,07825.1484,W,2,10,0.82,2303.9,M,13.7,M,0000,0000*51

$GPGGA,154633.000,0012.5273,S,07825.1481,W,2,10,0.82,2304.0,M,13.7,M,0000,0000*59

$GPGSA,A,3,10,29,21,31,25,14,26,18,12,32,,,1.14,0.82,0.79*04

$GPGSA,A,3,10,29,21,31,25,14,26,18,12,32,,,1.14,0.82,0.79*04

$GPGSV,4,1,13,18,59,060,32,31,57,272,45,51,56,270,40,10,48,009,39*72

$GPRMC,154634.000,A,0012.5276,S,07825.1475,W,1.82,111.15,240217,,,D*63

$GPVTG,111.15,T,,M,1.82,N,3.36,K,D*30

$GPVTG,93.29,T,,M,1.82,N,3.38,K,D*0A

$GPGGA,154636.000,0012.5278,S,07825.1466,W,2,10,0.82,2304.2,M,13.7,M,0000,0000*5C

$GPGGA,154637.000,0012.5277,S,07825.1463,W,2,10,0.82,2304.5,M,13.7,M,0000,0000*50

$GPGSA,A,3,10,29,21,31,25,14,26,18,12,32,,,1.14,0.82,0.79*04

$GPGSA,A,3,10,29,21,31,25,14,26,18,12,32,,,1.14,0.82,0.79*04

$GPRMC,154638.000,A,0012.5277,S,07825.1458,W,1.68,71.93,240217,,,D*5C

$GPGSV,4,1,13,18,59,060,31,31,57,272,43,51,56,270,41,10,48,009,27*79

$GPGSV,4,2,13,21,46,180,40,25,43,080,35,26,26,198,39,32,22,347,27*71

$GPVTG,69.80,T,,M,1.32,N,2.44,K,D*0D

$GPGGA,154640.000,0012.5274,S,07825.1453,W,2,10,0.82,2304.8,M,13.7,M,0000,0000*5D

$GPGGA,154641.000,0012.5270,S,07825.1457,W,2,10,0.82,2305.2,M,13.7,M,0000,0000*57

$GPGSA,A,3,10,29,21,31,25,14,26,18,12,32,,,1.14,0.82,0.79*04

$GPGSA,A,3,10,29,21,31,25,14,26,18,12,32,,,1.14,0.82,0.79*04

$GPRMC,154642.000,A,0012.5257,S,07825.1450,W,4.47,22.05,240217,,,D*5A

$GPRMC,154643.000,A,0012.5235,S,07825.1442,W,10.33,13.94,240217,,,D*60

$GPVTG,13.94,T,,M,10.33,N,19.13,K,D*0C

$GPGSV,4,2,13,21,46,180,41,25,43,080,33,26,26,198,38,32,22,347,26*76

$GPGSV,4,3,13,14,19,322,22,29,10,137,42,12,10,053,36,27,03,245,*7F

$GPGGA,154645.000,0012.5186,S,07825.1440,W,2,10,0.83,2303.8,M,13.7,M,0000,0000*52

$GPGSA,A,3,10,29,21,31,25,14,26,18,12,32,,,1.52,0.83,1.27*0D

$GPGSA,A,3,10,29,21,31,25,14,26,18,12,,,,1.58,0.88,1.32*09

$GPRMC,154646.000,A,0012.5172,S,07825.1468,W,12.11,291.93,240217,,,D*50

$GPRMC,154647.000,A,0012.5162,S,07825.1499,W,10.65,284.30,240217,,,D*52

$GPVTG,284.30,T,,M,10.65,N,19.74,K,D*3C

$GPVTG,226.34,T,,M,8.30,N,15.38,K,D*0D

$GPGGA,154649.000,0012.5194,S,07825.1534,W,2,10,0.83,2303.2,M,13.7,M,0000,0000*55

$GPGSV,4,3,13,14,19,322,33,29,10,137,23,12,10,053,41,27,03,245,*78

$GPGSV,4,4,13,16,01,211,*4F

$GPGSA,A,3,10,29,21,31,25,14,26,18,12,32,,,1.52,0.83,1.27*0D

$GPRMC,154650.000,A,0012.5222,S,07825.1540,W,8.83,189.94,240217,,,D*67

$GPRMC,154651.000,A,0012.5239,S,07825.1544,W,4.08,187.07,240217,,,D*63

$GPVTG,187.07,T,,M,4.08,N,7.55,K,D*3A

$GPVTG,187.07,T,,M,2.24,N,4.16,K,D*36

$GPGGA,154653.000,0012.5255,S,07825.1541,W,2,10,0.83,2301.8,M,13.7,M,0000,0000*5A

$GPGGA,154654.000,0012.5259,S,07825.1535,W,2,10,0.83,2301.9,M,13.7,M,0000,0000*53

$GPGSA,A,3,10,29,21,31,25,14,26,18,12,32,,,1.14,0.83,0.79*05

$GPGSV,4,4,13,16,01,211,*4F

$GPRMC,154654.000,A,0012.5259,S,07825.1535,W,2.11,187.07,240217,,,D*68

$GPRMC,154655.000,A,0012.5262,S,07825.1529,W,2.04,187.07,240217,,,D*68

$GPVTG,187.07,T,,M,2.04,N,3.78,K,D*3B

$GPVTG,187.07,T,,M,2.23,N,4.13,K,D*34

$GPGGA,154657.000,0012.5264,S,07825.1518,W,2,10,0.83,2302.4,M,13.7,M,0000,0000*5F

$GPGGA,154658.000,0012.5266,S,07825.1515,W,2,10,0.83,2302.6,M,13.7,M,0000,0000*5D

$GPGSA,A,3,10,29,21,31,25,14,26,18,12,32,,,1.14,0.83,0.79*05

$GPGSA,A,3,10,29,21,31,25,14,26,18,12,32,,,1.14,0.83,0.79*05

$GPGSV,4,1,13,18,59,060,33,31,57,273,44,51,56,270,41,10,48,009,40*7C

$GPRMC,154659.000,A,0012.5268,S,07825.1510,W,1.94,187.07,240217,,,D*6E

$GPVTG,187.07,T,,M,1.94,N,3.59,K,D*32

$GPVTG,187.07,T,,M,2.18,N,4.03,K,D*3D

$GPGGA,154701.000,0012.5272,S,07825.1502,W,2,10,0.83,2302.6,M,13.7,M,0000,0000*53

$GPGGA,154702.000,0012.5274,S,07825.1498,W,2,10,0.83,2302.7,M,13.7,M,0000,0000*55

$GPGSA,A,3,10,29,21,31,25,14,26,18,12,32,,,1.14,0.83,0.79*05

$GPGSA,A,3,10,29,21,31,25,14,26,18,12,32,,,1.14,0.83,0.79*05

$GPRMC,154703.000,A,0012.5277,S,07825.1494,W,1.70,187.07,240217,,,D*69

$GPGSV,4,1,13,18,59,060,32,31,57,273,42,51,56,270,39,10,48,009,41*75

$GPGSV,4,2,13,21,46,180,35,25,43,080,24,26,26,198,31,32,22,347,40*7A

$GPVTG,187.07,T,,M,1.64,N,3.04,K,D*35

$GPGGA,154705.000,0012.5282,S,07825.1490,W,2,10,0.83,2302.5,M,13.7,M,0000,0000*51

$GPGGA,154706.000,0012.5284,S,07825.1486,W,2,10,0.83,2302.5,M,13.7,M,0000,0000*53

$GPGSA,A,3,10,29,21,31,25,14,26,18,12,32,,,1.14,0.83,0.79*05

$GPGSA,A,3,10,29,21,31,25,14,26,18,12,32,,,1.14,0.83,0.79*05

$GPRMC,154707.000,A,0012.5284,S,07825.1484,W,1.84,187.07,240217,,,D*6B

$GPRMC,154708.000,A,0012.5284,S,07825.1479,W,1.82,187.07,240217,,,D*60

$GPVTG,187.07,T,,M,1.82,N,3.37,K,D*3D

$GPGSV,4,2,13,21,46,179,40,25,43,080,28,26,26,198,37,32,22,347,38*7B

$GPGSV,4,3,13,14,19,322,39,29,10,137,23,12,10,053,24,27,03,245,*71

$GPGGA,154710.000,0012.5284,S,07825.1470,W,2,10,0.83,2302.5,M,13.7,M,0000,0000*5D

$GPGSA,A,3,10,29,21,31,25,14,26,18,12,32,,,1.14,0.83,0.79*05

$GPGSA,A,3,10,29,21,31,25,14,26,18,12,32,,,1.14,0.83,0.79*05

$GPRMC,154711.000,A,0012.5284,S,07825.1470,W,1.87,187.07,240217,,,D*64

$GPRMC,154712.000,A,0012.5282,S,07825.1465,W,1.42,187.07,240217,,,D*6C

$GPVTG,187.07,T,,M,1.42,N,2.62,K,D*30

$GPVTG,187.07,T,,M,1.13,N,2.10,K,D*31

$GPGGA,154714.000,0012.5280,S,07825.1463,W,2,10,0.83,2302.7,M,13.7,M,0000,0000*5D

$GPGSV,4,3,14,14,19,322,21,20,12,129,,29,10,137,39,12,10,053,37*78

$GPGSV,4,4,14,27,03,245,,16,01,210,*7C

$GPGSA,A,3,10,29,21,31,25,14,26,18,12,,,,1.18,0.87,0.80*0A

$GPRMC,154715.000,A,0012.5277,S,07825.1461,W,0.69,187.07,240217,,,D*6D

$GPRMC,154716.000,A,0012.5275,S,07825.1460,W,0.07,187.07,240217,,,D*65

$GPVTG,187.07,T,,M,0.07,N,0.13,K,D*34

$GPVTG,187.07,T,,M,2.41,N,4.47,K,D*31

$GPGGA,154718.000,0012.5271,S,07825.1475,W,2,10,0.83,2302.9,M,13.7,M,0000,0000*56

$GPGGA,154719.000,0012.5265,S,07825.1502,W,2,10,0.83,2302.9,M,13.7,M,0000,0000*53

$GPGSA,A,3,10,29,21,31,25,14,26,18,12,32,,,1.52,0.83,1.27*0D

$GPGSV,4,4,14,27,04,245,,16,01,210,*7B

$GPRMC,154719.000,A,0012.5265,S,07825.1502,W,11.47,280.42,240217,,,D*5F

$GPRMC,154720.000,A,0012.5256,S,07825.1533,W,11.64,288.67,240217,,,D*59

