
$GPGGA,163956.000,0010.9376,S,07829.0244,W,1,05,1.36,2806.3,M,13.7,M,,*5A

$GPGSA,A,3,16,18,25,26,31,,,,,,,,1.65,1.36,0.93*01

$GPRMC,163957.000,A,0010.9375,S,07829.0245,W,0.14,65.74,230217,,,A*50

$GPVTG,65.74,T,,M,0.14,N,0.25,K,A*0F

$GPVTG,93.76,T,,M,0.17,N,0.32,K,A*01

$GPGGA,163959.000,0010.9374,S,07829.0246,W,1,05,1.36,2807.4,M,13.7,M,,*53

$GPGSV,3,3,11,29,,,24,27,,,32,10,,,39*7B

$GPRMC,163959.000,A,0010.9374,S,07829.0246,W,0.13,89.15,230217,,,A*5E

$GPRMC,164000.000,A,0010.9374,S,07829.0247,W,0.13,66.72,230217,,,A*5D

$GPVTG,66.72,T,,M,0.13,N,0.24,K,A*0C

$GPVTG,155.30,T,,M,0.09,N,0.17,K,A*30

$GPGGA,164002.000,0010.9373,S,07829.0249,W,1,05,1.36,2806.8,M,13.7,M,,*56

$GPGGA,164003.000,0010.9372,S,07829.0250,W,1,05,1.36,2806.6,M,13.7,M,,*50

$GPGSA,A,3,16,18,25,26,31,,,,,,,,1.65,1.36,0.93*01

$GPGSA,A,3,16,18,25,26,31,,,,,,,,1.65,1.36,0.93*01

$GPGSV,3,1,12,18,58,110,38,31,50,315,38,26,47,192,40,25,32,052,31*76

$GPVTG,304.31,T,,M,0.37,N,0.69,K,A*33

$GPGGA,164005.000,0010.9369,S,07829.0253,W,1,05,1.36,2807.0,M,13.7,M,,*58

$GPGGA,164006.000,0010.9365,S,07829.0258,W,1,05,1.36,2806.8,M,13.7,M,,*55

$GPGSA,A,3,16,18,25,26,31,,,,,,,,1.65,1.36,0.93*01

$GPGSA,A,3,16,18,25,26,31,,,,,,,,1.65,1.36,0.93*01

$GPRMC,164007.000,A,0010.9366,S,07829.0262,W,1.18,256.93,230217,,,A*6A

$GPRMC,164008.000,A,0010.9367,S,07829.0264,W,1.06,260.61,230217,,,A*65

$GPVTG,260.61,T,,M,1.06,N,1.97,K,A*36

$GPGSV,3,2,12,48,27,270,30,16,18,203,36,04,,,33,14,,,32*7E

$GPGSV,3,3,12,32,,,38,29,,,21,27,,,34,10,,,41*7E

$GPGSA,A,3,16,18,25,26,31,,,,,,,,1.65,1.36,0.93*01

$GPRMC,164010.000,A,0010.9369,S,07829.0266,W,0.39,253.48,230217,,,A*66

$GPRMC,164011.000,A,0010.9370,S,07829.0265,W,0.12,248.61,230217,,,A*64

$GPVTG,248.61,T,,M,0.12,N,0.23,K,A*36

$GPVTG,266.17,T,,M,0.18,N,0.33,K,A*30

$GPGGA,164013.000,0010.9371,S,07829.0266,W,1,05,1.36,2804.9,M,13.7,M,,*5A

$GPGGA,164014.000,0010.9372,S,07829.0266,W,1,05,1.36,2805.1,M,13.7,M,,*57

$GPGSA,A,3,16,18,25,26,31,,,,,,,,1.65,1.36,0.93*01

$GPGSV,4,4,13,10,,,34*7D

$GPRMC,164014.000,A,0010.9372,S,07829.0266,W,0.02,185.49,230217,,,A*69

$GPRMC,164015.000,A,0010.9373,S,07829.0266,W,0.05,72.40,230217,,,A*5E

$GPVTG,72.40,T,,M,0.05,N,0.10,K,A*08

$GPVTG,152.11,T,,M,0.18,N,0.32,K,A*33

$GPGGA,164017.000,0010.9374,S,07829.0266,W,1,05,1.36,2805.0,M,13.7,M,,*53

$GPGGA,164018.000,0010.9374,S,07829.0265,W,1,05,1.38,2805.1,M,13.7,M,,*50

$GPGSA,A,3,16,18,25,26,31,,,,,,,,2.84,1.38,2.48*07

$GPGSA,A,3,16,18,25,26,31,10,,,,,,,1.62,1.35,0.91*06

$GPGSV,4,1,13,10,68,038,34,18,58,110,36,31,50,315,37,26,47,192,28*7F

$GPRMC,164019.000,A,0010.9374,S,07829.0265,W,0.09,25.90,230217,,,A*55

$GPVTG,25.90,T,,M,0.09,N,0.16,K,A*0D

$GPVTG,31.90,T,,M,0.11,N,0.21,K,A*05

$GPGGA,164021.000,0010.9373,S,07829.0265,W,1,06,1.35,2804.6,M,13.7,M,,*55

$GPGGA,164022.000,0010.9372,S,07829.0265,W,1,06,1.34,2804.6,M,13.7,M,,*56

$GPGSA,A,3,16,18,25,26,31,10,,,,,,,1.62,1.34,0.91*07

$GPGSA,A,3,16,18,25,26,31,10,,,,,,,1.62,1.34,0.91*07

$GPRMC,164023.000,A,0010.9372,S,07829.0265,W,0.08,323.75,230217,,,A*65

$GPGSV,3,1,11,10,68,038,33,18,58,110,22,31,50,316,36,26,47,192,37*74

$GPGSV,3,2,11,25,32,052,24,21,26,166,29,16,18,203,29,33,18,090,*76

$GPGGA,164025.000,0010.9371,S,07829.0265,W,1,08,1.20,2804.6,M,13.7,M,,*59

$GPGSA,A,3,16,18,25,26,31,32,27,10,,,,,1.93,1.20,1.51*05

$GPGSA,A,3,16,18,25,26,31,32,27,10,,,,,1.42,1.15,0.83*01

$GPRMC,164026.000,A,0010.9372,S,07829.0264,W,0.36,77.32,230217,,,A*5D

$GPRMC,164027.000,A,0010.9371,S,07829.0263,W,0.29,76.81,230217,,,A*5F

$GPVTG,76.81,T,,M,0.29,N,0.54,K,A*0F

$GPVTG,319.26,T,,M,0.27,N,0.51,K,A*33

$GPGGA,164029.000,0010.9371,S,07829.0263,W,1,08,1.15,2804.6,M,13.7,M,,*55

$GPGSV,3,3,11,16,18,203,26,27,06,225,35,14,,,31*75

$GPRMC,164029.000,A,0010.9371,S,07829.0263,W,0.54,285.46,230217,,,A*6E

$GPRMC,164030.000,A,0010.9370,S,07829.0264,W,0.48,298.11,230217,,,A*63

$GPVTG,298.11,T,,M,0.48,N,0.88,K,A*32

$GPVTG,290.71,T,,M,0.49,N,0.90,K,A*34

$GPGGA,164032.000,0010.9369,S,07829.0267,W,1,08,1.15,2804.6,M,13.7,M,,*52

$GPGGA,164033.000,0010.9369,S,07829.0268,W,1,08,1.15,2804.6,M,13.7,M,,*5C

$GPGSA,A,3,16,18,25,26,31,32,27,10,,,,,1.42,1.15,0.83*01

$GPGSA,A,3,16,18,25,26,31,32,27,10,,,,,1.42,1.15,0.83*01

$GPGSV,3,1,11,10,68,038,37,18,58,110,33,51,56,270,,31,50,316,43*79

$GPVTG,38.98,T,,M,0.04,N,0.08,K,A*0B

$GPGGA,164035.000,0010.9369,S,07829.0267,W,1,08,1.15,2804.6,M,13.7,M,,*55

$GPGGA,164036.000,0010.9369,S,07829.0267,W,1,08,1.15,2804.6,M,13.7,M,,*56

$GPGSA,A,3,16,18,25,26,31,32,27,10,,,,,1.42,1.15,0.83*01

$GPGSA,A,3,16,18,25,26,31,32,27,10,,,,,1.42,1.15,0.83*01

$GPRMC,164037.000,A,0010.9369,S,07829.0266,W,0.52,115.02,230217,,,A*61

$GPRMC,164038.000,A,0010.9369,S,07829.0265,W,0.74,82.45,230217,,,A*55

$GPVTG,82.45,T,,M,0.74,N,1.37,K,A*00

$GPGSV,3,2,11,25,32,052,37,48,27,270,40,21,26,166,33,32,23,008,34*7C

$GPGSV,3,3,11,16,18,203,30,27,06,225,37,14,,,33*72

$GPGSA,A,3,16,18,25,26,31,32,27,10,,,,,1.42,1.15,0.83*01

$GPRMC,164040.000,A,0010.9370,S,07829.0264,W,0.17,75.40,230217,,,A*5B

$GPRMC,164041.000,A,0010.9371,S,07829.0263,W,0.16,86.21,230217,,,A*56

$GPVTG,86.21,T,,M,0.16,N,0.29,K,A*0C

$GPVTG,332.77,T,,M,0.04,N,0.08,K,A*33

$GPGGA,164043.000,0010.9371,S,07829.0264,W,1,08,1.15,2804.4,M,13.7,M,,*5C

$GPGGA,164044.000,0010.9371,S,07829.0264,W,1,08,1.15,2804.4,M,13.7,M,,*5B

$GPGSA,A,3,16,18,25,26,31,32,27,10,,,,,1.42,1.15,0.83*01

$GPRMC,164044.000,A,0010.9371,S,07829.0264,W,0.03,108.80,230217,,,A*6C

$GPVTG,108.80,T,,M,0.03,N,0.06,K,A*39

$GPVTG,259.98,T,,M,0.00,N,0.00,K,A*32

$GPGGA,164046.000,0010.9371,S,07829.0264,W,1,08,1.15,2804.5,M,13.7,M,,*58

$GPGGA,164047.000,0010.9371,S,07829.0264,W,1,08,1.15,2804.5,M,13.7,M,,*59

$GPGSA,A,3,16,18,25,26,31,32,27,10,,,,,1.42,1.15,0.83*01

$GPGSA,A,3,16,18,25,26,31,32,27,10,,,,,1.42,1.15,0.83*01

$GPRMC,164048.000,A,0010.9371,S,07829.0264,W,0.04,98.97,230217,,,A*59

$GPGSV,3,1,11,10,69,038,42,18,57,111,38,31,50,316,44,26,47,192,41*72

$GPGSV,3,2,11,25,32,052,35,48,27,270,39,21,26,166,35,32,23,008,37*75

$GPGGA,164050.000,0010.9371,S,07829.0264,W,1,08,1.15,2804.5,M,13.7,M,,*5F

$GPGSA,A,3,16,18,25,26,31,32,27,10,,,,,1.42,1.15,0.83*01

$GPGSA,A,3,16,18,25,26,31,32,27,10,,,,,1.42,1.15,0.83*01

$GPRMC,164051.000,A,0010.9371,S,07829.0264,W,0.04,348.69,230217,,,A*6E

$GPRMC,164052.000,A,0010.9371,S,07829.0264,W,0.02,64.41,230217,,,A*5C

$GPVTG,64.41,T,,M,0.02,N,0.03,K,A*0B

$GPVTG,93.83,T,,M,0.01,N,0.02,K,A*0F

$GPGGA,164054.000,0010.9371,S,07829.0264,W,1,08,1.20,2804.5,M,13.7,M,,*5D

$GPGSV,3,3,11,16,19,203,33,27,06,225,30,14,,,37*73

$GPRMC,164054.000,A,0010.9371,S,07829.0264,W,0.01,333.85,230217,,,A*60

$GPRMC,164055.000,A,0010.9371,S,07829.0264,W,0.00,190.17,230217,,,A*60

$GPVTG,190.17,T,,M,0.00,N,0.01,K,A*32

$GPVTG,210.39,T,,M,0.03,N,0.05,K,A*32

$GPGGA,164057.000,0010.9371,S,07829.0264,W,1,09,1.07,2804.5,M,13.7,M,,*5A

$GPGGA,164058.000,0010.9371,S,07829.0264,W,1,09,1.07,2804.5,M,13.7,M,,*55

$GPGSA,A,3,16,18,25,21,26,31,32,27,10,,,,1.82,1.07,1.47*04

$GPGSA,A,3,16,18,25,21,26,31,32,27,10,,,,1.82,1.07,1.47*04

$GPGSV,3,1,11,10,69,038,38,18,57,111,32,31,50,316,36,26,47,192,28*7F

$GPVTG,318.91,T,,M,0.01,N,0.01,K,A*3F

$GPGGA,164100.000,0010.9371,S,07829.0264,W,1,09,1.07,2804.5,M,13.7,M,,*59

$GPGGA,164101.000,0010.9371,S,07829.0264,W,1,09,1.07,2804.5,M,13.7,M,,*58

$GPGSA,A,3,16,18,25,21,26,31,32,27,10,,,,1.82,1.07,1.47*04

$GPGSA,A,3,16,18,25,21,26,31,32,27,10,,,,1.82,1.07,1.47*04

$GPRMC,164102.000,A,0010.9371,S,07829.0264,W,0.00,226.29,230217,,,A*60

$GPRMC,164103.000,A,0010.9371,S,07829.0264,W,0.01,40.09,230217,,,A*50

$GPVTG,40.09,T,,M,0.01,N,0.02,K,A*03

$GPGSV,3,2,11,25,32,052,37,48,27,270,36,21,25,166,25,32,23,009,41*7A

$GPGSV,3,3,11,16,19,203,23,27,06,225,18,14,,,31*7E

$GPGSA,A,3,16,18,25,21,26,31,32,27,10,,,,1.82,1.07,1.47*04

$GPRMC,164105.000,A,0010.9371,S,07829.0264,W,0.01,231.95,230217,,,A*67

$GPRMC,164106.000,A,0010.9371,S,07829.0264,W,0.04,223.24,230217,,,A*68

$GPVTG,223.24,T,,M,0.04,N,0.07,K,A*3B

$GPVTG,87.11,T,,M,0.02,N,0.03,K,A*03

$GPGGA,164108.000,0010.9371,S,07829.0264,W,1,09,1.07,2804.5,M,13.7,M,,*51

$GPGGA,164109.000,0010.9371,S,07829.0264,W,1,09,1.07,2804.5,M,13.7,M,,*50

$GPGSA,A,3,16,18,25,21,26,31,32,27,10,,,,1.82,1.07,1.47*04

$GPRMC,164109.000,A,0010.9371,S,07829.0264,W,0.03,292.11,230217,,,A*6C

$GPVTG,292.11,T,,M,0.03,N,0.06,K,A*31

$GPVTG,343.22,T,,M,0.01,N,0.03,K,A*3B

$GPGGA,164111.000,0010.9371,S,07829.0264,W,1,09,1.07,2804.5,M,13.7,M,,*59

$GPGGA,164112.000,0010.9371,S,07829.0264,W,1,09,1.07,2804.5,M,13.7,M,,*5A

$GPGSA,A,3,16,18,25,21,26,31,32,27,10,,,,1.82,1.07,1.47*04

$GPGSA,A,3,16,18,25,21,26,31,32,27,10,,,,1.82,1.07,1.47*04

$GPRMC,164113.000,A,0010.9371,S,07829.0264,W,0.04,91.04,230217,,,A*55

$GPGSV,3,1,11,10,69,038,43,18,57,111,38,31,50,316,42,26,47,192,37*74

$GPGSV,3,2,11,25,32,052,37,48,27,270,40,21,25,166,36,32,23,009,35*7A

$GPGGA,164115.000,0010.9371,S,07829.0264,W,1,09,1.07,2804.4,M,13.7,M,,*5C

$GPGSA,A,3,16,18,25,21,26,31,32,27,10,,,,1.82,1.07,1.47*04

$GPGSA,A,3,16,18,25,21,26,31,32,27,10,,,,1.82,1.07,1.47*04

$GPRMC,164116.000,A,0010.9371,S,07829.0264,W,0.01,191.39,230217,,,A*6A

$GPRMC,164117.000,A,0010.9371,S,07829.0264,W,0.01,202.77,230217,,,A*68

$GPVTG,202.77,T,,M,0.01,N,0.01,K,A*3D

$GPVTG,183.29,T,,M,0.04,N,0.07,K,A*3F

$GPGGA,164119.000,0010.9371,S,07829.0264,W,1,09,1.07,2804.4,M,13.7,M,,*50

$GPGSV,3,3,11,16,19,203,32,27,06,225,25,14,,,37*76

$GPRMC,164119.000,A,0010.9371,S,07829.0264,W,0.03,173.73,230217,,,A*65

$GPRMC,164120.000,A,0010.9372,S,07829.0264,W,0.05,106.82,230217,,,A*66

$GPVTG,106.82,T,,M,0.05,N,0.09,K,A*3C

$GPVTG,80.30,T,,M,0.03,N,0.05,K,A*00

$GPGGA,164122.000,0010.9372,S,07829.0264,W,1,09,1.07,2804.4,M,13.7,M,,*5B

$GPGGA,164123.000,0010.9371,S,07829.0264,W,1,09,1.07,2804.4,M,13.7,M,,*59

$GPGSA,A,3,16,18,25,21,26,31,32,27,10,,,,1.82,1.07,1.47*04

$GPGSA,A,3,16,18,25,21,26,31,32,27,10,,,,1.82,1.07,1.47*04

$GPGSV,3,1,11,10,69,039,38,18,57,111,30,31,50,316,45,26,47,192,38*79

$GPVTG,185.25,T,,M,0.20,N,0.36,K,A*31

$GPGGA,164125.000,0010.9372,S,07829.0264,W,1,08,1.09,2804.4,M,13.7,M,,*53

$GPGGA,164126.000,0010.9371,S,07829.0264,W,1,08,1.09,2804.4,M,13.7,M,,*53

$GPGSA,A,3,18,25,21,26,31,32,27,10,,,,,1.84,1.09,1.49*05

$GPGSA,A,3,18,25,21,26,31,32,27,10,,,,,1.84,1.09,1.49*05

$GPRMC,164127.000,A,0010.9371,S,07829.0264,W,0.11,302.65,230217,,,A*68

$GPRMC,164128.000,A,0010.9371,S,07829.0264,W,0.04,130.67,230217,,,A*62

$GPVTG,130.67,T,,M,0.04,N,0.07,K,A*3D

$GPGSV,3,2,11,25,32,052,47,48,27,270,30,21,25,166,21,32,23,009,41*7F

$GPGSV,3,3,11,16,19,203,18,27,06,225,21,14,,,30*7D

$GPGSA,A,3,18,25,21,26,31,32,27,10,,,,,1.34,1.05,0.83*05

$GPRMC,164130.000,A,0010.9372,S,07829.0264,W,0.37,270.39,230217,,,A*64

$GPRMC,164131.000,A,0010.9372,S,07829.0265,W,0.49,282.08,230217,,,A*62

$GPVTG,282.08,T,,M,0.49,N,0.92,K,A*3B

$GPVTG,215.85,T,,M,0.24,N,0.45,K,A*31

$GPGGA,164133.000,0010.9372,S,07829.0267,W,1,09,1.02,2804.5,M,13.7,M,,*5C

$GPGGA,164134.000,0010.9372,S,07829.0267,W,1,09,1.02,2804.5,M,13.7,M,,*5B

$GPGSA,A,3,18,25,21,26,31,14,32,27,10,,,,1.76,1.02,1.43*0C

$GPRMC,164134.000,A,0010.9372,S,07829.0267,W,0.20,191.10,230217,,,A*62

$GPVTG,191.10,T,,M,0.20,N,0.37,K,A*33

$GPVTG,123.67,T,,M,0.24,N,0.44,K,A*3A

$GPGGA,164136.000,0010.9373,S,07829.0267,W,1,08,1.07,2804.5,M,13.7,M,,*5C

$GPGGA,164137.000,0010.9373,S,07829.0267,W,1,09,1.02,2804.5,M,13.7,M,,*59

$GPGSA,A,3,18,25,21,26,31,14,32,27,10,,,,1.76,1.02,1.43*0C

$GPGSA,A,3,16,18,25,21,26,31,14,32,27,10,,,1.73,1.00,1.41*0E

$GPRMC,164138.000,A,0010.9373,S,07829.0267,W,0.07,206.03,230217,,,A*65

$GPGSV,3,1,11,10,69,039,43,18,57,111,36,31,50,317,44,26,48,192,27*72

$GPGSV,3,2,11,25,32,051,44,48,27,270,26,21,25,166,24,32,24,009,40*7B

$GPGGA,164140.000,0010.9373,S,07829.0267,W,1,10,1.00,2804.5,M,13.7,M,,*53

$GPGSA,A,3,16,18,25,21,26,31,14,32,27,10,,,1.73,1.00,1.41*0E

$GPGSA,A,3,16,18,25,21,26,31,14,32,27,10,,,1.25,0.94,0.82*0F

$GPRMC,164141.000,A,0010.9373,S,07829.0268,W,0.07,248.61,230217,,,A*6A

$GPRMC,164142.000,A,0010.9373,S,07829.0268,W,0.03,290.55,230217,,,A*6F

$GPVTG,290.55,T,,M,0.03,N,0.06,K,A*33

$GPVTG,293.93,T,,M,1.23,N,2.28,K,A*37

$GPGGA,164144.000,0010.9371,S,07829.0272,W,1,10,0.94,2804.4,M,13.7,M,,*5C

$GPGSV,3,3,11,14,19,343,28,16,19,203,32,27,06,225,22*43

$GPRMC,164144.000,A,0010.9371,S,07829.0272,W,1.78,296.36,230217,,,A*6E

$GPRMC,164145.000,A,0010.9368,S,07829.0277,W,2.12,292.43,230217,,,A*6B

$GPVTG,292.43,T,,M,2.12,N,3.94,K,A*3C

$GPVTG,283.54,T,,M,2.09,N,3.87,K,A*32

$GPGGA,164147.000,0010.9366,S,07829.0290,W,1,10,0.94,2804.4,M,13.7,M,,*55

$GPGGA,164148.000,0010.9364,S,07829.0296,W,1,10,0.94,2804.4,M,13.7,M,,*5E

$GPGSA,A,3,16,18,25,21,26,31,14,32,27,10,,,1.25,0.94,0.82*0F

$GPGSA,A,3,16,18,25,21,26,31,14,32,27,10,,,1.25,0.94,0.82*0F

$GPGSV,3,1,11,10,69,039,43,18,57,111,42,31,50,317,37,26,48,192,36*75

$GPVTG,288.37,T,,M,1.97,N,3.65,K,A*34

$GPGGA,164150.000,0010.9362,S,07829.0308,W,1,10,0.94,2804.3,M,13.7,M,,*50

$GPGGA,164151.000,0010.9362,S,07829.0314,W,1,10,0.94,2804.1,M,13.7,M,,*5E

$GPGSA,A,3,16,18,25,21,26,31,14,32,27,10,,,1.25,0.94,0.82*0F

$GPGSA,A,3,16,18,25,21,26,31,14,32,27,10,,,1.25,0.94,0.82*0F

$GPRMC,164152.000,A,0010.9362,S,07829.0320,W,2.04,275.17,230217,,,A*6B

$GPRMC,164153.000,A,0010.9361,S,07829.0326,W,2.17,280.81,230217,,,A*68

$GPVTG,280.81,T,,M,2.17,N,4.02,K,A*3C

$GPGSV,3,2,11,25,32,051,41,48,27,270,26,21,25,166,31,32,24,009,34*79

$GPGSV,3,3,11,14,19,343,29,16,19,203,27,27,06,225,18*4F

$GPGSA,A,3,16,18,25,21,26,31,14,32,27,10,,,1.25,0.94,0.82*0F

$GPRMC,164155.000,A,0010.9360,S,07829.0339,W,2.30,277.35,230217,,,A*63

$GPRMC,164156.000,A,0010.9359,S,07829.0346,W,2.61,285.72,230217,,,A*68

$GPVTG,285.72,T,,M,2.61,N,4.84,K,A*3A

$GPVTG,279.65,T,,M,1.69,N,3.13,K,A*3D

$GPGGA,164158.000,0010.9357,S,07829.0358,W,1,10,0.94,2803.6,M,13.7,M,,*59

$GPGGA,164159.000,0010.9357,S,07829.0364,W,1,10,0.94,2803.5,M,13.7,M,,*54

$GPGSA,A,3,16,18,25,21,26,31,14,32,27,10,,,1.25,0.94,0.82*0F

$GPRMC,164159.000,A,0010.9357,S,07829.0364,W,1.96,277.90,230217,,,A*63

$GPVTG,277.90,T,,M,1.96,N,3.63,K,A*3E

$GPVTG,274.80,T,,M,2.55,N,4.72,K,A*37

$GPGGA,164201.000,0010.9356,S,07829.0378,W,1,10,0.94,2803.3,M,13.7,M,,*50

$GPGGA,164202.000,0010.9355,S,07829.0385,W,1,10,0.94,2803.2,M,13.7,M,,*53

$GPGSA,A,3,16,18,25,21,26,31,14,32,27,10,,,1.25,0.94,0.82*0F

$GPGSA,A,3,16,18,25,21,26,31,14,32,27,10,,,1.25,0.94,0.82*0F

$GPRMC,164203.000,A,0010.9355,S,07829.0392,W,2.40,269.11,230217,,,A*6A

$GPGSV,3,1,11,10,69,039,43,18,57,112,39,31,50,317,37,26,48,192,35*79

$GPGSV,3,2,11,25,32,051,40,48,27,270,25,21,25,166,35,32,24,009,33*78

$GPGGA,164205.000,0010.9353,S,07829.0405,W,1,10,0.94,2803.1,M,13.7,M,,*5E

$GPGSA,A,3,16,18,25,21,26,31,14,32,27,10,,,1.25,0.94,0.82*0F

$GPGSA,A,3,16,18,25,21,26,31,14,32,27,10,,,1.25,0.94,0.82*0F

$GPRMC,164206.000,A,0010.9353,S,07829.0412,W,2.29,280.86,230217,,,A*60

$GPRMC,164207.000,A,0010.9351,S,07829.0418,W,2.32,282.77,230217,,,A*6F

$GPVTG,282.77,T,,M,2.32,N,4.30,K,A*31

$GPVTG,279.94,T,,M,1.57,N,2.91,K,A*35

$GPGGA,164209.000,0010.9349,S,07829.0427,W,1,10,0.94,2803.4,M,13.7,M,,*5C

$GPGSV,3,3,11,14,19,343,30,16,19,203,31,27,06,225,23*48

$GPRMC,164209.000,A,0010.9349,S,07829.0427,W,2.17,283.74,230217,,,A*61

$GPRMC,164210.000,A,0010.9348,S,07829.0433,W,2.16,280.07,230217,,,A*6B

$GPVTG,280.07,T,,M,2.16,N,4.00,K,A*31

$GPVTG,278.85,T,,M,2.15,N,3.98,K,A*39

$GPGGA,164212.000,0010.9346,S,07829.0445,W,1,10,0.94,2803.4,M,13.7,M,,*5D

$GPGGA,164213.000,0010.9344,S,07829.0450,W,1,10,0.94,2803.4,M,13.7,M,,*5A

$GPGSA,A,3,16,18,25,21,26,31,14,32,27,10,,,1.25,0.94,0.82*0F

$GPGSA,A,3,16,18,25,21,26,31,14,32,27,10,,,1.25,0.94,0.82*0F

$GPGSV,3,1,11,10,69,039,44,18,57,112,47,31,50,317,36,26,48,192,38*7B

$GPVTG,292.84,T,,M,2.09,N,3.88,K,A*30

$GPGGA,164215.000,0010.9339,S,07829.0460,W,1,10,0.94,2803.5,M,13.7,M,,*54

$GPGGA,164216.000,0010.9337,S,07829.0463,W,1,10,0.94,2803.5,M,13.7,M,,*5A

$GPGSA,A,3,16,18,25,21,26,31,14,32,27,10,,,1.25,0.94,0.82*0F

$GPGSA,A,3,16,18,25,21,26,31,14,32,27,10,,,1.25,0.94,0.82*0F

$GPRMC,164217.000,A,0010.9338,S,07829.0463,W,0.22,155.49,230217,,,A*6A

$GPRMC,164218.000,A,0010.9338,S,07829.0463,W,0.09,196.99,230217,,,A*6E

$GPVTG,196.99,T,,M,0.09,N,0.16,K,A*3D

$GPGSV,3,2,11,25,31,051,38,48,27,270,41,21,25,166,39,32,24,009,17*7C

$GPGSV,3,3,11,14,19,343,28,16,19,203,36,27,06,225,32*46

$GPGSA,A,3,16,18,25,21,26,31,14,32,27,10,,,1.25,0.94,0.82*0F

$GPRMC,164220.000,A,0010.9339,S,07829.0462,W,0.05,230.70,230217,,,A*61

$GPRMC,164221.000,A,0010.9339,S,07829.0462,W,0.04,39.54,230217,,,A*5C

$GPVTG,39.54,T,,M,0.04,N,0.07,K,A*05

$GPVTG,158.69,T,,M,0.04,N,0.08,K,A*32

$GPGGA,164223.000,0010.9339,S,07829.0462,W,1,10,0.94,2803.5,M,13.7,M,,*53

$GPGGA,164224.000,0010.9339,S,07829.0462,W,1,10,0.94,2803.5,M,13.7,M,,*54

$GPGSA,A,3,16,18,25,21,26,31,14,32,27,10,,,1.25,0.94,0.82*0F

$GPRMC,164224.000,A,0010.9339,S,07829.0462,W,0.29,88.55,230217,,,A*5D

$GPVTG,88.55,T,,M,0.29,N,0.54,K,A*07

$GPVTG,223.02,T,,M,0.21,N,0.40,K,A*3B

$GPGGA,164226.000,0010.9339,S,07829.0462,W,1,10,0.94,2803.7,M,13.7,M,,*54

$GPGGA,164227.000,0010.9339,S,07829.0462,W,1,10,0.95,2803.7,M,13.7,M,,*54

$GPGSA,A,3,16,18,25,21,26,31,14,32,27,10,,,1.25,0.95,0.82*0E

$GPGSA,A,3,16,18,25,21,26,31,14,32,27,10,,,1.25,0.94,0.82*0F

$GPRMC,164228.000,A,0010.9339,S,07829.0462,W,0.09,146.48,230217,,,A*6C

$GPGSV,3,1,11,10,69,040,43,18,57,112,41,31,50,317,41,26,48,192,42*79

$GPGSV,3,2,11,25,31,051,42,48,27,270,36,21,25,166,37,32,24,009,37*7D

$GPGGA,164230.000,0010.9339,S,07829.0462,W,1,10,1.00,2803.7,M,13.7,M,,*5F

$GPGSA,A,3,16,18,25,21,26,31,14,32,27,10,,,1.72,1.00,1.41*0F

$GPGSA,A,3,16,18,25,21,26,31,14,32,27,10,,,1.72,1.00,1.41*0F

$GPRMC,164231.000,A,0010.9339,S,07829.0462,W,0.06,314.25,230217,,,A*65

$GPRMC,164232.000,A,0010.9339,S,07829.0462,W,0.02,347.36,230217,,,A*66

$GPVTG,347.36,T,,M,0.02,N,0.04,K,A*3E

$GPVTG,82.12,T,,M,0.04,N,0.08,K,A*08

$GPGGA,164234.000,0010.9339,S,07829.0462,W,1,10,1.00,2803.7,M,13.7,M,,*5B

$GPGSV,3,3,11,14,20,344,37,16,19,203,35,27,06,225,24*41

$GPRMC,164234.000,A,0010.9339,S,07829.0462,W,0.01,121.02,230217,,,A*66

$GPRMC,164235.000,A,0010.9339,S,07829.0462,W,0.00,197.82,230217,,,A*63

$GPVTG,197.82,T,,M,0.00,N,0.00,K,A*38

$GPVTG,34.96,T,,M,0.02,N,0.04,K,A*03

$GPGGA,164237.000,0010.9339,S,07829.0462,W,1,10,1.00,2803.7,M,13.7,M,,*58

$GPGGA,164238.000,0010.9339,S,07829.0462,W,1,10,1.00,2803.7,M,13.7,M,,*57

$GPGSA,A,3,16,18,25,21,26,31,14,32,27,10,,,1.72,1.00,1.41*0F

$GPGSA,A,3,16,18,25,21,26,31,14,32,27,10,,,1.72,1.00,1.41*0F

$GPGSV,3,1,11,10,69,040,44,18,57,112,41,31,50,317,41,26,48,192,42*7E

$GPVTG,146.27,T,,M,0.02,N,0.04,K,A*3D

$GPGGA,164240.000,0010.9339,S,07829.0462,W,1,10,1.00,2803.7,M,13.7,M,,*58

$GPGGA,164241.000,0010.9339,S,07829.0462,W,1,10,1.00,2803.7,M,13.7,M,,*59

$GPGSA,A,3,16,18,25,21,26,31,14,32,27,10,,,1.72,1.00,1.41*0F

$GPGSA,A,3,16,18,25,21,26,31,14,32,27,10,,,1.72,1.00,1.41*0F

$GPRMC,164242.000,A,0010.9339,S,07829.0462,W,0.29,202.61,230217,,,A*6A

$GPRMC,164243.000,A,0010.9339,S,07829.0462,W,0.22,111.79,230217,,,A*68

$GPVTG,111.79,T,,M,0.22,N,0.40,K,A*36

$GPGSV,3,2,11,25,31,051,42,48,27,270,31,21,25,165,27,32,24,009,37*78

$GPGSV,3,3,11,14,20,344,38,16,19,203,23,27,06,225,22*4F

$GPGSA,A,3,16,18,25,21,26,31,14,32,27,10,,,1.72,1.00,1.41*0F

$GPRMC,164245.000,A,0010.9340,S,07829.0463,W,0.58,237.53,230217,,,A*63

$GPRMC,164246.000,A,0010.9339,S,07829.0465,W,0.53,254.52,230217,,,A*67

$GPVTG,254.52,T,,M,0.53,N,0.98,K,A*3E

$GPVTG,272.44,T,,M,1.04,N,1.92,K,A*35

$GPGGA,164248.000,0010.9336,S,07829.0473,W,1,10,0.95,2803.5,M,13.7,M,,*50

$GPGGA,164249.000,0010.9335,S,07829.0476,W,1,10,0.95,2803.5,M,13.7,M,,*57

$GPGSA,A,3,16,18,25,21,26,31,14,32,27,10,,,1.25,0.95,0.81*0D

$GPRMC,164249.000,A,0010.9335,S,07829.0476,W,0.84,288.00,230217,,,A*6A

$GPVTG,288.00,T,,M,0.84,N,1.55,K,A*32

$GPVTG,291.88,T,,M,0.50,N,0.93,K,A*38

$GPGGA,164251.000,0010.9334,S,07829.0479,W,1,09,0.97,2803.5,M,13.7,M,,*5A

$GPGGA,164252.000,0010.9333,S,07829.0480,W,1,09,0.97,2803.5,M,13.7,M,,*58

$GPGSA,A,3,18,25,21,26,31,14,32,27,10,,,,1.27,0.97,0.82*09

$GPGSA,A,3,18,25,21,26,31,14,32,27,10,,,,1.27,0.97,0.82*09

$GPRMC,164253.000,A,0010.9333,S,07829.0480,W,0.32,58.72,230217,,,A*59

$GPGSV,3,1,11,10,69,040,41,18,57,112,34,31,49,317,42,26,48,192,26*70

$GPGSV,3,2,11,25,31,051,39,48,27,270,29,21,25,165,19,32,24,009,36*71

$GPGGA,164255.000,0010.9332,S,07829.0480,W,1,09,0.98,2803.5,M,13.7,M,,*51

$GPGSA,A,3,18,25,21,26,31,14,32,27,10,,,,1.27,0.98,0.82*06

$GPGSA,A,3,18,25,21,26,31,14,32,27,10,,,,1.27,0.97,0.82*09

$GPRMC,164256.000,A,0010.9332,S,07829.0480,W,0.13,170.67,230217,,,A*61

$GPRMC,164257.000,A,0010.9333,S,07829.0480,W,0.16,236.76,230217,,,A*65

$GPVTG,236.76,T,,M,0.16,N,0.29,K,A*37

$GPVTG,315.55,T,,M,0.14,N,0.25,K,A*38

$GPGGA,164259.000,0010.9333,S,07829.0480,W,1,08,1.06,2803.5,M,13.7,M,,*5B

$GPGSV,3,3,11,14,20,344,28,16,19,203,16,27,06,224,21*4A

$GPRMC,164259.000,A,0010.9333,S,07829.0480,W,0.08,334.01,230217,,,A*67

$GPRMC,164300.000,A,0010.9332,S,07829.0481,W,0.04,139.09,230217,,,A*61

$GPVTG,139.09,T,,M,0.04,N,0.08,K,A*33

$GPVTG,107.16,T,,M,0.20,N,0.38,K,A*35

$GPGGA,164302.000,0010.9333,S,07829.0480,W,1,09,0.97,2803.5,M,13.7,M,,*5C

$GPGGA,164303.000,0010.9333,S,07829.0479,W,1,09,0.97,2803.5,M,13.7,M,,*5B

$GPGSA,A,3,18,25,21,26,31,14,32,27,10,,,,1.27,0.97,0.82*09

$GPGSA,A,3,18,25,21,26,31,14,32,27,10,,,,1.27,0.98,0.82*06

$GPGSV,3,1,11,10,69,041,45,18,57,112,38,31,49,317,44,26,48,192,23*7A

$GPVTG,151.93,T,,M,0.11,N,0.20,K,A*30

$GPGGA,164305.000,0010.9333,S,07829.0479,W,1,08,1.01,2803.5,M,13.7,M,,*52

$GPGGA,164306.000,0010.9334,S,07829.0478,W,1,09,0.98,2803.5,M,13.7,M,,*57

$GPGSA,A,3,18,25,21,26,31,14,32,27,10,,,,1.27,0.98,0.82*06

$GPGSA,A,3,18,25,21,31,14,32,27,10,,,,,1.31,1.00,0.84*03

$GPRMC,164307.000,A,0010.9334,S,07829.0478,W,0.07,170.60,230217,,,A*67

$GPRMC,164308.000,A,0010.9334,S,07829.0478,W,0.10,185.86,230217,,,A*6C

$GPVTG,185.86,T,,M,0.10,N,0.18,K,A*37

$GPGSV,3,2,11,25,31,051,43,48,27,270,30,21,25,165,25,32,24,009,34*79

$GPGSV,3,3,11,14,20,344,25,16,19,203,17,27,06,224,18*4C

$GPGSA,A,3,16,18,25,21,26,31,14,32,27,10,,,1.25,0.95,0.81*0D

$GPRMC,164310.000,A,0010.9334,S,07829.0479,W,0.44,260.65,230217,,,A*60

$GPRMC,164311.000,A,0010.9335,S,07829.0480,W,0.22,127.35,230217,,,A*63

$GPVTG,127.35,T,,M,0.22,N,0.40,K,A*3B

$GPVTG,216.88,T,,M,0.18,N,0.34,K,A*36

$GPGGA,164313.000,0010.9335,S,07829.0480,W,1,10,0.95,2803.6,M,13.7,M,,*53

$GPGGA,164314.000,0010.9336,S,07829.0480,W,1,10,0.95,2803.6,M,13.7,M,,*57

$GPGSA,A,3,16,18,25,21,26,31,14,32,27,10,,,1.25,0.95,0.81*0D

$GPRMC,164314.000,A,0010.9336,S,07829.0480,W,0.19,142.80,230217,,,A*60

$GPVTG,142.80,T,,M,0.19,N,0.34,K,A*3D

$GPVTG,142.61,T,,M,0.09,N,0.16,K,A*33

$GPGGA,164316.000,0010.9337,S,07829.0479,W,1,09,1.03,2803.6,M,13.7,M,,*54

$GPGGA,164317.000,0010.9336,S,07829.0479,W,1,10,0.95,2803.6,M,13.7,M,,*52

$GPGSA,A,3,16,18,25,21,26,31,14,32,27,10,,,1.25,0.95,0.81*0D

$GPGSA,A,3,18,25,21,26,31,14,32,27,10,,,,1.75,1.02,1.42*0E

$GPRMC,164318.000,A,0010.9336,S,07829.0479,W,0.36,290.38,230217,,,A*68

$GPGSV,3,1,11,10,69,041,34,18,57,113,25,31,49,317,44,26,48,192,31*72

$GPGSV,3,2,11,25,31,051,36,48,27,270,27,21,25,165,22,32,24,009,35*7B

$GPGGA,164320.000,0010.9335,S,07829.0480,W,1,10,0.95,2803.6,M,13.7,M,,*53

$GPGSA,A,3,16,18,25,21,26,31,14,32,27,10,,,1.25,0.95,0.81*0D

$GPGSA,A,3,16,18,25,21,26,31,14,32,27,10,,,1.25,0.95,0.81*0D

$GPRMC,164321.000,A,0010.9335,S,07829.0480,W,0.49,242.33,230217,,,A*6B

$GPRMC,164322.000,A,0010.9335,S,07829.0481,W,0.60,249.99,230217,,,A*69

$GPVTG,249.99,T,,M,0.60,N,1.12,K,A*36

$GPVTG,256.34,T,,M,0.64,N,1.19,K,A*30

$GPGGA,164324.000,0010.9333,S,07829.0487,W,1,10,0.95,2803.5,M,13.7,M,,*55

$GPGSV,3,3,11,14,20,344,30,16,19,203,29,27,06,224,17*4A

$GPRMC,164324.000,A,0010.9333,S,07829.0487,W,0.92,292.10,230217,,,A*65

$GPRMC,164325.000,A,0010.9333,S,07829.0489,W,0.69,262.65,230217,,,A*63

$GPVTG,262.65,T,,M,0.69,N,1.29,K,A*3D

$GPVTG,287.44,T,,M,0.68,N,1.26,K,A*3B

$GPGGA,164327.000,0010.9335,S,07829.0491,W,1,10,0.95,2803.5,M,13.7,M,,*57

$GPGGA,164328.000,0010.9335,S,07829.0491,W,1,08,1.00,2803.5,M,13.7,M,,*5C

$GPGSA,A,3,18,25,21,31,14,32,27,10,,,,,1.31,1.00,0.84*03

$GPGSA,A,3,18,25,21,26,31,14,32,27,10,,,,1.27,0.98,0.82*06

$GPGSV,3,1,11,10,69,041,44,18,57,113,30,26,49,192,27,31,49,318,46*7A

$GPVTG,73.36,T,,M,0.44,N,0.81,K,A*05

$GPGGA,164330.000,0010.9332,S,07829.0489,W,1,08,1.01,2803.4,M,13.7,M,,*5B

$GPGGA,164331.000,0010.9331,S,07829.0489,W,1,09,0.98,2803.4,M,13.7,M,,*59

$GPGSA,A,3,18,25,21,26,31,14,32,27,10,,,,1.27,0.98,0.82*06

$GPGSA,A,3,16,18,25,21,26,31,14,32,27,10,,,1.25,0.95,0.81*0D

$GPRMC,164332.000,A,0010.9331,S,07829.0488,W,0.35,138.20,230217,,,A*62

$GPRMC,164333.000,A,0010.9331,S,07829.0487,W,0.47,224.82,230217,,,A*6F

$GPVTG,224.82,T,,M,0.47,N,0.87,K,A*3F

$GPGSV,3,2,11,25,31,051,40,21,25,165,19,32,24,010,40,14,20,344,31*77

$GPGSV,3,3,11,16,19,203,20,33,18,090,28,27,06,224,16*4F

$GPGSA,A,3,16,18,25,21,26,31,14,32,27,10,,,1.25,0.95,0.81*0D

$GPRMC,164335.000,A,0010.9333,S,07829.0489,W,0.27,225.72,230217,,,A*6D

$GPRMC,164336.000,A,0010.9333,S,07829.0490,W,0.20,213.11,230217,,,A*61

$GPVTG,213.11,T,,M,0.20,N,0.38,K,A*34

$GPVTG,145.38,T,,M,0.30,N,0.55,K,A*35

$GPGGA,164338.000,0010.9334,S,07829.0489,W,1,09,0.98,2803.4,M,13.7,M,,*55

$GPGGA,164339.000,0010.9335,S,07829.0490,W,1,08,1.06,2803.4,M,13.7,M,,*5A

$GPGSA,A,3,18,25,21,26,31,32,27,10,,,,,1.34,1.06,0.83*06

$GPRMC,164339.000,A,0010.9335,S,07829.0490,W,0.46,301.43,230217,,,A*6D

$GPVTG,301.43,T,,M,0.46,N,0.86,K,A*34

$GPVTG,90.24,T,,M,0.28,N,0.52,K,A*0F

$GPGGA,164341.000,0010.9334,S,07829.0490,W,1,10,0.95,2803.4,M,13.7,M,,*56

$GPGGA,164342.000,0010.9334,S,07829.0490,W,1,09,0.98,2803.4,M,13.7,M,,*50

$GPGSA,A,3,18,25,21,26,31,14,32,27,10,,,,1.27,0.98,0.82*06

$GPGSA,A,3,18,25,21,26,31,14,32,27,10,,,,1.27,0.98,0.82*06

$GPRMC,164343.000,A,0010.9334,S,07829.0489,W,0.16,267.91,230217,,,A*62

$GPGSV,3,1,11,10,70,042,40,18,57,113,30,26,49,192,27,31,49,318,46*75

$GPGSV,3,2,11,25,31,051,41,21,25,165,21,32,24,010,30,14,20,344,25*7F

$GPGGA,164345.000,0010.9335,S,07829.0489,W,1,09,0.98,2803.4,M,13.7,M,,*5E

$GPGSA,A,3,18,25,21,26,31,14,32,27,10,,,,1.27,0.98,0.82*06

$GPGSA,A,3,16,18,25,21,31,14,32,27,10,,,,1.27,0.96,0.84*0D

$GPRMC,164346.000,A,0010.9335,S,07829.0490,W,0.04,201.44,230217,,,A*65

$GPRMC,164347.000,A,0010.9335,S,07829.0490,W,0.25,316.29,230217,,,A*6B

$GPVTG,316.29,T,,M,0.25,N,0.47,K,A*36

$GPVTG,293.51,T,,M,0.32,N,0.58,K,A*3D

$GPGGA,164349.000,0010.9334,S,07829.0491,W,1,09,0.98,2803.4,M,13.7,M,,*5A

$GPGSV,3,3,11,16,20,203,20,27,06,224,18,35,,,*77

$GPRMC,164349.000,A,0010.9334,S,07829.0491,W,0.35,71.39,230217,,,A*57

$GPRMC,164350.000,A,0010.9333,S,07829.0490,W,0.47,261.11,230217,,,A*65

$GPVTG,261.11,T,,M,0.47,N,0.87,K,A*34

$GPVTG,141.21,T,,M,0.52,N,0.97,K,A*33

$GPGGA,164352.000,0010.9335,S,07829.0491,W,1,08,1.01,2803.4,M,13.7,M,,*51

$GPGGA,164353.000,0010.9336,S,07829.0491,W,1,08,1.01,2803.4,M,13.7,M,,*53

$GPGSA,A,3,18,25,21,31,14,32,27,10,,,,,1.31,1.01,0.84*02

$GPGSA,A,3,16,18,25,21,26,31,14,32,27,10,,,1.25,0.95,0.81*0D

$GPGSV,3,1,11,10,70,042,37,18,57,113,37,26,49,192,28,31,49,318,38*74

$GPVTG,5.90,T,,M,0.36,N,0.67,K,A*35

$GPGGA,164355.000,0010.9335,S,07829.0490,W,1,10,0.99,2803.4,M,13.7,M,,*5E

$GPGGA,164356.000,0010.9336,S,07829.0491,W,1,09,0.98,2803.4,M,13.7,M,,*56

$GPGSA,A,3,18,25,21,26,31,14,32,27,10,,,,1.27,0.98,0.82*06

$GPGSA,A,3,16,18,25,21,26,31,14,32,27,10,,,1.25,0.95,0.81*0D

$GPRMC,164357.000,A,0010.9337,S,07829.0492,W,0.47,210.36,230217,,,A*67

$GPRMC,164358.000,A,0010.9336,S,07829.0493,W,0.31,236.09,230217,,,A*61

$GPVTG,236.09,T,,M,0.31,N,0.57,K,A*33

$GPGSV,3,2,11,25,31,050,39,21,24,165,25,32,24,010,31,14,20,344,27*77

$GPGSV,3,3,11,16,20,203,23,27,06,224,23,36,,,*7F

$GPGSA,A,3,18,25,21,31,14,32,27,10,,,,,1.31,1.01,0.84*02

$GPRMC,164400.000,A,0010.9334,S,07829.0493,W,0.24,25.78,230217,,,A*5B

$GPRMC,164401.000,A,0010.9334,S,07829.0493,W,0.23,68.72,230217,,,A*5E

$GPVTG,68.72,T,,M,0.23,N,0.43,K,A*00

$GPVTG,70.17,T,,M,0.94,N,1.74,K,A*03

$GPGGA,164403.000,0010.9332,S,07829.0493,W,1,09,0.98,2803.2,M,13.7,M,,*51

$GPGGA,164404.000,0010.9331,S,07829.0494,W,1,08,1.07,2803.2,M,13.7,M,,*54

$GPGSA,A,3,18,25,21,31,14,32,27,10,,,,,1.86,1.07,1.53*03

$GPRMC,164404.000,A,0010.9331,S,07829.0494,W,0.17,21.51,230217,,,A*52

$GPVTG,21.51,T,,M,0.17,N,0.32,K,A*0D

$GPVTG,94.74,T,,M,0.06,N,0.12,K,A*06

$GPGGA,164406.000,0010.9332,S,07829.0494,W,1,09,0.98,2803.1,M,13.7,M,,*50

$GPGGA,164407.000,0010.9331,S,07829.0494,W,1,09,0.98,2803.1,M,13.7,M,,*52

$GPGSA,A,3,18,25,21,26,31,14,32,27,10,,,,1.27,0.98,0.82*06

$GPGSA,A,3,16,18,25,21,26,31,14,32,27,10,,,1.25,0.95,0.81*0D

$GPRMC,164408.000,A,0010.9332,S,07829.0494,W,0.07,265.99,230217,,,A*6A

$GPGSV,3,1,11,10,70,042,43,18,57,113,34,26,49,192,27,31,49,318,47*73

$GPGSV,3,2,11,25,31,050,44,21,24,165,23,32,24,010,34,14,20,344,26*7F

$GPGGA,164410.000,0010.9332,S,07829.0494,W,1,10,0.95,2803.1,M,13.7,M,,*52

$GPGSA,A,3,16,18,25,21,26,31,14,32,27,10,,,1.25,0.95,0.81*0D

$GPGSA,A,3,16,18,25,21,26,31,14,32,27,10,,,1.25,0.95,0.81*0D

$GPRMC,164411.000,A,0010.9333,S,07829.0493,W,0.18,311.61,230217,,,A*6F

$GPRMC,164412.000,A,0010.9333,S,07829.0493,W,0.13,293.56,230217,,,A*68

$GPVTG,293.56,T,,M,0.13,N,0.24,K,A*32

$GPVTG,12.65,T,,M,0.03,N,0.06,K,A*08

$GPGGA,164414.000,0010.9332,S,07829.0494,W,1,09,1.02,2803.1,M,13.7,M,,*51

$GPGSV,3,3,11,16,20,203,23,27,06,224,23,41,,,*7F

$GPRMC,164414.000,A,0010.9332,S,07829.0494,W,0.25,71.00,230217,,,A*50

$GPRMC,164415.000,A,0010.9332,S,07829.0493,W,0.12,261.77,230217,,,A*61

$GPVTG,261.77,T,,M,0.12,N,0.22,K,A*3B

$GPVTG,125.71,T,,M,0.01,N,0.02,K,A*3E

$GPGGA,164417.000,0010.9332,S,07829.0493,W,1,10,0.95,2803.2,M,13.7,M,,*51

$GPGGA,164418.000,0010.9332,S,07829.0493,W,1,10,0.95,2803.2,M,13.7,M,,*5E

$GPGSA,A,3,16,18,25,21,26,31,14,32,27,10,,,1.25,0.95,0.81*0D

$GPGSA,A,3,16,18,25,21,26,31,14,32,27,10,,,1.25,0.95,0.81*0D

$GPGSV,3,1,12,10,70,042,42,18,57,113,38,26,49,192,26,31,49,318,43*78

$GPVTG,90.41,T,,M,0.31,N,0.58,K,A*0E

$GPGGA,164420.000,0010.9332,S,07829.0492,W,1,10,0.95,2803.2,M,13.7,M,,*54

$GPGGA,164421.000,0010.9332,S,07829.0491,W,1,10,0.95,2803.2,M,13.7,M,,*56

$GPGSA,A,3,16,18,25,21,26,31,14,32,27,10,,,1.25,0.95,0.81*0D

$GPGSA,A,3,16,18,25,21,26,31,14,32,27,10,,,1.25,0.95,0.81*0D

$GPRMC,164422.000,A,0010.9332,S,07829.0491,W,0.24,23.21,230217,,,A*55

$GPRMC,164423.000,A,0010.9331,S,07829.0491,W,0.10,177.60,230217,,,A*65

$GPVTG,177.60,T,,M,0.10,N,0.19,K,A*33

$GPGSV,3,2,12,25,31,050,45,21,24,165,29,32,24,010,36,14,20,344,31*73

$GPGSV,3,3,12,16,20,203,22,27,06,224,19,45,,,,29,,,30*78

$GPGSA,A,3,16,18,25,21,26,31,14,32,27,10,,,1.25,0.95,0.81*0D

$GPRMC,164425.000,A,0010.9332,S,07829.0491,W,1.04,188.94,230217,,,A*6F

$GPRMC,164426.000,A,0010.9345,S,07829.0490,W,4.75,178.91,230217,,,A*64

$GPVTG,178.91,T,,M,4.75,N,8.80,K,A*3D

$GPVTG,192.20,T,,M,10.84,N,20.08,K,A*32

$GPGGA,164428.000,0010.9405,S,07829.0501,W,1,10,0.95,2803.4,M,13.7,M,,*52

$GPGGA,164429.000,0010.9452,S,07829.0508,W,1,10,0.95,2803.4,M,13.7,M,,*58

$GPGSA,A,3,16,18,25,21,26,31,14,32,27,10,,,1.25,0.95,0.81*0D

$GPRMC,164429.000,A,0010.9452,S,07829.0508,W,15.79,186.93,230217,,,A*55

$GPVTG,186.93,T,,M,15.79,N,29.26,K,A*3D

$GPVTG,187.72,T,,M,16.97,N,31.45,K,A*3C

$GPGGA,164431.000,0010.9549,S,07829.0524,W,1,10,0.95,2803.5,M,13.7,M,,*55

$GPGGA,164432.000,0010.9594,S,07829.0531,W,1,10,0.99,2803.6,M,13.7,M,,*5D

$GPGSA,A,3,16,18,25,21,26,31,14,32,27,10,,,1.71,0.99,1.40*0C

$GPGSA,A,3,16,18,25,21,26,31,14,32,27,10,,,1.25,0.95,0.81*0D

$GPRMC,164433.000,A,0010.9634,S,07829.0536,W,12.55,182.62,230217,,,A*52

$GPGSV,3,1,12,10,70,042,40,18,56,114,30,26,49,192,23,31,49,318,41*73

$GPGSV,3,2,12,25,31,050,39,21,24,165,20,32,24,010,39,14,20,344,32*7D

$GPGGA,164435.000,0010.9685,S,07829.0544,W,1,10,0.95,2803.7,M,13.7,M,,*56

$GPGSA,A,3,16,18,25,21,26,31,14,32,27,10,,,1.25,0.95,0.81*0D

$GPGSA,A,3,16,18,25,21,26,31,14,32,27,10,,,1.71,0.99,1.39*02

$GPRMC,164436.000,A,0010.9702,S,07829.0549,W,4.62,187.65,230217,,,A*6A

$GPRMC,164437.000,A,0010.9715,S,07829.0552,W,3.41,194.92,230217,,,A*6B

$GPVTG,194.92,T,,M,3.41,N,6.32,K,A*3B

$GPVTG,194.92,T,,M,0.19,N,0.35,K,A*34

$GPGGA,164439.000,0010.9726,S,07829.0557,W,1,10,0.95,2804.5,M,13.7,M,,*55

$GPGSV,3,3,12,16,20,203,21,27,06,224,24,47,,,,29,,,34*73

$GPRMC,164439.000,A,0010.9726,S,07829.0557,W,0.16,194.92,230217,,,A*61

$GPRMC,164440.000,A,0010.9730,S,07829.0560,W,0.19,194.92,230217,,,A*63

$GPVTG,194.92,T,,M,0.19,N,0.35,K,A*34

$GPVTG,194.92,T,,M,0.18,N,0.34,K,A*34

$GPGGA,164442.000,0010.9740,S,07829.0563,W,1,10,0.95,2805.3,M,13.7,M,,*59

$GPGGA,164443.000,0010.9744,S,07829.0565,W,1,10,0.95,2805.6,M,13.7,M,,*5F

$GPGSA,A,3,16,18,25,21,26,31,14,32,27,10,,,1.25,0.95,0.81*0D

$GPGSA,A,3,16,18,25,21,31,14,32,27,10,,,,1.27,0.96,0.84*0D

$GPGSV,3,1,12,10,70,042,39,18,56,114,35,26,49,192,24,31,49,319,45*7A

$GPVTG,194.92,T,,M,0.14,N,0.27,K,A*3A

$GPGGA,164445.000,0010.9750,S,07829.0566,W,1,10,0.95,2806.4,M,13.7,M,,*5E

$GPGGA,164446.000,0010.9756,S,07829.0566,W,1,10,0.95,2806.7,M,13.7,M,,*58

$GPGSA,A,3,16,18,25,21,26,31,14,32,27,10,,,1.25,0.95,0.81*0D

$GPGSA,A,3,16,18,25,21,26,31,14,32,27,10,,,1.25,0.95,0.81*0D

$GPRMC,164447.000,A,0010.9762,S,07829.0568,W,0.20,194.92,230217,,,A*61

$GPRMC,164448.000,A,0010.9767,S,07829.0569,W,1.93,203.05,230217,,,A*60

$GPVTG,203.05,T,,M,1.93,N,3.58,K,A*3C

$GPGSV,3,2,12,31,49,319,46,25,31,050,37,21,24,165,19,32,24,010,38*7B

$GPGSV,3,3,12,14,20,344,31,16,20,203,20,27,06,224,19,29,,,31*4C

$GPGSA,A,3,16,18,25,21,26,31,14,32,27,10,,,1.25,0.95,0.81*0D

$GPRMC,164450.000,A,0010.9775,S,07829.0570,W,1.20,194.90,230217,,,A*6B

$GPRMC,164451.000,A,0010.9781,S,07829.0573,W,1.78,199.45,230217,,,A*6A

$GPVTG,199.45,T,,M,1.78,N,3.29,K,A*3B

$GPVTG,196.70,T,,M,1.84,N,3.41,K,A*3F

$GPGGA,164453.000,0010.9792,S,07829.0574,W,1,10,0.95,2808.5,M,13.7,M,,*5B

$GPGGA,164454.000,0010.9799,S,07829.0576,W,1,09,1.05,2808.8,M,13.7,M,,*58

$GPGSA,A,3,16,18,25,21,26,31,14,32,10,,,,1.34,1.05,0.84*05

$GPRMC,164454.000,A,0010.9799,S,07829.0576,W,2.12,190.55,230217,,,A*64

$GPVTG,190.55,T,,M,2.12,N,3.93,K,A*3D

$GPVTG,196.68,T,,M,1.91,N,3.53,K,A*31

$GPGGA,164456.000,0010.9813,S,07829.0578,W,1,09,1.05,2809.2,M,13.7,M,,*52

$GPGGA,164457.000,0010.9816,S,07829.0580,W,1,10,0.95,2809.6,M,13.7,M,,*55

$GPGSA,A,3,16,18,25,21,26,31,14,32,27,10,,,1.25,0.95,0.81*0D

$GPGSA,A,3,16,18,25,21,26,31,14,32,10,,,,1.34,1.05,0.84*05

$GPRMC,164458.000,A,0010.9818,S,07829.0579,W,1.58,180.15,230217,,,A*69

$GPGSV,3,1,12,10,70,043,40,18,56,114,36,51,56,270,39,26,49,192,25*7A

$GPGSV,3,2,12,31,49,319,42,25,31,050,40,21,24,165,19,32,24,010,40*70

$GPGGA,164500.000,0010.9829,S,07829.0581,W,1,10,0.95,2810.6,M,13.7,M,,*53

$GPGSA,A,3,16,18,25,21,26,31,14,32,27,10,,,1.25,0.95,0.81*0D

$GPGSA,A,3,16,18,25,21,26,31,14,32,10,,,,1.34,1.05,0.84*05

$GPRMC,164501.000,A,0010.9833,S,07829.0583,W,1.33,197.61,230217,,,A*60

$GPRMC,164502.000,A,0010.9838,S,07829.0584,W,1.33,194.83,230217,,,A*60

$GPVTG,194.83,T,,M,1.33,N,2.46,K,A*3B

$GPVTG,196.02,T,,M,1.40,N,2.60,K,A*30

$GPGGA,164504.000,0010.9847,S,07829.0587,W,1,10,0.95,2811.7,M,13.7,M,,*59

$GPGSV,3,3,12,14,20,345,31,16,20,203,21,27,06,224,25,29,,,20*43

$GPRMC,164504.000,A,0010.9847,S,07829.0587,W,1.45,196.72,230217,,,A*60

$GPRMC,164505.000,A,0010.9856,S,07829.0588,W,2.40,190.16,230217,,,A*6C

$GPVTG,190.16,T,,M,2.40,N,4.44,K,A*30

$GPVTG,183.29,T,,M,5.44,N,10.08,K,A*00

$GPGGA,164507.000,0010.9902,S,07829.0593,W,1,10,0.99,2812.4,M,13.7,M,,*53

$GPGGA,164508.000,0010.9938,S,07829.0599,W,1,10,0.95,2812.6,M,13.7,M,,*51

$GPGSA,A,3,16,18,25,21,26,31,14,32,27,10,,,1.25,0.95,0.81*0D

$GPGSA,A,3,16,18,25,21,26,31,14,32,27,10,,,1.25,0.95,0.81*0D

$GPGSV,3,1,12,10,70,043,38,18,56,114,34,51,56,270,37,26,49,192,21*7D

$GPVTG,186.10,T,,M,12.51,N,23.18,K,A*3C

$GPGGA,164510.000,0011.0011,S,07829.0606,W,1,10,0.99,2813.1,M,13.7,M,,*5D

$GPGGA,164511.000,0011.0045,S,07829.0611,W,1,10,0.95,2813.3,M,13.7,M,,*55

$GPGSA,A,3,16,18,25,21,26,31,14,32,27,10,,,1.25,0.95,0.81*0D

$GPGSA,A,3,16,18,25,21,26,31,14,32,27,10,,,1.25,0.95,0.81*0D

$GPRMC,164512.000,A,0011.0074,S,07829.0617,W,9.54,191.30,230217,,,A*64

$GPRMC,164513.000,A,0011.0100,S,07829.0622,W,7.82,190.19,230217,,,A*6E

$GPVTG,190.19,T,,M,7.82,N,14.49,K,A*08

$GPGSV,3,2,12,31,49,319,31,25,30,050,25,21,24,165,35,32,24,010,24*7A

$GPGSV,3,3,12,14,20,345,23,16,20,203,37,27,06,223,29,29,,,18*47

$GPGSA,A,3,16,18,25,21,26,31,32,27,10,,,,1.79,1.06,1.45*03

$GPRMC,164515.000,A,0011.0143,S,07829.0622,W,1.96,186.02,230217,,,A*61

$GPRMC,164516.000,A,0011.0144,S,07829.0617,W,2.25,186.02,230217,,,A*68

$GPVTG,186.02,T,,M,2.25,N,4.17,K,A*37

$GPVTG,186.02,T,,M,0.08,N,0.15,K,A*3C

$GPGGA,164518.000,0011.0140,S,07829.0614,W,1,10,0.95,2812.7,M,13.7,M,,*58

$GPGGA,164519.000,0011.0140,S,07829.0614,W,1,10,0.95,2812.7,M,13.7,M,,*59

$GPGSA,A,3,16,18,25,21,26,31,14,32,27,10,,,1.25,0.95,0.81*0D

$GPRMC,164519.000,A,0011.0140,S,07829.0614,W,0.06,186.02,230217,,,A*63

$GPVTG,186.02,T,,M,0.06,N,0.12,K,A*35

$GPVTG,186.02,T,,M,0.03,N,0.06,K,A*35

$GPGGA,164521.000,0011.0142,S,07829.0615,W,1,10,0.95,2813.1,M,13.7,M,,*56

$GPGGA,164522.000,0011.0142,S,07829.0614,W,1,10,0.95,2813.3,M,13.7,M,,*56

$GPGSA,A,3,16,18,25,21,26,31,14,32,27,10,,,1.25,0.95,0.81*0D

$GPGSA,A,3,16,18,25,21,26,31,14,32,27,10,,,1.25,0.95,0.81*0D

$GPRMC,164523.000,A,0011.0141,S,07829.0614,W,0.05,186.02,230217,,,A*68

$GPGSV,3,1,12,10,70,043,35,18,56,114,31,51,56,270,33,26,49,192,34*75

$GPGSV,3,2,12,31,49,319,29,25,30,050,26,21,24,165,40,32,24,010,21*77

$GPGGA,164525.000,0011.0140,S,07829.0611,W,1,10,0.95,2813.6,M,13.7,M,,*53

$GPGSA,A,3,16,18,25,21,26,31,14,32,27,10,,,1.25,0.95,0.81*0D

$GPGSA,A,3,16,18,25,21,26,31,14,32,27,10,,,1.25,0.95,0.81*0D

$GPRMC,164526.000,A,0011.0140,S,07829.0610,W,0.03,186.02,230217,,,A*6E

$GPRMC,164527.000,A,0011.0141,S,07829.0609,W,0.02,186.02,230217,,,A*67

$GPVTG,186.02,T,,M,0.02,N,0.03,K,A*31

$GPVTG,186.02,T,,M,0.06,N,0.10,K,A*37

$GPGGA,164529.000,0011.0140,S,07829.0607,W,1,09,1.03,2813.9,M,13.7,M,,*51

$GPGSV,3,3,12,14,20,345,19,16,20,203,42,27,06,223,44,29,,,19*46

$GPRMC,164529.000,A,0011.0140,S,07829.0607,W,1.87,186.02,230217,,,A*6A

$GPRMC,164530.000,A,0011.0136,S,07829.0605,W,2.13,186.02,230217,,,A*6F

$GPVTG,186.02,T,,M,2.13,N,3.95,K,A*3F

$GPVTG,29.10,T,,M,2.16,N,4.01,K,A*07

$GPGGA,164532.000,0011.0124,S,07829.0595,W,1,10,0.95,2813.7,M,13.7,M,,*59

$GPGGA,164533.000,0011.0120,S,07829.0589,W,1,09,1.03,2813.5,M,13.7,M,,*55

$GPGSA,A,3,16,18,25,21,26,31,32,27,10,,,,1.32,1.03,0.82*03

$GPGSA,A,3,16,18,25,21,26,31,32,27,10,,,,1.32,1.03,0.82*03

$GPGSV,3,1,12,10,70,044,39,18,56,114,41,51,56,270,37,26,49,192,42*7C

$GPVTG,17.84,T,,M,1.83,N,3.39,K,A*04

$GPGGA,164535.000,0011.0111,S,07829.0582,W,1,09,1.03,2813.1,M,13.7,M,,*5E

$GPGGA,164536.000,0011.0105,S,07829.0580,W,1,10,0.99,2812.7,M,13.7,M,,*57

$GPGSA,A,3,16,18,25,21,26,31,14,32,27,10,,,1.71,0.99,1.39*02

$GPGSA,A,3,16,18,25,21,26,31,14,32,27,10,,,1.71,0.99,1.39*02

$GPRMC,164537.000,A,0011.0099,S,07829.0579,W,2.15,12.18,230217,,,A*55

$GPRMC,164538.000,A,0011.0093,S,07829.0576,W,2.35,17.49,230217,,,A*5C

$GPVTG,17.49,T,,M,2.35,N,4.35,K,A*00

$GPGSV,3,2,12,31,49,319,29,25,30,050,33,21,24,165,33,32,24,010,20*76

$GPGSV,3,3,12,14,20,345,17,16,20,203,41,29,09,114,24,27,06,223,41*7D

$GPGSA,A,3,16,18,25,21,26,31,14,32,27,10,,,1.71,0.99,1.39*02

$GPRMC,164540.000,A,0011.0085,S,07829.0569,W,1.78,35.83,230217,,,A*56

$GPRMC,164541.000,A,0011.0076,S,07829.0565,W,2.17,32.61,230217,,,A*56

$GPVTG,32.61,T,,M,2.17,N,4.03,K,A*08

$GPVTG,16.32,T,,M,1.97,N,3.64,K,A*05

$GPGGA,164543.000,0011.0064,S,07829.0560,W,1,10,0.95,2811.7,M,13.7,M,,*52

$GPGGA,164544.000,0011.0057,S,07829.0558,W,1,10,0.99,2811.4,M,13.7,M,,*51

$GPGSA,A,3,16,18,25,21,26,31,14,32,27,10,,,1.71,0.99,1.39*02

$GPRMC,164544.000,A,0011.0057,S,07829.0558,W,2.31,9.48,230217,,,A*69

$GPVTG,9.48,T,,M,2.31,N,4.27,K,A*39

$GPVTG,358.32,T,,M,2.36,N,4.37,K,A*35

$GPGGA,164546.000,0011.0042,S,07829.0556,W,1,10,0.99,2810.9,M,13.7,M,,*55

$GPGGA,164547.000,0011.0036,S,07829.0556,W,1,10,0.99,2810.7,M,13.7,M,,*59

$GPGSA,A,3,16,18,25,21,26,31,14,32,27,10,,,1.71,0.99,1.39*02

$GPGSA,A,3,16,18,25,21,26,31,14,32,27,10,,,1.71,0.99,1.39*02

$GPRMC,164548.000,A,0011.0029,S,07829.0556,W,2.25,1.37,230217,,,A*67

$GPGSV,3,1,12,10,70,044,33,18,56,115,43,51,56,270,35,26,50,192,43*7E

$GPGSV,3,2,12,31,49,319,30,25,30,050,31,21,24,165,38,32,24,010,20*77

$GPGGA,164550.000,0011.0019,S,07829.0552,W,1,10,0.99,2810.1,M,13.7,M,,*50

$GPGSA,A,3,16,18,25,21,26,31,14,32,27,10,,,1.71,0.99,1.39*02

$GPGSA,A,3,16,18,25,21,26,14,32,27,10,,,,1.37,1.08,0.85*0D

$GPRMC,164551.000,A,0011.0018,S,07829.0549,W,1.80,38.92,230217,,,A*5A

$GPRMC,164552.000,A,0011.0011,S,07829.0546,W,2.12,27.46,230217,,,A*50

$GPVTG,27.46,T,,M,2.12,N,3.93,K,A*02

$GPVTG,16.40,T,,M,2.14,N,3.96,K,A*05

$GPGGA,164554.000,0010.9998,S,07829.0542,W,1,10,0.95,2809.2,M,13.7,M,,*5A

$GPGSV,3,3,12,14,20,345,18,16,20,203,38,29,09,114,18,27,06,223,41*73

$GPRMC,164554.000,A,0010.9998,S,07829.0542,W,2.20,16.70,230217,,,A*54

$GPRMC,164555.000,A,0010.9990,S,07829.0540,W,2.73,6.35,230217,,,A*69

$GPVTG,6.35,T,,M,2.73,N,5.06,K,A*38

$GPVTG,7.53,T,,M,2.81,N,5.20,K,A*30

$GPGGA,164557.000,0010.9977,S,07829.0536,W,1,10,0.99,2808.7,M,13.7,M,,*53

$GPGGA,164558.000,0010.9971,S,07829.0533,W,1,10,0.99,2808.6,M,13.7,M,,*5E

$GPGSA,A,3,16,18,25,21,26,31,14,32,27,10,,,1.71,0.99,1.39*02

$GPGSA,A,3,16,18,25,21,26,31,14,32,27,10,,,1.25,0.95,0.81*0D

$GPGSV,3,1,12,10,70,044,35,18,56,115,43,51,56,270,37,26,50,192,43*7A

$GPVTG,19.94,T,,M,2.31,N,4.27,K,A*09

$GPGGA,164600.000,0010.9959,S,07829.0529,W,1,10,0.95,2808.4,M,13.7,M,,*5F

$GPGGA,164601.000,0010.9952,S,07829.0527,W,1,10,0.95,2808.2,M,13.7,M,,*5D

$GPGSA,A,3,16,18,25,21,26,31,14,32,27,10,,,1.25,0.95,0.81*0D

$GPGSA,A,3,16,18,25,21,26,14,32,27,10,,,,2.03,1.22,1.63*08

$GPRMC,164602.000,A,0010.9945,S,07829.0526,W,2.65,1.00,230217,,,A*66

$GPRMC,164603.000,A,0010.9938,S,07829.0525,W,2.26,1.75,230217,,,A*6B

$GPVTG,1.75,T,,M,2.26,N,4.19,K,A*34

$GPGSV,3,2,12,31,49,319,28,25,30,050,34,21,24,165,38,32,24,011,22*78

$GPGSV,3,3,12,14,20,345,18,16,20,203,41,29,09,114,20,27,06,223,38*78

$GPGSA,A,3,16,18,25,21,26,31,14,32,27,10,,,1.70,0.99,1.39*03

$GPRMC,164605.000,A,0010.9924,S,07829.0524,W,2.67,9.31,230217,,,A*6C

$GPRMC,164606.000,A,0010.9917,S,07829.0522,W,2.44,11.77,230217,,,A*53

$GPVTG,11.77,T,,M,2.44,N,4.53,K,A*0D

$GPVTG,6.58,T,,M,2.50,N,4.64,K,A*37

$GPGGA,164608.000,0010.9900,S,07829.0520,W,1,10,0.99,2807.6,M,13.7,M,,*53

$GPGGA,164609.000,0010.9892,S,07829.0518,W,1,10,0.99,2807.7,M,13.7,M,,*52

$GPGSA,A,3,16,18,25,21,26,31,14,32,27,10,,,1.70,0.99,1.39*03

$GPRMC,164609.000,A,0010.9892,S,07829.0518,W,3.25,24.15,230217,,,A*5D

$GPVTG,24.15,T,,M,3.25,N,6.03,K,A*0E

$GPVTG,21.27,T,,M,4.03,N,7.48,K,A*07

$GPGGA,164611.000,0010.9870,S,07829.0509,W,1,10,0.99,2807.9,M,13.7,M,,*59

$GPGGA,164612.000,0010.9858,S,07829.0502,W,1,10,0.99,2808.1,M,13.7,M,,*5C

$GPGSA,A,3,16,18,25,21,26,31,14,32,27,10,,,1.70,0.99,1.39*03

$GPGSA,A,3,16,18,25,21,26,31,14,32,27,10,,,1.70,0.99,1.39*03

$GPRMC,164613.000,A,0010.9847,S,07829.0496,W,4.57,25.44,230217,,,A*5E

$GPGSV,3,1,12,10,70,044,34,18,56,115,37,51,56,270,37,26,50,192,37*7B

$GPGSV,3,2,12,31,49,319,30,25,30,050,29,21,24,165,31,32,24,011,21*77

$GPGGA,164615.000,0010.9823,S,07829.0482,W,1,10,0.99,2808.3,M,13.7,M,,*5C

$GPGSA,A,3,16,18,25,21,26,31,14,32,27,10,,,1.70,0.99,1.39*03

$GPGSA,A,3,16,18,25,21,26,31,14,32,27,10,,,1.70,0.99,1.39*03

$GPRMC,164616.000,A,0010.9810,S,07829.0475,W,4.91,28.41,230217,,,A*56

$GPRMC,164617.000,A,0010.9797,S,07829.0471,W,4.91,10.03,230217,,,A*5E

$GPVTG,10.03,T,,M,4.91,N,9.09,K,A*03

$GPVTG,30.47,T,,M,5.11,N,9.47,K,A*02

$GPGGA,164619.000,0010.9769,S,07829.0461,W,1,10,0.99,2807.7,M,13.7,M,,*57

$GPGSV,3,3,12,16,21,202,39,14,20,345,15,29,09,114,24,27,06,223,39*7F

$GPRMC,164619.000,A,0010.9769,S,07829.0461,W,4.81,17.35,230217,,,A*53

$GPRMC,164620.000,A,0010.9756,S,07829.0457,W,4.78,28.45,230217,,,A*5D

$GPVTG,28.45,T,,M,4.78,N,8.86,K,A*0B

$GPVTG,25.69,T,,M,4.85,N,8.99,K,A*04

$GPGGA,164622.000,0010.9729,S,07829.0442,W,1,10,0.99,2806.0,M,13.7,M,,*5C

$GPGGA,164623.000,0010.9715,S,07829.0434,W,1,10,0.99,2805.5,M,13.7,M,,*55

$GPGSA,A,3,16,18,25,21,26,31,14,32,27,10,,,1.70,0.99,1.39*03

$GPGSA,A,3,16,18,25,21,26,31,14,32,27,10,,,1.70,0.99,1.39*03

$GPGSV,3,1,12,10,70,044,36,18,56,115,40,51,56,270,38,26,50,192,43*75

$GPVTG,17.91,T,,M,4.80,N,8.89,K,A*06

$GPGGA,164625.000,0010.9684,S,07829.0425,W,1,10,0.95,2805.2,M,13.7,M,,*51

$GPGGA,164626.000,0010.9671,S,07829.0420,W,1,10,0.99,2805.1,M,13.7,M,,*52

$GPGSA,A,3,16,18,25,21,26,31,14,32,27,10,,,1.70,0.99,1.38*02

$GPGSA,A,3,16,18,25,21,26,31,14,32,27,10,,,1.70,0.99,1.38*02

$GPRMC,164627.000,A,0010.9656,S,07829.0415,W,5.25,16.42,230217,,,A*5E

$GPRMC,164628.000,A,0010.9642,S,07829.0410,W,5.56,22.25,230217,,,A*53

$GPVTG,22.25,T,,M,5.56,N,10.31,K,A*3F

$GPGSV,3,2,12,31,48,320,31,25,30,049,28,21,24,164,34,32,24,011,18*7A

$GPGSV,3,3,12,16,21,202,39,14,20,345,16,29,09,113,29,27,06,223,39*76

$GPGSA,A,3,16,18,25,21,26,31,14,32,27,10,,,1.70,0.99,1.38*02

$GPRMC,164630.000,A,0010.9616,S,07829.0396,W,6.32,31.91,230217,,,A*5E

$GPRMC,164631.000,A,0010.9601,S,07829.0390,W,5.86,25.61,230217,,,A*59

$GPVTG,25.61,T,,M,5.86,N,10.86,K,A*39

$GPVTG,25.16,T,,M,5.66,N,10.49,K,A*34

$GPGGA,164633.000,0010.9571,S,07829.0373,W,1,10,0.99,2806.3,M,13.7,M,,*55

$GPGGA,164634.000,0010.9557,S,07829.0364,W,1,10,0.99,2806.2,M,13.7,M,,*51

$GPGSA,A,3,16,18,25,21,26,31,14,32,27,10,,,1.70,0.99,1.38*02

$GPRMC,164634.000,A,0010.9557,S,07829.0364,W,5.62,30.39,230217,,,A*54

$GPVTG,30.39,T,,M,5.62,N,10.42,K,A*32

$GPVTG,35.81,T,,M,5.99,N,11.11,K,A*37

$GPGGA,164636.000,0010.9529,S,07829.0343,W,1,10,0.99,2806.5,M,13.7,M,,*58

$GPGGA,164637.000,0010.9518,S,07829.0331,W,1,10,0.99,2806.7,M,13.7,M,,*5C

$GPGSA,A,3,16,18,25,21,26,31,14,32,27,10,,,1.70,0.99,1.38*02

$GPGSA,A,3,16,18,25,21,26,31,14,32,27,10,,,1.70,0.99,1.38*02

$GPRMC,164638.000,A,0010.9507,S,07829.0321,W,4.87,32.64,230217,,,A*5C

$GPGSV,3,1,12,10,70,044,33,18,56,115,37,51,56,270,39,26,50,192,40*72

$GPGSV,3,2,12,31,48,320,34,25,30,049,25,21,24,164,30,32,24,011,17*79

$GPGGA,164640.000,0010.9487,S,07829.0306,W,1,10,0.99,2807.5,M,13.7,M,,*5C

$GPGSA,A,3,16,18,25,21,26,31,14,32,27,10,,,1.70,0.99,1.38*02

$GPGSA,A,3,16,18,25,21,26,31,14,32,27,10,,,1.70,0.99,1.38*02

$GPRMC,164641.000,A,0010.9478,S,07829.0299,W,3.77,11.92,230217,,,A*59

$GPRMC,164642.000,A,0010.9468,S,07829.0296,W,2.49,38.73,230217,,,A*5C

$GPVTG,38.73,T,,M,2.49,N,4.61,K,A*0E

$GPVTG,27.99,T,,M,2.45,N,4.55,K,A*0F

$GPGGA,164644.000,0010.9456,S,07829.0291,W,1,10,0.95,2808.0,M,13.7,M,,*5D

$GPGSV,3,3,12,16,21,202,41,14,20,345,18,29,09,113,27,27,06,223,40*77

$GPRMC,164644.000,A,0010.9456,S,07829.0291,W,2.41,27.38,230217,,,A*59

$GPRMC,164645.000,A,0010.9451,S,07829.0288,W,2.44,26.53,230217,,,A*5E

$GPVTG,26.53,T,,M,2.44,N,4.51,K,A*0D

$GPVTG,18.03,T,,M,2.26,N,4.19,K,A*0D

$GPGGA,164647.000,0010.9442,S,07829.0282,W,1,10,0.95,2808.6,M,13.7,M,,*5F

$GPGGA,164648.000,0010.9438,S,07829.0277,W,1,10,0.95,2808.4,M,13.7,M,,*55

$GPGSA,A,3,16,18,25,21,26,31,14,32,27,10,,,1.25,0.95,0.81*0D

$GPGSA,A,3,16,18,25,21,26,31,14,32,27,10,,,1.25,0.95,0.81*0D

$GPGSV,3,1,12,10,71,045,34,18,56,115,36,51,56,270,40,26,50,192,35*78

$GPVTG,35.08,T,,M,1.98,N,3.67,K,A*01

$GPGGA,164650.000,0010.9428,S,07829.0272,W,1,10,0.95,2808.8,M,13.7,M,,*54

$GPGGA,164651.000,0010.9423,S,07829.0269,W,1,10,0.95,2808.9,M,13.7,M,,*55

$GPGSA,A,3,16,18,25,21,26,31,14,32,27,10,,,1.25,0.95,0.81*0D

$GPGSA,A,3,16,18,25,21,26,31,14,32,27,10,,,1.25,0.95,0.81*0D

$GPRMC,164652.000,A,0010.9418,S,07829.0265,W,1.80,22.01,230217,,,A*5E

$GPRMC,164653.000,A,0010.9411,S,07829.0265,W,1.78,17.76,230217,,,A*57

$GPVTG,17.76,T,,M,1.78,N,3.30,K,A*04

$GPGSV,3,2,12,31,48,320,27,25,30,049,23,32,24,011,18,21,23,164,31*74

$GPGSV,3,3,12,16,21,202,39,14,20,345,15,29,09,113,24,27,06,223,39*78

$GPGSA,A,3,16,18,25,21,26,31,14,32,27,10,,,1.25,0.95,0.81*0D

$GPRMC,164655.000,A,0010.9405,S,07829.0260,W,0.92,18.00,230217,,,A*5A

$GPRMC,164656.000,A,0010.9405,S,07829.0258,W,0.33,18.00,230217,,,A*59

$GPVTG,18.00,T,,M,0.33,N,0.62,K,A*00

$GPVTG,18.00,T,,M,0.37,N,0.68,K,A*0E

$GPGGA,164658.000,0010.9402,S,07829.0253,W,1,10,0.95,2809.0,M,13.7,M,,*5E

$GPGGA,164659.000,0010.9401,S,07829.0251,W,1,10,0.95,2808.9,M,13.7,M,,*56

$GPGSA,A,3,16,18,25,21,26,31,14,32,27,10,,,1.25,0.95,0.81*0D

$GPRMC,164659.000,A,0010.9401,S,07829.0251,W,0.38,18.00,230217,,,A*50

$GPVTG,18.00,T,,M,0.38,N,0.71,K,A*09

$GPVTG,18.00,T,,M,0.17,N,0.31,K,A*00

$GPGGA,164701.000,0010.9401,S,07829.0250,W,1,10,0.95,2809.1,M,13.7,M,,*52

$GPGGA,164702.000,0010.9400,S,07829.0248,W,1,10,0.95,2809.1,M,13.7,M,,*59

$GPGSA,A,3,16,18,25,21,26,31,14,32,27,10,,,1.25,0.95,0.81*0D

$GPGSA,A,3,16,18,25,21,26,31,14,32,27,10,,,1.25,0.95,0.81*0D

$GPRMC,164703.000,A,0010.9400,S,07829.0246,W,0.96,76.86,230217,,,A*5B

$GPGSV,3,1,12,10,71,045,39,18,56,115,31,51,56,270,29,26,50,192,33*7B

$GPGSV,3,2,12,31,48,320,33,25,30,049,38,32,24,011,21,21,23,164,34*74

$GPGGA,164705.000,0010.9401,S,07829.0245,W,1,10,0.95,2809.0,M,13.7,M,,*53

$GPGSA,A,3,16,18,25,21,26,31,14,32,27,10,,,1.25,0.95,0.81*0D

$GPGSA,A,3,16,18,25,21,26,31,14,32,27,10,,,1.25,0.95,0.81*0D

$GPRMC,164706.000,A,0010.9399,S,07829.0247,W,0.20,106.75,230217,,,A*6F

$GPRMC,164707.000,A,0010.9398,S,07829.0246,W,0.19,106.75,230217,,,A*64

$GPVTG,106.75,T,,M,0.19,N,0.36,K,A*35

$GPVTG,106.75,T,,M,0.16,N,0.30,K,A*3C

$GPGGA,164709.000,0010.9398,S,07829.0246,W,1,10,0.95,2807.8,M,13.7,M,,*5D

$GPGSV,3,3,12,16,21,202,30,14,20,345,32,29,09,113,32,27,06,223,28*73

$GPRMC,164709.000,A,0010.9398,S,07829.0246,W,0.19,106.75,230217,,,A*6A

$GPRMC,164710.000,A,0010.9398,S,07829.0245,W,0.29,106.75,230217,,,A*62

$GPVTG,106.75,T,,M,0.29,N,0.53,K,A*35

$GPVTG,106.75,T,,M,0.42,N,0.78,K,A*31

$GPGGA,164712.000,0010.9397,S,07829.0245,W,1,10,0.99,2807.9,M,13.7,M,,*56

$GPGGA,164713.000,0010.9397,S,07829.0245,W,1,10,0.99,2808.0,M,13.7,M,,*51

$GPGSA,A,3,16,18,25,21,26,31,14,32,27,10,,,1.70,0.99,1.38*02

$GPGSA,A,3,16,18,25,21,26,31,14,32,27,10,,,1.25,0.95,0.81*0D

$GPGSV,3,1,12,10,71,045,40,18,56,115,40,51,56,270,27,26,50,192,29*76

$GPVTG,106.75,T,,M,0.14,N,0.25,K,A*3A

$GPGGA,164715.000,0010.9397,S,07829.0247,W,1,10,0.95,2808.0,M,13.7,M,,*59

$GPGGA,164716.000,0010.9396,S,07829.0247,W,1,10,0.95,2808.0,M,13.7,M,,*5B

$GPGSA,A,3,16,18,25,21,26,31,14,32,27,10,,,1.25,0.95,0.81*0D

$GPGSA,A,3,16,18,25,21,26,31,14,32,27,10,,,1.25,0.95,0.81*0D

$GPRMC,164717.000,A,0010.9397,S,07829.0247,W,0.13,106.75,230217,,,A*61

$GPRMC,164718.000,A,0010.9397,S,07829.0248,W,0.13,106.75,230217,,,A*61

$GPVTG,106.75,T,,M,0.13,N,0.24,K,A*3C

$GPGSV,3,2,12,31,48,320,29,25,30,049,34,32,24,011,29,21,23,164,40*78

$GPGSV,3,3,12,16,21,202,32,14,20,345,23,29,09,113,39,27,06,223,26*74

$GPGSA,A,3,16,18,25,21,26,31,14,32,27,10,,,1.25,0.95,0.81*0D

$GPRMC,164720.000,A,0010.9397,S,07829.0248,W,0.13,106.75,230217,,,A*6A

$GPRMC,164721.000,A,0010.9397,S,07829.0248,W,0.24,106.75,230217,,,A*6F

$GPVTG,106.75,T,,M,0.24,N,0.44,K,A*3E

$GPVTG,106.75,T,,M,0.28,N,0.51,K,A*36

$GPGGA,164723.000,0010.9396,S,07829.0249,W,1,10,0.95,2808.0,M,13.7,M,,*53

$GPGGA,164724.000,0010.9396,S,07829.0250,W,1,10,0.95,2808.0,M,13.7,M,,*5C

$GPGSA,A,3,16,18,25,21,26,31,14,32,27,10,,,1.25,0.95,0.81*0D

$GPRMC,164724.000,A,0010.9396,S,07829.0250,W,0.35,106.75,230217,,,A*62

$GPVTG,106.75,T,,M,0.35,N,0.65,K,A*3D

$GPVTG,106.75,T,,M,0.05,N,0.09,K,A*34

$GPGGA,164726.000,0010.9397,S,07829.0250,W,1,10,0.95,2808.0,M,13.7,M,,*5F

$GPGGA,164727.000,0010.9397,S,07829.0249,W,1,10,0.95,2808.0,M,13.7,M,,*56

$GPGSA,A,3,16,18,25,21,26,31,14,32,27,10,,,1.25,0.95,0.81*0D

$GPGSA,A,3,16,18,25,21,26,31,14,32,27,10,,,1.25,0.95,0.81*0D

$GPRMC,164728.000,A,0010.9396,S,07829.0248,W,0.28,106.75,230217,,,A*6B

$GPGSV,3,1,12,10,71,046,31,18,56,116,39,51,56,270,43,26,50,192,40*73

$GPGSV,3,2,12,31,48,320,40,25,30,049,21,32,24,011,21,21,23,164,28*75

$GPGGA,164730.000,0010.9395,S,07829.0248,W,1,10,0.99,2808.1,M,13.7,M,,*5E

$GPGSA,A,3,16,18,25,21,26,31,14,32,27,10,,,1.70,0.99,1.38*02

$GPGSA,A,3,16,18,25,21,26,31,14,32,27,10,,,1.25,0.95,0.81*0D

$GPRMC,164731.000,A,0010.9395,S,07829.0248,W,0.49,106.75,230217,,,A*67

$GPRMC,164732.000,A,0010.9395,S,07829.0247,W,0.85,49.93,230217,,,A*59

$GPVTG,49.93,T,,M,0.85,N,1.58,K,A*0B

$GPVTG,69.08,T,,M,0.63,N,1.18,K,A*07

$GPGGA,164734.000,0010.9394,S,07829.0244,W,1,10,0.95,2807.9,M,13.7,M,,*5C

$GPGSV,3,3,12,16,21,202,39,14,20,346,29,29,09,113,21,27,06,223,40*7F

$GPRMC,164734.000,A,0010.9394,S,07829.0244,W,0.46,69.08,230217,,,A*52

$GPRMC,164735.000,A,0010.9393,S,07829.0243,W,0.42,69.08,230217,,,A*57

$GPVTG,69.08,T,,M,0.42,N,0.79,K,A*02

$GPVTG,80.28,T,,M,0.63,N,1.17,K,A*0D

$GPGGA,164737.000,0010.9390,S,07829.0240,W,1,10,0.95,2807.8,M,13.7,M,,*5E

$GPGGA,164738.000,0010.9388,S,07829.0234,W,1,10,0.95,2807.8,M,13.7,M,,*5B

$GPGSA,A,3,16,18,25,21,26,31,14,32,27,10,,,1.25,0.95,0.81*0D

$GPGSA,A,3,16,18,25,21,26,31,14,32,27,10,,,1.25,0.95,0.81*0D

$GPGSV,3,1,12,10,71,046,32,18,56,116,39,51,56,270,43,26,51,192,38*7E

$GPVTG,61.96,T,,M,1.71,N,3.18,K,A*08

$GPGGA,164740.000,0010.9383,S,07829.0225,W,1,10,0.95,2807.6,M,13.7,M,,*51

$GPGGA,164741.000,0010.9380,S,07829.0222,W,1,10,0.95,2807.6,M,13.7,M,,*54

$GPGSA,A,3,16,18,25,21,26,31,14,32,27,10,,,1.25,0.95,0.81*0D

$GPGSA,A,3,16,18,25,21,26,31,14,32,27,10,,,1.25,0.95,0.81*0D

$GPRMC,164742.000,A,0010.9377,S,07829.0219,W,1.37,66.84,230217,,,A*5A

$GPRMC,164743.000,A,0010.9376,S,07829.0216,W,1.35,69.32,230217,,,A*55

$GPVTG,69.32,T,,M,1.35,N,2.50,K,A*03

$GPGSV,3,2,12,31,48,320,36,25,30,049,21,32,24,012,19,21,23,164,32*77

$GPGSV,3,3,12,16,21,202,37,14,20,346,21,29,09,113,23,27,06,222,39*74

$GPGSA,A,3,16,18,25,21,26,31,14,32,27,10,,,1.25,0.95,0.81*0D

$GPRMC,164745.000,A,0010.9372,S,07829.0206,W,1.69,65.50,230217,,,D*52

$GPRMC,164746.000,A,0010.9369,S,07829.0198,W,2.04,67.81,230217,,,D*59

$GPVTG,67.81,T,,M,2.04,N,3.78,K,D*0A

$GPVTG,69.83,T,,M,2.00,N,3.70,K,D*0A

$GPGGA,164748.000,0010.9371,S,07829.0182,W,2,10,0.95,2807.3,M,13.7,M,0000,0000*5C

$GPGGA,164749.000,0010.9369,S,07829.0175,W,2,10,0.95,2807.2,M,13.7,M,0000,0000*5D

$GPGSA,A,3,16,18,25,21,26,31,14,32,27,10,,,1.25,0.95,0.81*0D

$GPRMC,164749.000,A,0010.9369,S,07829.0175,W,2.22,59.61,230217,,,D*52

$GPVTG,59.61,T,,M,2.22,N,4.11,K,D*05

$GPVTG,41.32,T,,M,2.41,N,4.46,K,D*0D

$GPGGA,164751.000,0010.9359,S,07829.0169,W,2,10,0.95,2807.2,M,13.7,M,0000,0000*5A

$GPGGA,164752.000,0010.9348,S,07829.0170,W,2,10,0.99,2807.1,M,13.7,M,0000,0000*5E

$GPGSA,A,3,16,18,25,21,26,31,14,32,27,10,,,1.70,0.99,1.38*02

$GPGSA,A,3,16,18,25,21,26,31,14,32,27,10,,,1.70,0.99,1.38*02

$GPRMC,164753.000,A,0010.9336,S,07829.0171,W,4.87,350.05,230217,,,D*66

$GPGSV,3,1,12,10,71,047,36,18,56,116,38,51,56,270,31,26,51,192,41*71

$GPGSV,3,2,12,31,48,320,24,25,30,049,30,32,24,012,24,21,23,164,36*7E

$GPGGA,164755.000,0010.9309,S,07829.0174,W,2,10,0.99,2806.7,M,13.7,M,0000,0000*5F

$GPGSA,A,3,16,18,25,21,26,31,14,32,27,10,,,1.70,0.99,1.38*02

$GPGSA,A,3,16,18,25,21,26,31,14,32,27,10,,,1.70,0.99,1.38*02

$GPRMC,164756.000,A,0010.9295,S,07829.0178,W,5.04,339.56,230217,,,D*61

$GPRMC,164757.000,A,0010.9281,S,07829.0183,W,5.51,338.54,230217,,,D*62

$GPVTG,338.54,T,,M,5.51,N,10.22,K,D*01

$GPVTG,330.38,T,,M,5.55,N,10.28,K,D*0D

$GPGGA,164759.000,0010.9250,S,07829.0198,W,2,10,0.99,2806.2,M,13.7,M,0000,0000*59

$GPGSV,3,3,12,16,21,202,34,14,20,346,20,29,09,113,19,27,06,222,32*74

$GPRMC,164759.000,A,0010.9250,S,07829.0198,W,5.59,330.12,230217,,,D*68

$GPRMC,164800.000,A,0010.9236,S,07829.0205,W,5.63,332.58,230217,,,D*69

$GPVTG,332.58,T,,M,5.63,N,10.43,K,D*01

$GPVTG,330.07,T,,M,5.12,N,9.50,K,D*35

$GPGGA,164802.000,0010.9210,S,07829.0217,W,2,10,0.99,2805.6,M,13.7,M,0000,0000*5F

$GPGGA,164803.000,0010.9198,S,07829.0223,W,2,10,0.99,2805.4,M,13.7,M,0000,0000*58

$GPGSA,A,3,16,18,25,21,26,31,14,32,27,10,,,1.69,0.99,1.38*0A

$GPGSA,A,3,16,18,25,21,26,31,14,32,27,10,,,1.69,0.99,1.38*0A

$GPGSV,3,1,12,10,71,047,37,51,56,270,28,18,55,116,40,26,51,192,38*7A

$GPVTG,326.09,T,,M,5.43,N,10.06,K,D*03

$GPGGA,164805.000,0010.9174,S,07829.0239,W,2,10,0.99,2805.1,M,13.7,M,0000,0000*52

$GPGGA,164806.000,0010.9162,S,07829.0248,W,2,10,0.99,2805.0,M,13.7,M,0000,0000*51

$GPGSA,A,3,16,18,25,21,26,31,14,32,27,10,,,1.69,0.99,1.38*0A

$GPGSA,A,3,16,18,25,21,26,31,14,32,27,10,,,1.69,0.99,1.38*0A

$GPRMC,164807.000,A,0010.9150,S,07829.0259,W,5.47,320.43,230217,,,D*6B

$GPRMC,164808.000,A,0010.9138,S,07829.0269,W,5.40,319.53,230217,,,D*65

$GPVTG,319.53,T,,M,5.40,N,10.01,K,D*04

$GPGSV,3,2,12,31,48,320,26,25,29,049,30,32,24,012,29,21,23,164,38*77

$GPGSV,3,3,12,16,21,202,26,14,20,346,22,29,09,113,37,27,06,222,23*79

$GPGSA,A,3,16,18,25,21,26,31,14,32,27,10,,,1.69,0.99,1.38*0A

$GPRMC,164810.000,A,0010.9115,S,07829.0291,W,5.72,312.03,230217,,,D*6B

$GPRMC,164811.000,A,0010.9103,S,07829.0303,W,6.28,308.94,230217,,,D*6E

$GPVTG,308.94,T,,M,6.28,N,11.63,K,D*07

$GPVTG,304.86,T,,M,6.22,N,11.53,K,D*01

$GPGGA,164813.000,0010.9078,S,07829.0333,W,2,10,0.99,2804.3,M,13.7,M,0000,0000*50

$GPGGA,164814.000,0010.9066,S,07829.0349,W,2,10,0.99,2804.2,M,13.7,M,0000,0000*54

$GPGSA,A,3,16,18,25,21,26,31,14,32,27,10,,,1.69,0.99,1.37*05

$GPRMC,164814.000,A,0010.9066,S,07829.0349,W,6.30,304.96,230217,,,D*60

$GPVTG,304.96,T,,M,6.30,N,11.67,K,D*04

$GPVTG,301.30,T,,M,6.30,N,11.67,K,D*0D

$GPGGA,164816.000,0010.9046,S,07829.0380,W,2,10,0.99,2803.9,M,13.7,M,0000,0000*5D

$GPGGA,164817.000,0010.9038,S,07829.0394,W,2,10,0.99,2803.9,M,13.7,M,0000,0000*50

$GPGSA,A,3,16,18,25,21,26,31,14,32,27,10,,,1.69,0.99,1.37*05

$GPGSA,A,3,16,18,25,21,26,31,14,32,27,10,,,1.69,0.99,1.37*05

$GPRMC,164818.000,A,0010.9029,S,07829.0411,W,6.37,297.08,230217,,,D*66

$GPGSV,3,1,12,10,71,047,40,51,56,270,26,18,55,116,41,26,51,192,33*7E

$GPGSV,3,2,12,31,48,321,30,25,29,049,37,32,24,012,28,21,23,164,35*7A

$GPGGA,164820.000,0010.9014,S,07829.0451,W,2,10,0.99,2803.6,M,13.7,M,0000,0000*5B

$GPGSA,A,3,16,18,25,21,26,31,14,32,27,10,,,1.69,0.99,1.37*05

$GPGSA,A,3,16,18,25,21,26,31,14,32,27,10,,,1.69,0.99,1.37*05

$GPRMC,164821.000,A,0010.9009,S,07829.0466,W,5.74,288.63,230217,,,D*69

$GPRMC,164822.000,A,0010.9002,S,07829.0486,W,5.96,289.88,230217,,,D*67

