
$GPVTG,252.44,T,,M,1.24,N,2.29,K,A*36

$GPGGA,220132.000,0010.9368,S,07829.0308,W,1,05,1.50,2800.0,M,13.7,M,,*57

$GPGSV,3,3,10,09,,,25,07,,,19*79

$GPRMC,220132.000,A,0010.9368,S,07829.0308,W,1.03,283.32,300317,,,A*67

$GPRMC,220133.000,A,0010.9382,S,07829.0294,W,0.48,280.16,300317,,,A*6D

$GPVTG,280.16,T,,M,0.48,N,0.89,K,A*3D

$GPVTG,322.77,T,,M,0.11,N,0.21,K,A*3D

$GPGGA,220135.000,0010.9391,S,07829.0277,W,1,05,1.50,2807.8,M,13.7,M,,*50

$GPGGA,220136.000,0010.9387,S,07829.0280,W,1,05,1.50,2805.6,M,13.7,M,,*50

$GPGSA,A,3,03,01,17,23,11,,,,,,,,1.78,1.50,0.97*03

$GPGSA,A,3,03,01,17,23,11,,,,,,,,1.78,1.50,0.97*03

$GPGSV,3,1,10,11,64,040,34,01,64,106,43,51,56,270,,23,42,184,44*70

$GPVTG,229.31,T,,M,0.10,N,0.19,K,A*3F

$GPGGA,220138.000,0010.9387,S,07829.0279,W,1,05,1.49,2804.5,M,13.7,M,,*52

$GPGGA,220139.000,0010.9384,S,07829.0278,W,1,05,1.49,2802.8,M,13.7,M,,*5A

$GPGSA,A,3,03,01,17,23,11,,,,,,,,1.78,1.49,0.97*0B

$GPGSA,A,3,03,01,17,23,11,,,,,,,,1.78,1.50,0.97*03

$GPRMC,220140.000,A,0010.9382,S,07829.0279,W,0.47,122.89,300317,,,A*68

$GPRMC,220141.000,A,0010.9380,S,07829.0281,W,0.29,180.24,300317,,,A*6B

$GPVTG,180.24,T,,M,0.29,N,0.53,K,A*3F

$GPGSV,3,2,09,17,28,245,33,03,22,159,36,08,,,30,09,,,35*71

$GPGSV,3,3,09,07,,,38*7C

$GPGSA,A,3,03,01,17,23,11,,,,,,,,1.78,1.49,0.97*0B

$GPRMC,220143.000,A,0010.9376,S,07829.0281,W,0.17,318.35,300317,,,A*6E

$GPRMC,220144.000,A,0010.9373,S,07829.0283,W,0.62,321.99,300317,,,A*60

$GPVTG,321.99,T,,M,0.62,N,1.16,K,A*3F

$GPVTG,332.49,T,,M,0.43,N,0.79,K,A*3B

$GPGGA,220146.000,0010.9371,S,07829.0279,W,1,05,1.50,2802.0,M,13.7,M,,*59

$GPGGA,220147.000,0010.9373,S,07829.0276,W,1,05,1.49,2802.7,M,13.7,M,,*5A

$GPGSA,A,3,03,01,17,23,11,,,,,,,,1.78,1.49,0.97*0B

$GPRMC,220147.000,A,0010.9373,S,07829.0276,W,0.29,321.40,300317,,,A*62

$GPVTG,321.40,T,,M,0.29,N,0.53,K,A*34

$GPVTG,294.08,T,,M,0.20,N,0.38,K,A*33

$GPGGA,220149.000,0010.9382,S,07829.0270,W,1,05,1.49,2804.4,M,13.7,M,,*59

$GPGGA,220150.000,0010.9387,S,07829.0269,W,1,05,1.50,2806.9,M,13.7,M,,*5B

$GPGSA,A,3,03,01,17,23,11,,,,,,,,1.78,1.50,0.97*03

$GPGSA,A,3,03,01,17,23,11,,,,,,,,1.78,1.49,0.97*0B

$GPRMC,220151.000,A,0010.9389,S,07829.0268,W,0.04,352.67,300317,,,A*61

$GPGSV,3,1,09,11,64,039,43,01,64,106,41,51,56,270,44,23,42,184,45*75

$GPGSV,3,2,09,17,28,246,45,03,22,159,39,08,,,24,09,,,45*7E

$GPGGA,220153.000,0010.9395,S,07829.0266,W,1,05,1.49,2808.8,M,13.7,M,,*53

$GPGSA,A,3,03,01,17,23,11,,,,,,,,1.78,1.49,0.97*0B

$GPGSA,A,3,03,01,17,23,11,,,,,,,,1.78,1.49,0.97*0B

$GPRMC,220154.000,A,0010.9398,S,07829.0268,W,0.70,259.64,300317,,,A*6E

$GPRMC,220155.000,A,0010.9398,S,07829.0268,W,0.67,336.14,300317,,,A*66

$GPVTG,336.14,T,,M,0.67,N,1.24,K,A*38

$GPVTG,357.82,T,,M,0.58,N,1.08,K,A*32

$GPGGA,220157.000,0010.9399,S,07829.0268,W,1,05,2.15,2811.2,M,13.7,M,,*5D

$GPGSV,3,3,09,07,,,42*71

$GPRMC,220157.000,A,0010.9399,S,07829.0268,W,0.37,356.08,300317,,,A*6B

$GPRMC,220158.000,A,0010.9400,S,07829.0268,W,0.17,358.60,300317,,,A*61

$GPVTG,358.60,T,,M,0.17,N,0.32,K,A*32

$GPVTG,310.26,T,,M,0.16,N,0.29,K,A*37

$GPGGA,220200.000,0010.9403,S,07829.0268,W,1,05,1.49,2812.3,M,13.7,M,,*50

$GPGGA,220201.000,0010.9397,S,07829.0266,W,1,07,1.12,2811.4,M,13.7,M,,*5D

$GPGSA,A,3,08,09,03,01,17,23,11,,,,,,1.41,1.12,0.86*0E

$GPGSA,A,3,08,09,03,01,17,23,11,,,,,,1.41,1.12,0.86*0E

$GPGSV,3,1,09,11,64,039,38,01,64,106,35,51,56,270,43,09,51,243,44*7E

$GPVTG,262.88,T,,M,0.07,N,0.13,K,A*3E

$GPGGA,220203.000,0010.9393,S,07829.0262,W,1,07,1.12,2809.5,M,13.7,M,,*57

$GPGGA,220204.000,0010.9393,S,07829.0262,W,1,07,1.12,2809.5,M,13.7,M,,*50

$GPGSA,A,3,08,09,03,01,17,23,11,,,,,,1.41,1.12,0.86*0E

$GPGSA,A,3,08,09,03,01,17,23,11,,,,,,1.41,1.12,0.86*0E

$GPRMC,220205.000,A,0010.9393,S,07829.0262,W,0.04,148.78,300317,,,A*65

$GPRMC,220206.000,A,0010.9393,S,07829.0261,W,0.03,192.09,300317,,,A*63

$GPVTG,192.09,T,,M,0.03,N,0.06,K,A*3B

$GPGSV,3,2,09,23,42,184,43,17,28,246,41,03,22,159,37,08,19,020,38*76

$GPGSV,3,3,09,07,,,43*70

$GPGSA,A,3,08,09,03,01,17,23,11,,,,,,1.41,1.12,0.86*0E

$GPRMC,220208.000,A,0010.9393,S,07829.0262,W,0.09,281.96,300317,,,A*63

$GPRMC,220209.000,A,0010.9393,S,07829.0262,W,0.13,124.52,300317,,,A*6D

$GPVTG,124.52,T,,M,0.13,N,0.24,K,A*39

$GPVTG,44.48,T,,M,0.08,N,0.14,K,A*0C

$GPGGA,220211.000,0010.9393,S,07829.0262,W,1,07,1.12,2809.4,M,13.7,M,,*55

$GPGGA,220212.000,0010.9393,S,07829.0261,W,1,07,1.12,2809.4,M,13.7,M,,*55

$GPGSA,A,3,08,09,03,01,17,23,11,,,,,,1.41,1.12,0.86*0E

$GPRMC,220212.000,A,0010.9393,S,07829.0261,W,0.04,270.67,300317,,,A*66

$GPVTG,270.67,T,,M,0.04,N,0.07,K,A*3A

$GPVTG,325.19,T,,M,0.07,N,0.13,K,A*34

$GPGGA,220214.000,0010.9393,S,07829.0262,W,1,07,1.12,2809.3,M,13.7,M,,*57

$GPGGA,220215.000,0010.9393,S,07829.0262,W,1,07,1.12,2809.3,M,13.7,M,,*56

$GPGSA,A,3,08,09,03,01,17,23,11,,,,,,2.04,1.12,1.71*05

$GPGSA,A,3,08,09,03,01,17,23,11,,,,,,2.04,1.12,1.70*04

$GPRMC,220216.000,A,0010.9393,S,07829.0262,W,0.02,121.17,300317,,,A*67

$GPGSV,3,1,09,11,64,039,43,01,64,105,42,51,56,270,38,09,51,243,41*78

$GPGSV,3,2,09,23,42,184,40,17,28,246,37,03,22,159,32,08,19,020,41*7F

$GPGGA,220218.000,0010.9393,S,07829.0262,W,1,07,1.12,2809.3,M,13.7,M,,*5B

$GPGSA,A,3,08,09,03,01,17,23,11,,,,,,2.04,1.12,1.71*05

$GPGSA,A,3,08,09,03,01,17,23,07,11,,,,,1.98,1.05,1.68*0A

$GPRMC,220219.000,A,0010.9393,S,07829.0262,W,0.00,275.40,300317,,,A*6A

$GPRMC,220220.000,A,0010.9393,S,07829.0262,W,0.01,342.50,300317,,,A*65

$GPVTG,342.50,T,,M,0.01,N,0.01,K,A*3D

$GPVTG,352.25,T,,M,0.02,N,0.03,K,A*3F

$GPGGA,220222.000,0010.9393,S,07829.0262,W,1,08,1.05,2809.3,M,13.7,M,,*5B

$GPGSV,3,3,09,08,19,020,21*41

$GPRMC,220222.000,A,0010.9393,S,07829.0262,W,0.01,158.15,300317,,,A*6F

$GPRMC,220223.000,A,0010.9393,S,07829.0262,W,0.01,108.57,300317,,,A*6D

$GPVTG,108.57,T,,M,0.01,N,0.01,K,A*36

$GPVTG,0.00,T,,M,0.00,N,0.00,K,A*3D

$GPGGA,220225.000,0010.9393,S,07829.0262,W,1,08,1.05,2809.3,M,13.7,M,,*5C

$GPGGA,220226.000,0010.9393,S,07829.0262,W,1,08,1.05,2809.3,M,13.7,M,,*5F

$GPGSA,A,3,08,09,03,01,17,23,07,11,,,,,1.98,1.05,1.68*0A

$GPGSA,A,3,08,09,03,01,17,23,07,11,,,,,1.98,1.05,1.68*0A

$GPGSV,3,1,10,01,64,105,28,11,63,039,31,51,56,270,35,09,51,242,40*73

$GPVTG,103.41,T,,M,0.01,N,0.03,K,A*38

$GPGGA,220228.000,0010.9393,S,07829.0261,W,1,08,1.05,2809.3,M,13.7,M,,*52

$GPGGA,220229.000,0010.9393,S,07829.0261,W,1,08,1.05,2809.3,M,13.7,M,,*53

$GPGSA,A,3,08,09,03,01,17,23,07,11,,,,,1.98,1.05,1.68*0A

$GPGSA,A,3,08,09,03,01,17,23,07,11,,,,,1.98,1.05,1.68*0A

$GPRMC,220230.000,A,0010.9393,S,07829.0261,W,0.03,119.70,300317,,,A*6B

$GPRMC,220231.000,A,0010.9393,S,07829.0261,W,0.05,295.87,300317,,,A*63

$GPVTG,295.87,T,,M,0.05,N,0.09,K,A*30

$GPGSV,3,2,10,07,47,355,36,23,42,184,38,17,28,246,46,03,22,159,36*7F

$GPGSV,3,3,10,08,19,020,21,28,,,39*49

$GPGSA,A,3,08,09,03,01,17,23,07,11,,,,,1.98,1.05,1.68*0A

$GPRMC,220233.000,A,0010.9393,S,07829.0261,W,0.02,346.72,300317,,,A*63

$GPRMC,220234.000,A,0010.9393,S,07829.0261,W,0.07,202.92,300317,,,A*6E

$GPVTG,202.92,T,,M,0.07,N,0.13,K,A*33

$GPVTG,213.44,T,,M,0.05,N,0.10,K,A*39

$GPGGA,220236.000,0010.9393,S,07829.0261,W,1,08,1.05,2809.3,M,13.7,M,,*5D

$GPGGA,220237.000,0010.9393,S,07829.0261,W,1,08,1.05,2809.2,M,13.7,M,,*5D

$GPGSA,A,3,08,09,03,01,17,23,07,11,,,,,1.98,1.05,1.68*0A

$GPRMC,220237.000,A,0010.9393,S,07829.0261,W,0.04,30.87,300317,,,A*59

$GPVTG,30.87,T,,M,0.04,N,0.08,K,A*0D

$GPVTG,248.47,T,,M,0.01,N,0.01,K,A*30

$GPGGA,220239.000,0010.9393,S,07829.0261,W,1,08,1.05,2809.2,M,13.7,M,,*53

$GPGGA,220240.000,0010.9393,S,07829.0261,W,1,07,1.10,2809.2,M,13.7,M,,*56

$GPGSA,A,3,08,09,03,01,17,07,11,,,,,,2.01,1.10,1.68*0C

$GPGSA,A,3,08,09,03,01,17,07,11,,,,,,2.01,1.10,1.68*0C

$GPRMC,220241.000,A,0010.9393,S,07829.0261,W,0.03,258.27,300317,,,A*69

$GPGSV,3,1,11,01,64,105,31,11,63,039,30,51,56,270,35,09,51,242,38*74

$GPGSV,3,2,11,07,47,355,39,23,42,184,20,17,28,246,46,03,22,159,25*7A

$GPGGA,220243.000,0010.9393,S,07829.0261,W,1,07,1.10,2809.2,M,13.7,M,,*55

$GPGSA,A,3,08,09,03,01,17,07,11,,,,,,2.01,1.10,1.68*0C

$GPGSA,A,3,08,09,03,01,17,23,07,11,,,,,1.98,1.05,1.68*0A

$GPRMC,220244.000,A,0010.9393,S,07829.0261,W,0.02,12.80,300317,,,A*5C

$GPRMC,220245.000,A,0010.9393,S,07829.0261,W,0.01,73.48,300317,,,A*5D

$GPVTG,73.48,T,,M,0.01,N,0.01,K,A*05

$GPVTG,161.84,T,,M,0.07,N,0.13,K,A*32

$GPGGA,220247.000,0010.9393,S,07829.0261,W,1,08,1.05,2809.2,M,13.7,M,,*5A

$GPGSV,3,3,11,08,19,020,32,28,,,42,19,,,42*48

$GPRMC,220247.000,A,0010.9393,S,07829.0261,W,0.19,179.62,300317,,,A*65

$GPRMC,220248.000,A,0010.9393,S,07829.0261,W,0.03,351.76,300317,,,A*6C

$GPVTG,351.76,T,,M,0.03,N,0.06,K,A*3E

$GPVTG,325.65,T,,M,0.09,N,0.17,K,A*35

$GPGGA,220250.000,0010.9393,S,07829.0261,W,1,09,0.95,2809.2,M,13.7,M,,*55

$GPGGA,220251.000,0010.9393,S,07829.0261,W,1,09,0.95,2809.2,M,13.7,M,,*54

$GPGSA,A,3,08,28,09,03,01,17,23,07,11,,,,1.72,0.95,1.43*05

$GPGSA,A,3,08,28,09,03,01,17,23,07,11,,,,1.72,0.95,1.43*05

$GPGSV,3,1,11,01,64,104,31,11,63,039,29,51,56,270,36,09,51,242,37*71

$GPVTG,59.79,T,,M,0.02,N,0.04,K,A*09

$GPGGA,220253.000,0010.9393,S,07829.0261,W,1,09,0.95,2809.2,M,13.7,M,,*56

$GPGGA,220254.000,0010.9393,S,07829.0261,W,1,09,0.95,2809.2,M,13.7,M,,*51

$GPGSA,A,3,08,28,09,03,01,17,23,07,11,,,,1.72,0.95,1.43*05

$GPGSA,A,3,08,28,09,03,01,17,23,07,11,,,,1.23,0.92,0.82*0A

$GPRMC,220255.000,A,0010.9394,S,07829.0261,W,0.01,221.94,300317,,,D*6A

$GPRMC,220256.000,A,0010.9394,S,07829.0261,W,0.03,180.99,300317,,,D*6E

$GPVTG,180.99,T,,M,0.03,N,0.05,K,D*37

$GPGSV,3,2,11,07,47,356,33,23,42,184,35,17,28,246,43,03,22,159,37*71

$GPGSV,3,3,11,08,18,020,20,28,08,311,37,19,,,45*74

$GPGSA,A,3,08,28,09,03,01,17,23,07,11,,,,1.23,0.92,0.82*0A

$GPRMC,220258.000,A,0010.9394,S,07829.0262,W,0.01,197.77,300317,,,D*67

$GPRMC,220259.000,A,0010.9393,S,07829.0263,W,0.04,264.64,300317,,,D*68

$GPVTG,264.64,T,,M,0.04,N,0.07,K,D*39

$GPVTG,257.70,T,,M,0.04,N,0.07,K,D*3C

$GPGGA,220301.000,0010.9393,S,07829.0262,W,2,10,0.87,2809.3,M,13.7,M,0000,0000*5A

$GPGGA,220302.000,0010.9391,S,07829.0262,W,2,10,0.87,2809.5,M,13.7,M,0000,0000*5D

$GPGSA,A,3,08,28,09,03,01,17,23,07,11,19,,,1.18,0.87,0.80*0C

$GPRMC,220302.000,A,0010.9391,S,07829.0262,W,0.09,353.55,300317,,,D*6E

$GPVTG,353.55,T,,M,0.09,N,0.16,K,D*33

$GPVTG,202.74,T,,M,0.15,N,0.28,K,D*35

$GPGGA,220304.000,0010.9393,S,07829.0262,W,2,10,0.87,2809.9,M,13.7,M,0000,0000*55

$GPGGA,220305.000,0010.9392,S,07829.0260,W,2,10,0.87,2810.0,M,13.7,M,0000,0000*56

$GPGSA,A,3,08,28,09,03,01,17,23,07,11,19,,,1.18,0.87,0.80*0C

$GPGSA,A,3,08,28,09,03,01,17,23,07,11,19,,,1.18,0.87,0.80*0C

$GPRMC,220306.000,A,0010.9391,S,07829.0260,W,0.02,37.00,300317,,,D*52

$GPGSV,3,1,11,01,64,104,28,11,63,039,32,51,56,270,37,09,51,242,38*7D

$GPGSV,3,2,11,07,47,356,38,23,42,184,31,17,28,246,45,03,22,159,24*7A

$GPGGA,220308.000,0010.9390,S,07829.0259,W,2,10,0.87,2809.7,M,13.7,M,0000,0000*5C

$GPGSA,A,3,08,28,09,03,01,17,23,07,11,19,,,1.18,0.87,0.80*0C

$GPGSA,A,3,08,28,09,03,01,17,23,07,11,19,,,1.18,0.87,0.80*0C

$GPRMC,220309.000,A,0010.9390,S,07829.0259,W,0.04,179.02,300317,,,D*69

$GPRMC,220310.000,A,0010.9391,S,07829.0258,W,0.02,165.65,300317,,,D*6B

$GPVTG,165.65,T,,M,0.02,N,0.03,K,D*38

$GPVTG,53.86,T,,M,0.00,N,0.01,K,D*01

$GPGGA,220312.000,0010.9391,S,07829.0256,W,2,10,0.87,2809.4,M,13.7,M,0000,0000*5A

$GPGSV,3,3,11,08,18,020,29,19,10,231,44,28,08,311,43*4E

$GPRMC,220312.000,A,0010.9391,S,07829.0256,W,0.01,112.18,300317,,,D*6E

$GPRMC,220313.000,A,0010.9391,S,07829.0255,W,0.04,120.13,300317,,,D*63

$GPVTG,120.13,T,,M,0.04,N,0.07,K,D*3A

$GPVTG,85.81,T,,M,0.02,N,0.04,K,D*0A

$GPGGA,220315.000,0010.9391,S,07829.0253,W,2,10,0.87,2808.8,M,13.7,M,0000,0000*55

$GPGGA,220316.000,0010.9392,S,07829.0252,W,2,10,0.87,2808.8,M,13.7,M,0000,0000*54

$GPGSA,A,3,08,28,09,03,01,17,23,07,11,19,,,1.18,0.87,0.80*0C

$GPGSA,A,3,08,28,09,03,01,17,23,07,11,19,,,1.18,0.87,0.80*0C

$GPGSV,3,1,11,01,64,104,28,11,63,039,34,51,56,270,37,09,51,242,38*7B

$GPVTG,300.09,T,,M,0.02,N,0.04,K,D*34

$GPGGA,220318.000,0010.9392,S,07829.0251,W,2,10,0.87,2808.8,M,13.7,M,0000,0000*59

$GPGGA,220319.000,0010.9392,S,07829.0251,W,2,10,0.87,2808.7,M,13.7,M,0000,0000*57

$GPGSA,A,3,08,28,09,03,01,17,23,07,11,19,,,1.18,0.87,0.80*0C

$GPGSA,A,3,08,28,09,03,01,17,23,07,11,19,,,1.18,0.87,0.80*0C

$GPRMC,220320.000,A,0010.9392,S,07829.0250,W,0.02,223.79,300317,,,D*6F

$GPRMC,220321.000,A,0010.9392,S,07829.0250,W,0.03,7.09,300317,,,D*6C

$GPVTG,7.09,T,,M,0.03,N,0.06,K,D*33

$GPGSV,3,2,11,07,47,356,38,23,41,184,33,17,28,246,44,03,22,159,22*7C

$GPGSV,3,3,11,08,18,020,27,19,10,231,44,28,08,311,44*47

$GPRMC,220323.000,A,0010.9392,S,07829.0249,W,0.01,222.24,300317,,,D*6E

$GPVTG,222.24,T,,M,0.01,N,0.02,K,D*3F

$GPVTG,180.40,T,,M,0.07,N,0.13,K,D*30

$GPGGA,220325.000,0010.9393,S,07829.0248,W,2,10,0.87,2808.3,M,13.7,M,0000,0000*55

$GPGGA,220326.000,0010.9393,S,07829.0247,W,2,10,0.87,2808.2,M,13.7,M,0000,0000*58

$GPGSA,A,3,08,28,09,03,01,17,23,07,11,19,,,1.18,0.87,0.80*0C

$GPGSA,A,3,08,28,09,03,01,17,23,07,11,19,,,1.18,0.87,0.80*0C

$GPGSV,3,1,11,01,64,104,27,11,63,039,35,51,56,270,37,09,51,242,35*78

$GPVTG,20.22,T,,M,0.06,N,0.11,K,D*0C

$GPGGA,220328.000,0010.9391,S,07829.0246,W,2,10,0.87,2807.9,M,13.7,M,0000,0000*51

$GPGGA,220329.000,0010.9391,S,07829.0246,W,2,10,0.87,2807.9,M,13.7,M,0000,0000*50

$GPGSA,A,3,08,28,09,03,01,17,23,07,11,19,,,1.18,0.87,0.80*0C

$GPGSA,A,3,08,28,09,03,01,17,23,07,11,19,,,1.18,0.87,0.80*0C

$GPRMC,220330.000,A,0010.9392,S,07829.0245,W,0.00,164.48,300317,,,D*6A

$GPRMC,220331.000,A,0010.9392,S,07829.0244,W,0.03,154.65,300317,,,D*65

$GPVTG,154.65,T,,M,0.03,N,0.05,K,D*3D

$GPGSV,3,2,11,07,47,356,40,23,41,184,32,17,28,246,45,03,22,158,23*73

$GPGSV,3,3,11,08,18,020,25,19,10,231,42,28,08,311,45*42

$GPGSA,A,3,08,28,09,03,01,17,23,07,11,19,,,1.18,0.87,0.80*0C

$GPRMC,220333.000,A,0010.9391,S,07829.0244,W,0.01,91.09,300317,,,D*54

$GPRMC,220334.000,A,0010.9391,S,07829.0244,W,0.03,47.90,300317,,,D*5A

$GPVTG,47.90,T,,M,0.03,N,0.05,K,D*04

$GPVTG,150.10,T,,M,0.02,N,0.04,K,D*3B

$GPGGA,220336.000,0010.9390,S,07829.0243,W,2,10,0.87,2807.2,M,13.7,M,0000,0000*51

$GPGGA,220337.000,0010.9390,S,07829.0242,W,2,10,0.87,2807.3,M,13.7,M,0000,0000*50

$GPGSA,A,3,08,28,09,03,01,17,23,07,11,19,,,1.18,0.87,0.80*0C

$GPRMC,220337.000,A,0010.9390,S,07829.0242,W,0.04,27.46,300317,,,D*54

$GPVTG,27.46,T,,M,0.04,N,0.08,K,D*03

$GPVTG,129.93,T,,M,0.43,N,0.80,K,D*37

$GPGGA,220339.000,0010.9391,S,07829.0237,W,2,10,0.87,2807.2,M,13.7,M,0000,0000*5C

$GPGGA,220340.000,0010.9390,S,07829.0233,W,2,10,0.87,2807.4,M,13.7,M,0000,0000*51

$GPGSA,A,3,08,28,09,03,01,17,23,07,11,19,,,1.18,0.87,0.80*0C

$GPGSA,A,3,08,28,09,03,01,17,23,07,11,19,,,1.18,0.87,0.80*0C

$GPRMC,220341.000,A,0010.9391,S,07829.0229,W,1.18,85.47,300317,,,D*5C

$GPGSV,3,1,11,01,64,104,38,11,63,038,31,51,56,270,28,09,51,241,34*7F

$GPGSV,3,2,11,07,47,356,21,23,41,184,35,17,28,247,34,03,22,158,40*71

$GPGGA,220343.000,0010.9392,S,07829.0228,W,2,10,0.87,2807.4,M,13.7,M,0000,0000*5A

$GPGSA,A,3,08,28,09,03,01,17,23,07,11,19,,,1.18,0.87,0.80*0C

$GPGSA,A,3,08,28,09,03,01,17,23,07,11,19,,,1.62,0.92,1.33*0C

$GPRMC,220344.000,A,0010.9392,S,07829.0228,W,0.15,329.70,300317,,,D*66

$GPRMC,220345.000,A,0010.9393,S,07829.0228,W,0.10,315.86,300317,,,D*65

$GPVTG,315.86,T,,M,0.10,N,0.18,K,D*39

$GPVTG,4.07,T,,M,0.05,N,0.09,K,D*37

$GPGGA,220347.000,0010.9394,S,07829.0228,W,2,10,0.92,2807.1,M,13.7,M,0000,0000*59

$GPGSV,3,3,11,08,18,020,14,19,10,231,40,28,08,311,26*47

$GPRMC,220347.000,A,0010.9394,S,07829.0228,W,0.06,267.50,300317,,,D*68

$GPRMC,220348.000,A,0010.9395,S,07829.0228,W,0.04,183.09,300317,,,D*61

$GPVTG,183.09,T,,M,0.04,N,0.07,K,D*38

$GPVTG,78.35,T,,M,0.09,N,0.16,K,D*0F

$GPGGA,220350.000,0010.9395,S,07829.0228,W,2,10,0.87,2807.0,M,13.7,M,0000,0000*5B

$GPGGA,220351.000,0010.9395,S,07829.0228,W,2,10,0.87,2807.0,M,13.7,M,0000,0000*5A

$GPGSA,A,3,08,28,09,03,01,17,23,07,11,19,,,1.18,0.87,0.80*0C

$GPGSA,A,3,08,28,09,03,01,17,23,07,11,19,,,1.18,0.87,0.80*0C

$GPGSV,3,1,11,01,64,104,37,11,63,038,32,51,56,270,30,09,51,241,30*7E

$GPVTG,193.92,T,,M,0.07,N,0.12,K,D*3C

$GPGGA,220353.000,0010.9395,S,07829.0228,W,2,10,0.87,2807.0,M,13.7,M,0000,0000*58

$GPGGA,220354.000,0010.9395,S,07829.0227,W,2,10,0.87,2807.0,M,13.7,M,0000,0000*50

$GPGSA,A,3,08,28,09,03,01,17,23,07,11,19,,,1.18,0.87,0.80*0C

$GPGSA,A,3,08,28,09,03,01,17,23,07,11,19,,,1.18,0.87,0.80*0C

$GPRMC,220355.000,A,0010.9391,S,07829.0224,W,1.70,64.31,300317,,,D*54

$GPRMC,220356.000,A,0010.9390,S,07829.0220,W,2.09,66.52,300317,,,D*58

$GPVTG,66.52,T,,M,2.09,N,3.87,K,D*08

$GPGSV,3,2,11,07,47,356,26,23,41,184,31,17,28,247,29,03,22,158,23*7B

$GPGSV,3,3,11,08,18,020,20,19,10,231,43,28,08,311,32*46

$GPGSA,A,3,08,28,09,03,01,17,23,07,11,19,,,1.18,0.87,0.80*0C

$GPRMC,220358.000,A,0010.9384,S,07829.0209,W,2.39,51.30,300317,,,D*5B

$GPRMC,220359.000,A,0010.9381,S,07829.0204,W,2.61,51.71,300317,,,D*5A

$GPVTG,51.71,T,,M,2.61,N,4.84,K,D*07

$GPVTG,55.85,T,,M,2.30,N,4.26,K,D*04

$GPGGA,220401.000,0010.9375,S,07829.0194,W,2,10,0.87,2807.0,M,13.7,M,0000,0000*52

$GPGGA,220402.000,0010.9369,S,07829.0189,W,2,10,0.87,2806.9,M,13.7,M,0000,0000*58

$GPGSA,A,3,08,28,09,03,01,17,23,07,11,19,,,1.18,0.87,0.80*0C

$GPRMC,220402.000,A,0010.9369,S,07829.0189,W,2.95,32.62,300317,,,D*5F

$GPVTG,32.62,T,,M,2.95,N,5.47,K,D*05

$GPVTG,25.01,T,,M,2.92,N,5.41,K,D*07

$GPGGA,220404.000,0010.9355,S,07829.0182,W,2,10,0.87,2807.0,M,13.7,M,0000,0000*52

$GPGGA,220405.000,0010.9344,S,07829.0178,W,2,10,0.87,2807.1,M,13.7,M,0000,0000*57

$GPGSA,A,3,08,28,09,03,01,17,23,07,11,19,,,1.18,0.87,0.80*0C

$GPGSA,A,3,08,28,09,03,01,17,23,07,11,19,,,1.62,0.92,1.33*0C

$GPRMC,220406.000,A,0010.9333,S,07829.0176,W,4.18,9.94,300317,,,D*66

$GPGSV,3,1,11,01,64,103,33,11,63,038,26,51,56,270,31,09,51,241,36*7F

$GPGSV,3,2,11,07,48,356,28,23,41,184,40,17,28,247,37,03,22,158,38*79

$GPGGA,220408.000,0010.9310,S,07829.0177,W,2,10,0.92,2807.3,M,13.7,M,0000,0000*52

$GPGSA,A,3,08,28,09,03,01,17,23,07,11,19,,,1.61,0.92,1.33*0F

$GPGSA,A,3,08,28,09,03,01,17,23,07,11,19,,,1.61,0.92,1.33*0F

$GPRMC,220409.000,A,0010.9297,S,07829.0182,W,5.12,346.38,300317,,,D*68

$GPRMC,220410.000,A,0010.9284,S,07829.0185,W,5.05,348.71,300317,,,D*60

$GPVTG,348.71,T,,M,5.05,N,9.36,K,D*3D

$GPVTG,334.66,T,,M,5.09,N,9.43,K,D*3E

$GPGGA,220412.000,0010.9259,S,07829.0197,W,2,10,0.92,2807.5,M,13.7,M,0000,0000*5D

$GPGSV,3,3,11,08,18,020,31,19,10,231,38,28,08,311,19*43

$GPRMC,220412.000,A,0010.9259,S,07829.0197,W,5.64,326.76,300317,,,D*69

$GPRMC,220413.000,A,0010.9249,S,07829.0204,W,3.81,335.53,300317,,,D*68

$GPVTG,335.53,T,,M,3.81,N,7.07,K,D*31

$GPVTG,311.80,T,,M,3.22,N,5.97,K,D*3B

$GPGGA,220415.000,0010.9234,S,07829.0218,W,2,10,0.87,2808.5,M,13.7,M,0000,0000*5E

$GPGGA,220416.000,0010.9225,S,07829.0226,W,2,10,0.92,2809.0,M,13.7,M,0000,0000*50

$GPGSA,A,3,08,28,09,03,01,17,23,07,11,19,,,1.61,0.92,1.33*0F

$GPGSA,A,3,08,28,09,03,01,17,23,07,11,19,,,1.61,0.92,1.33*0F

$GPGSV,3,1,11,01,64,103,33,11,63,038,29,51,56,270,28,09,51,241,30*7E

$GPVTG,330.51,T,,M,4.44,N,8.23,K,D*31

$GPGGA,220418.000,0010.9202,S,07829.0237,W,2,10,0.92,2809.2,M,13.7,M,0000,0000*59

$GPGGA,220419.000,0010.9189,S,07829.0243,W,2,10,0.92,2809.2,M,13.7,M,0000,0000*5B

$GPGSA,A,3,08,28,09,03,01,17,23,07,11,19,,,1.61,0.92,1.33*0F

$GPGSA,A,3,08,28,09,03,01,17,23,07,11,19,,,1.61,0.92,1.33*0F

$GPRMC,220420.000,A,0010.9177,S,07829.0250,W,4.30,325.80,300317,,,D*65

$GPRMC,220421.000,A,0010.9167,S,07829.0256,W,4.38,325.52,300317,,,D*64

$GPVTG,325.52,T,,M,4.38,N,8.11,K,D*3C

$GPGSV,3,2,11,07,48,356,26,23,41,183,39,17,28,247,28,03,22,158,39*71

$GPGSV,3,3,11,08,18,020,24,19,10,231,25,28,08,311,18*4A

$GPGSA,A,3,08,28,09,03,01,17,23,07,11,19,,,1.61,0.92,1.33*0F

$GPRMC,220423.000,A,0010.9149,S,07829.0273,W,4.00,312.61,300317,,,D*62

$GPRMC,220424.000,A,0010.9140,S,07829.0281,W,4.31,313.01,300317,,,D*64

$GPVTG,313.01,T,,M,4.31,N,7.98,K,D*38

$GPVTG,315.03,T,,M,4.30,N,7.97,K,D*32

$GPGGA,220426.000,0010.9121,S,07829.0299,W,2,10,0.92,2811.3,M,13.7,M,0000,0000*5A

$GPGGA,220427.000,0010.9114,S,07829.0308,W,2,10,0.92,2811.6,M,13.7,M,0000,0000*51

$GPGSA,A,3,08,28,09,03,01,17,23,07,11,19,,,1.61,0.92,1.33*0F

$GPRMC,220427.000,A,0010.9114,S,07829.0308,W,4.02,304.40,300317,,,D*65

$GPVTG,304.40,T,,M,4.02,N,7.44,K,D*3A

$GPVTG,306.17,T,,M,4.30,N,7.96,K,D*34

$GPGGA,220429.000,0010.9097,S,07829.0327,W,2,10,0.92,2812.2,M,13.7,M,0000,0000*5F

$GPGGA,220430.000,0010.9088,S,07829.0338,W,2,10,0.92,2812.6,M,13.7,M,0000,0000*53

$GPGSA,A,3,08,28,09,03,01,17,23,07,11,19,,,1.61,0.92,1.33*0F

$GPGSA,A,3,08,28,09,03,01,17,23,07,11,19,,,1.61,0.92,1.33*0F

$GPRMC,220431.000,A,0010.9076,S,07829.0346,W,3.64,310.00,300317,,,D*6B

$GPGSV,3,1,11,01,64,103,33,11,63,038,33,51,56,270,28,09,51,241,27*73

$GPGSV,3,2,11,07,48,356,23,23,41,183,39,17,28,247,26,03,22,158,38*7B

$GPGGA,220433.000,0010.9062,S,07829.0365,W,2,10,0.87,2812.1,M,13.7,M,0000,0000*5F

$GPGSA,A,3,08,28,09,03,01,17,23,07,11,19,,,1.18,0.87,0.80*0C

$GPRMC,220434.000,A,0010.9055,S,07829.0375,W,4.05,300.43,300317,,,D*69

$GPVTG,300.43,T,,M,4.05,N,7.50,K,D*3F

$GPVTG,291.75,T,,M,4.12,N,7.63,K,D*35

$GPGGA,220436.000,0010.9043,S,07829.0397,W,2,10,0.92,2812.2,M,13.7,M,0000,0000*53

$GPGGA,220437.000,0010.9039,S,07829.0410,W,2,10,0.87,2812.4,M,13.7,M,0000,0000*55

$GPGSA,A,3,08,28,09,03,01,17,23,07,11,19,,,1.18,0.87,0.80*0C

$GPRMC,220437.000,A,0010.9039,S,07829.0410,W,4.18,283.20,300317,,,D*67

$GPVTG,283.20,T,,M,4.18,N,7.74,K,D*3A

$GPVTG,289.65,T,,M,3.98,N,7.37,K,D*39

$GPGGA,220439.000,0010.9029,S,07829.0433,W,2,10,0.91,2812.9,M,13.7,M,0000,0000*51

$GPGGA,220440.000,0010.9022,S,07829.0446,W,2,10,0.91,2812.8,M,13.7,M,0000,0000*57

$GPGSA,A,3,08,28,09,03,01,17,23,07,11,19,,,1.61,0.91,1.33*0C

$GPGSA,A,3,08,28,09,03,01,17,23,07,11,19,,,1.61,0.91,1.33*0C

$GPRMC,220441.000,A,0010.9016,S,07829.0457,W,3.99,291.11,300317,,,D*67

$GPGSV,3,1,11,01,64,102,36,11,63,038,35,51,56,270,29,09,51,241,27*70

$GPGSV,3,2,11,07,48,356,31,23,41,183,34,17,28,247,29,03,22,158,38*7A

$GPGGA,220443.000,0010.9006,S,07829.0480,W,2,10,0.91,2813.1,M,13.7,M,0000,0000*50

$GPGSA,A,3,08,28,09,03,01,17,23,07,11,19,,,1.61,0.91,1.33*0C

$GPGSA,A,3,08,28,09,03,01,17,23,07,11,19,,,1.61,0.91,1.33*0C

$GPRMC,220444.000,A,0010.9000,S,07829.0494,W,4.55,290.70,300317,,,D*6B

$GPRMC,220445.000,A,0010.8993,S,07829.0507,W,4.28,279.49,300317,,,D*64

$GPVTG,279.49,T,,M,4.28,N,7.94,K,D*3D

$GPVTG,274.05,T,,M,4.42,N,8.19,K,D*3E

$GPGGA,220447.000,0010.8987,S,07829.0536,W,2,10,0.91,2813.2,M,13.7,M,0000,0000*5A

$GPGSV,3,3,11,08,18,020,25,19,10,231,20,28,08,311,17*41

$GPRMC,220447.000,A,0010.8987,S,07829.0536,W,4.42,280.87,300317,,,D*69

$GPRMC,220448.000,A,0010.8984,S,07829.0550,W,4.30,276.19,300317,,,D*6E

$GPVTG,276.19,T,,M,4.30,N,7.96,K,D*3C

$GPVTG,276.60,T,,M,4.14,N,7.67,K,D*3A

$GPGGA,220450.000,0010.8979,S,07829.0579,W,2,10,0.91,2813.4,M,13.7,M,0000,0000*50

$GPGGA,220451.000,0010.8978,S,07829.0594,W,2,10,0.91,2813.3,M,13.7,M,0000,0000*54

$GPGSA,A,3,08,28,09,03,01,17,23,07,11,19,,,1.61,0.91,1.33*0C

$GPGSA,A,3,08,28,09,03,01,17,23,07,11,19,,,1.61,0.91,1.33*0C

$GPGSV,3,1,11,01,64,102,38,11,62,038,38,51,56,270,28,09,50,240,29*7D

$GPVTG,273.22,T,,M,5.14,N,9.52,K,D*30

$GPGGA,220453.000,0010.8975,S,07829.0625,W,2,10,0.87,2813.3,M,13.7,M,0000,0000*55

$GPGGA,220454.000,0010.8974,S,07829.0642,W,2,10,0.91,2813.3,M,13.7,M,0000,0000*55

$GPGSA,A,3,08,28,09,03,01,17,23,07,11,19,,,1.61,0.91,1.33*0C

$GPGSA,A,3,08,28,09,03,01,17,23,07,11,19,,,1.61,0.91,1.33*0C

$GPRMC,220455.000,A,0010.8975,S,07829.0658,W,4.99,261.58,300317,,,D*67

$GPRMC,220456.000,A,0010.8975,S,07829.0674,W,5.54,265.89,300317,,,D*62

$GPVTG,265.89,T,,M,5.54,N,10.26,K,D*09

$GPGSV,3,2,11,07,48,356,31,23,41,183,30,17,28,247,24,03,22,158,30*7B

$GPGSV,3,3,11,08,18,020,33,19,10,231,18,28,08,311,17*4D

$GPGSA,A,3,08,28,09,03,01,17,23,07,11,19,,,1.61,0.91,1.33*0C

$GPRMC,220458.000,A,0010.8979,S,07829.0702,W,5.04,257.53,300317,,,D*63

$GPRMC,220459.000,A,0010.8982,S,07829.0716,W,5.21,257.19,300317,,,D*6A

$GPVTG,257.19,T,,M,5.21,N,9.66,K,D*3F

$GPVTG,262.87,T,,M,5.78,N,10.71,K,D*0C

$GPGGA,220501.000,0010.8985,S,07829.0749,W,2,10,0.91,2811.5,M,13.7,M,0000,0000*54

$GPGGA,220502.000,0010.8988,S,07829.0763,W,2,10,0.91,2811.5,M,13.7,M,0000,0000*52

$GPGSA,A,3,08,28,09,03,01,17,23,07,11,19,,,1.61,0.91,1.33*0C

$GPRMC,220502.000,A,0010.8988,S,07829.0763,W,5.15,249.31,300317,,,D*6F

$GPVTG,249.31,T,,M,5.15,N,9.55,K,D*3D

$GPVTG,253.37,T,,M,5.24,N,9.72,K,D*37

$GPGGA,220504.000,0010.8996,S,07829.0792,W,2,10,0.91,2811.4,M,13.7,M,0000,0000*54

$GPGGA,220505.000,0010.9001,S,07829.0806,W,2,10,0.91,2811.3,M,13.7,M,0000,0000*56

$GPGSA,A,3,08,28,09,03,01,17,23,07,11,19,,,1.61,0.91,1.33*0C

$GPGSA,A,3,08,28,09,03,01,17,23,07,11,19,,,1.61,0.91,1.33*0C

$GPRMC,220506.000,A,0010.9007,S,07829.0821,W,4.83,243.20,300317,,,D*69

$GPGSV,3,1,11,01,64,102,38,11,62,038,38,51,56,270,28,09,50,240,28*7C

$GPGSV,3,2,11,07,48,356,39,23,41,183,30,17,28,247,24,03,22,158,25*77

$GPGGA,220508.000,0010.9019,S,07829.0848,W,2,10,0.91,2810.6,M,13.7,M,0000,0000*5C

$GPGSA,A,3,08,28,09,03,01,17,23,07,11,19,,,1.61,0.91,1.33*0C

$GPGSA,A,3,08,28,09,03,01,17,23,07,11,19,,,1.61,0.91,1.33*0C

$GPRMC,220509.000,A,0010.9026,S,07829.0862,W,5.37,237.39,300317,,,D*67

$GPRMC,220510.000,A,0010.9034,S,07829.0876,W,5.23,235.26,300317,,,D*60

$GPVTG,235.26,T,,M,5.23,N,9.68,K,D*3B

$GPVTG,236.58,T,,M,5.10,N,9.44,K,D*3F

$GPGGA,220512.000,0010.9049,S,07829.0903,W,2,10,0.91,2810.1,M,13.7,M,0000,0000*5B

$GPGSV,3,3,11,08,18,020,25,19,10,231,20,28,08,312,16*43

$GPRMC,220512.000,A,0010.9049,S,07829.0903,W,5.23,234.52,300317,,,D*69

$GPRMC,220513.000,A,0010.9056,S,07829.0916,W,5.00,232.43,300317,,,D*65

$GPVTG,232.43,T,,M,5.00,N,9.27,K,D*35

$GPVTG,233.14,T,,M,5.55,N,10.28,K,D*01

$GPGGA,220515.000,0010.9076,S,07829.0942,W,2,10,0.91,2809.8,M,13.7,M,0000,0000*54

$GPGGA,220516.000,0010.9088,S,07829.0952,W,2,09,1.00,2809.5,M,13.7,M,0000,0000*5B

$GPGSA,A,3,08,09,03,01,17,23,07,11,19,,,,1.75,1.00,1.44*0A

$GPGSA,A,3,08,28,09,03,01,17,23,07,11,19,,,1.61,0.91,1.33*0C

$GPGSV,3,1,11,01,64,102,35,11,62,038,37,51,56,270,30,09,50,240,23*7C

$GPVTG,224.18,T,,M,4.95,N,9.17,K,D*32

$GPGGA,220518.000,0010.9110,S,07829.0970,W,2,10,0.91,2809.5,M,13.7,M,0000,0000*54

$GPGGA,220519.000,0010.9121,S,07829.0980,W,2,10,0.91,2809.4,M,13.7,M,0000,0000*59

$GPGSA,A,3,08,28,09,03,01,17,23,07,11,19,,,1.61,0.91,1.33*0C

$GPGSA,A,3,08,28,09,03,01,17,23,07,11,19,,,1.61,0.91,1.33*0C

$GPRMC,220520.000,A,0010.9133,S,07829.0990,W,5.13,220.17,300317,,,D*69

$GPRMC,220521.000,A,0010.9144,S,07829.1001,W,5.34,215.85,300317,,,D*60

$GPVTG,215.85,T,,M,5.34,N,9.90,K,D*31

$GPGSV,3,2,11,07,48,356,40,23,41,183,27,17,28,247,27,03,23,158,19*72

$GPGSV,3,3,11,08,18,020,41,19,10,231,,28,08,312,15*40

$GPGSA,A,3,08,09,03,01,17,23,07,11,,,,,1.97,1.05,1.67*0A

$GPRMC,220523.000,A,0010.9168,S,07829.1017,W,5.02,206.56,300317,,,D*62

$GPRMC,220524.000,A,0010.9179,S,07829.1026,W,4.87,214.05,300317,,,D*6E

$GPVTG,214.05,T,,M,4.87,N,9.03,K,D*3B

$GPVTG,210.66,T,,M,4.98,N,9.22,K,D*37

$GPGGA,220526.000,0010.9203,S,07829.1042,W,2,09,0.99,2807.9,M,13.7,M,0000,0000*53

$GPGGA,220527.000,0010.9215,S,07829.1050,W,2,09,0.99,2807.9,M,13.7,M,0000,0000*56

$GPGSA,A,3,08,09,03,01,17,23,07,11,19,,,,1.75,0.99,1.44*0B

$GPRMC,220527.000,A,0010.9215,S,07829.1050,W,5.10,212.94,300317,,,D*64

$GPVTG,212.94,T,,M,5.10,N,9.45,K,D*38

$GPVTG,202.23,T,,M,5.06,N,9.37,K,D*37

$GPGGA,220529.000,0010.9239,S,07829.1062,W,2,09,0.99,2808.1,M,13.7,M,0000,0000*50

$GPGGA,220530.000,0010.9252,S,07829.1067,W,2,10,0.91,2808.3,M,13.7,M,0000,0000*52

$GPGSA,A,3,08,28,09,03,01,17,23,07,11,19,,,1.61,0.91,1.33*0C

$GPGSA,A,3,08,28,09,03,01,17,23,07,11,19,,,1.61,0.91,1.33*0C

$GPRMC,220531.000,A,0010.9265,S,07829.1074,W,4.97,200.28,300317,,,D*68

$GPGSV,3,1,11,01,64,102,34,11,62,038,37,51,56,270,31,09,50,240,26*79

$GPGSV,3,2,11,07,48,356,38,23,41,183,27,17,29,247,28,03,23,158,19*73

$GPGGA,220533.000,0010.9294,S,07829.1082,W,2,10,0.91,2807.8,M,13.7,M,0000,0000*54

$GPGSA,A,3,08,28,09,03,01,17,23,07,11,19,,,1.61,0.91,1.33*0C

$GPGSA,A,3,08,28,09,03,01,17,23,07,11,19,,,1.61,0.91,1.33*0C

$GPRMC,220534.000,A,0010.9308,S,07829.1085,W,5.10,187.68,300317,,,D*6F

$GPRMC,220535.000,A,0010.9324,S,07829.1088,W,5.03,189.29,300317,,,D*64

$GPVTG,189.29,T,,M,5.03,N,9.32,K,D*3D

$GPVTG,194.54,T,,M,4.73,N,8.76,K,D*3C

$GPGGA,220537.000,0010.9351,S,07829.1094,W,2,10,0.91,2807.2,M,13.7,M,0000,0000*55

$GPGSV,3,3,11,08,18,020,43,19,10,231,17,28,08,312,18*49

$GPRMC,220537.000,A,0010.9351,S,07829.1094,W,4.68,189.71,300317,,,D*68

$GPRMC,220538.000,A,0010.9364,S,07829.1097,W,4.36,191.72,300317,,,D*63

$GPVTG,191.72,T,,M,4.36,N,8.07,K,D*3A

$GPVTG,183.78,T,,M,4.50,N,8.33,K,D*34

$GPGGA,220540.000,0010.9390,S,07829.1101,W,2,10,0.91,2807.2,M,13.7,M,0000,0000*55

$GPGGA,220541.000,0010.9403,S,07829.1102,W,2,09,0.94,2807.3,M,13.7,M,0000,0000*56

$GPGSA,A,3,08,28,09,03,01,17,23,07,11,,,,1.70,0.94,1.42*07

$GPGSA,A,3,08,09,03,01,17,23,07,11,19,,,,1.75,0.99,1.44*0B

$GPGSV,3,1,11,01,64,102,35,11,62,038,38,51,56,270,33,09,50,240,28*7B

$GPGGA,220543.000,0010.9432,S,07829.1109,W,2,09,0.99,2806.8,M,13.7,M,0000,0000*5A

$GPGSA,A,3,08,09,03,01,17,23,07,11,19,,,,1.75,0.99,1.44*0B

$GPGSA,A,3,08,28,09,03,01,17,23,07,11,,,,1.71,0.95,1.42*07

$GPRMC,220544.000,A,0010.9446,S,07829.1110,W,4.94,183.33,300317,,,D*6F

$GPRMC,220545.000,A,0010.9462,S,07829.1112,W,4.79,181.34,300317,,,D*6C

$GPVTG,181.34,T,,M,4.79,N,8.87,K,D*3A

$GPVTG,193.14,T,,M,4.75,N,8.80,K,D*30

$GPGGA,220547.000,0010.9489,S,07829.1118,W,2,08,1.05,2805.4,M,13.7,M,0000,0000*54

$GPGSV,3,3,12,22,20,131,,08,18,020,42,19,10,231,,28,08,312,15*71

$GPRMC,220547.000,A,0010.9489,S,07829.1118,W,5.21,187.07,300317,,,D*6B

$GPRMC,220548.000,A,0010.9504,S,07829.1121,W,5.25,190.62,300317,,,D*6B

$GPVTG,190.62,T,,M,5.25,N,9.72,K,D*3A

$GPVTG,187.94,T,,M,5.11,N,9.47,K,D*34

$GPGGA,220550.000,0010.9535,S,07829.1126,W,2,09,0.94,2805.1,M,13.7,M,0000,0000*54

$GPGGA,220551.000,0010.9551,S,07829.1130,W,2,09,0.94,2805.1,M,13.7,M,0000,0000*50

$GPGSA,A,3,08,28,09,03,01,17,23,07,11,,,,1.70,0.94,1.42*07

$GPGSA,A,3,08,28,09,03,01,17,23,07,11,,,,1.71,0.95,1.42*07

$GPGSV,3,1,12,01,64,101,34,11,62,038,37,51,56,270,33,09,50,240,28*75

$GPVTG,186.58,T,,M,5.64,N,10.45,K,D*0D

$GPGGA,220553.000,0010.9583,S,07829.1135,W,2,10,0.91,2805.1,M,13.7,M,0000,0000*55

$GPGGA,220554.000,0010.9597,S,07829.1138,W,2,10,0.91,2805.3,M,13.7,M,0000,0000*58

$GPGSA,A,3,08,28,09,03,01,17,23,07,11,19,,,1.61,0.91,1.33*0C

$GPGSA,A,3,08,28,09,03,01,17,23,07,11,19,,,1.61,0.91,1.33*0C

$GPRMC,220555.000,A,0010.9613,S,07829.1141,W,5.44,192.55,300317,,,D*65

$GPRMC,220556.000,A,0010.9629,S,07829.1142,W,5.26,182.65,300317,,,D*6A

$GPVTG,182.65,T,,M,5.26,N,9.75,K,D*3A

$GPGSV,3,2,12,07,49,356,40,23,40,183,28,17,29,247,31,03,23,157,19*77

$GPGSV,3,3,12,22,20,131,,08,17,021,41,19,10,231,19,28,08,312,31*72

$GPGSA,A,3,08,28,09,03,01,17,23,07,11,,,,1.70,0.94,1.42*07

$GPRMC,220558.000,A,0010.9659,S,07829.1144,W,5.08,189.47,300317,,,D*62

$GPRMC,220559.000,A,0010.9673,S,07829.1146,W,5.34,186.38,300317,,,D*61

$GPVTG,186.38,T,,M,5.34,N,9.89,K,D*36

$GPVTG,197.32,T,,M,5.57,N,10.32,K,D*01

$GPGGA,220601.000,0010.9703,S,07829.1154,W,2,09,0.94,2804.6,M,13.7,M,0000,0000*57

$GPGGA,220602.000,0010.9720,S,07829.1155,W,2,09,0.94,2804.7,M,13.7,M,0000,0000*55

$GPGSA,A,3,08,28,09,03,01,17,23,07,11,,,,1.70,0.94,1.42*07

$GPRMC,220602.000,A,0010.9720,S,07829.1155,W,5.73,178.28,300317,,,D*6A

$GPVTG,178.28,T,,M,5.73,N,10.61,K,D*0B

$GPVTG,189.04,T,,M,5.41,N,10.02,K,D*0F

$GPGGA,220604.000,0010.9750,S,07829.1161,W,2,09,0.94,2804.9,M,13.7,M,0000,0000*5D

$GPGGA,220605.000,0010.9766,S,07829.1163,W,2,09,0.94,2804.1,M,13.7,M,0000,0000*53

$GPGSA,A,3,08,28,09,03,01,17,23,07,11,,,,1.70,0.94,1.42*07

$GPGSA,A,3,08,28,09,03,01,17,23,07,11,,,,1.70,0.94,1.42*07

$GPRMC,220606.000,A,0010.9780,S,07829.1166,W,5.49,189.86,300317,,,D*67

$GPGSV,3,1,12,01,64,101,36,11,62,037,39,51,56,270,36,09,50,240,30*7A

$GPGSV,3,2,12,07,49,356,42,23,40,183,29,17,29,248,31,03,23,157,19*7B

$GPGGA,220608.000,0010.9809,S,07829.1173,W,2,09,0.94,2803.7,M,13.7,M,0000,0000*58

$GPGSA,A,3,08,28,09,03,01,17,23,07,11,,,,1.70,0.94,1.42*07

$GPGSA,A,3,08,28,09,03,01,17,23,07,11,,,,1.70,0.94,1.42*07

$GPRMC,220609.000,A,0010.9823,S,07829.1177,W,4.81,196.62,300317,,,D*6F

$GPRMC,220610.000,A,0010.9838,S,07829.1179,W,5.54,189.18,300317,,,D*69

$GPVTG,189.18,T,,M,5.54,N,10.26,K,D*00

$GPVTG,190.82,T,,M,4.89,N,9.06,K,D*30

$GPGGA,220612.000,0010.9867,S,07829.1183,W,2,09,0.94,2804.0,M,13.7,M,0000,0000*54

$GPGSV,3,3,12,22,20,131,,08,17,021,41,19,11,232,,28,08,312,24*7C

$GPRMC,220612.000,A,0010.9867,S,07829.1183,W,5.59,192.17,300317,,,D*6C

$GPRMC,220613.000,A,0010.9883,S,07829.1185,W,5.49,187.35,300317,,,D*64

$GPVTG,187.35,T,,M,5.49,N,10.18,K,D*00

$GPVTG,185.67,T,,M,5.66,N,10.49,K,D*0C

$GPGGA,220615.000,0010.9914,S,07829.1188,W,2,09,0.94,2804.4,M,13.7,M,0000,0000*59

$GPGGA,220616.000,0010.9930,S,07829.1191,W,2,09,0.94,2804.7,M,13.7,M,0000,0000*57

$GPGSA,A,3,08,28,09,03,01,17,23,07,11,,,,1.70,0.94,1.42*07

$GPGSA,A,3,08,28,09,03,01,17,23,07,11,,,,1.70,0.94,1.42*07

$GPGSV,3,1,12,01,64,101,35,11,62,037,37,51,56,270,33,09,50,240,27*74

$GPVTG,200.50,T,,M,5.76,N,10.68,K,D*04

$GPGGA,220618.000,0010.9960,S,07829.1200,W,2,09,0.94,2804.8,M,13.7,M,0000,0000*58

$GPGGA,220619.000,0010.9976,S,07829.1202,W,2,10,0.91,2804.3,M,13.7,M,0000,0000*5A

$GPGSA,A,3,08,28,09,03,01,17,23,07,11,19,,,1.61,0.91,1.32*0D

$GPGSA,A,3,08,28,09,03,01,17,23,07,11,19,,,1.61,0.91,1.33*0C

$GPRMC,220620.000,A,0010.9991,S,07829.1203,W,5.50,182.65,300317,,,D*63

$GPRMC,220621.000,A,0011.0008,S,07829.1204,W,6.06,187.13,300317,,,D*60

$GPVTG,187.13,T,,M,6.06,N,11.22,K,D*04

$GPGSV,3,2,12,07,49,356,40,23,40,183,27,17,29,248,29,03,23,157,19*7E

$GPGSV,3,3,12,22,20,131,,08,17,021,39,19,11,232,17,28,08,312,*73

$GPGSA,A,3,08,09,03,01,17,23,07,11,19,,,,1.75,0.99,1.44*0B

$GPRMC,220623.000,A,0011.0043,S,07829.1214,W,6.04,198.45,300317,,,D*63

$GPRMC,220624.000,A,0011.0059,S,07829.1217,W,6.04,185.05,300317,,,D*64

$GPVTG,185.05,T,,M,6.04,N,11.20,K,D*01

$GPVTG,187.26,T,,M,6.33,N,11.72,K,D*01

$GPGGA,220626.000,0011.0092,S,07829.1221,W,2,09,0.99,2803.8,M,13.7,M,0000,0000*50

$GPGGA,220627.000,0011.0108,S,07829.1223,W,2,09,0.99,2803.9,M,13.7,M,0000,0000*50

$GPGSA,A,3,08,09,03,01,17,23,07,11,19,,,,1.75,0.99,1.44*0B

$GPRMC,220627.000,A,0011.0108,S,07829.1223,W,6.14,183.83,300317,,,D*6C

$GPVTG,183.83,T,,M,6.14,N,11.38,K,D*01

$GPVTG,168.76,T,,M,5.82,N,10.79,K,D*06

$GPGGA,220629.000,0011.0140,S,07829.1219,W,2,10,0.91,2804.1,M,13.7,M,0000,0000*54

$GPGGA,220630.000,0011.0155,S,07829.1217,W,2,09,0.99,2804.3,M,13.7,M,0000,0000*54

$GPGSA,A,3,08,09,03,01,17,23,07,11,19,,,,1.75,0.99,1.44*0B

$GPGSA,A,3,08,09,03,01,17,23,07,11,19,,,,1.75,0.99,1.44*0B

$GPRMC,220631.000,A,0011.0170,S,07829.1214,W,5.58,170.71,300317,,,D*6A

$GPGSV,3,1,12,01,64,100,33,11,62,037,36,51,56,270,35,09,50,239,33*7F

$GPGSV,3,2,12,07,49,356,41,23,40,183,25,17,29,248,31,03,23,157,20*7E

$GPGGA,220633.000,0011.0201,S,07829.1207,W,2,10,0.91,2804.1,M,13.7,M,0000,0000*56

$GPGSA,A,3,08,28,09,03,01,17,23,07,11,19,,,1.61,0.91,1.33*0C

$GPGSA,A,3,08,28,09,03,01,17,23,07,11,19,,,1.61,0.91,1.33*0C

$GPRMC,220634.000,A,0011.0216,S,07829.1202,W,5.26,160.13,300317,,,D*67

$GPRMC,220635.000,A,0011.0229,S,07829.1197,W,5.41,160.20,300317,,,D*64

$GPVTG,160.20,T,,M,5.41,N,10.02,K,D*0E

$GPVTG,159.08,T,,M,5.99,N,11.10,K,D*09

$GPGGA,220637.000,0011.0260,S,07829.1186,W,2,10,0.91,2802.8,M,13.7,M,0000,0000*50

$GPGSV,3,3,12,22,20,131,,08,17,021,43,19,11,232,18,28,08,312,23*70

$GPRMC,220637.000,A,0011.0260,S,07829.1186,W,5.67,153.32,300317,,,D*6C

$GPRMC,220638.000,A,0011.0275,S,07829.1178,W,5.72,149.62,300317,,,D*6C

$GPVTG,149.62,T,,M,5.72,N,10.60,K,D*07

$GPVTG,150.11,T,,M,6.58,N,12.20,K,D*06

$GPGGA,220640.000,0011.0305,S,07829.1161,W,2,09,0.94,2802.2,M,13.7,M,0000,0000*5C

$GPGGA,220641.000,0011.0320,S,07829.1152,W,2,09,0.94,2801.8,M,13.7,M,0000,0000*53

$GPGSA,A,3,08,28,09,03,01,17,23,07,11,,,,1.70,0.94,1.42*07

$GPGSA,A,3,08,28,09,03,01,17,23,07,11,,,,1.70,0.94,1.42*07

$GPGSV,3,1,12,01,64,100,32,11,61,037,36,51,56,270,36,09,50,239,34*79

$GPVTG,140.29,T,,M,6.02,N,11.16,K,D*05

$GPGGA,220643.000,0011.0347,S,07829.1132,W,2,09,0.94,2800.9,M,13.7,M,0000,0000*56

$GPGGA,220644.000,0011.0359,S,07829.1124,W,2,09,0.94,2800.9,M,13.7,M,0000,0000*59

$GPGSA,A,3,08,28,09,03,01,17,23,07,11,,,,1.70,0.94,1.42*07

$GPGSA,A,3,08,28,09,03,01,17,23,07,11,,,,1.70,0.94,1.42*07

$GPRMC,220645.000,A,0011.0370,S,07829.1114,W,5.82,137.39,300317,,,D*60

$GPRMC,220646.000,A,0011.0382,S,07829.1103,W,5.80,136.22,300317,,,D*61

$GPVTG,136.22,T,,M,5.80,N,10.74,K,D*03

$GPGSV,3,2,12,07,49,356,42,23,40,183,32,17,29,248,41,03,23,157,22*7E

$GPGSV,3,3,12,22,20,130,,08,17,021,39,19,11,232,,28,08,312,24*72

$GPGSA,A,3,08,28,09,03,01,17,23,07,11,,,,1.70,0.94,1.42*07

$GPRMC,220648.000,A,0011.0405,S,07829.1081,W,5.42,136.12,300317,,,D*61

$GPRMC,220649.000,A,0011.0417,S,07829.1068,W,5.71,132.65,300317,,,D*60

$GPVTG,132.65,T,,M,5.71,N,10.58,K,D*04

$GPVTG,133.91,T,,M,5.76,N,10.67,K,D*05

$GPGGA,220651.000,0011.0442,S,07829.1043,W,2,10,0.91,2800.0,M,13.7,M,0000,0000*54

$GPGGA,220652.000,0011.0452,S,07829.1029,W,2,10,0.91,2800.2,M,13.7,M,0000,0000*58

$GPGSA,A,3,08,28,09,03,01,17,23,07,11,19,,,1.61,0.91,1.32*0D

$GPRMC,220652.000,A,0011.0452,S,07829.1029,W,5.81,124.84,300317,,,D*69

$GPVTG,124.84,T,,M,5.81,N,10.77,K,D*0E

$GPVTG,123.63,T,,M,6.84,N,12.67,K,D*05

$GPGGA,220654.000,0011.0473,S,07829.1000,W,2,10,0.91,2800.1,M,13.7,M,0000,0000*55

$GPGGA,220655.000,0011.0482,S,07829.0986,W,2,10,0.91,2800.2,M,13.7,M,0000,0000*5F

$GPGSA,A,3,08,28,09,03,01,17,23,07,11,19,,,1.60,0.91,1.32*0C

$GPGSA,A,3,08,28,09,03,01,17,23,07,11,19,,,1.60,0.91,1.32*0C

$GPRMC,220656.000,A,0011.0492,S,07829.0970,W,6.00,121.15,300317,,,D*62

$GPGSV,3,1,12,01,64,100,30,11,61,037,33,51,56,270,38,09,50,239,37*73

$GPGSV,3,2,12,07,49,356,40,23,40,183,32,17,29,248,39,03,23,157,25*74

$GPGGA,220658.000,0011.0507,S,07829.0941,W,2,10,0.91,2799.9,M,13.7,M,0000,0000*51

$GPGSA,A,3,08,28,09,03,01,17,23,07,11,19,,,1.61,0.91,1.33*0C

$GPGSA,A,3,08,28,09,03,01,17,23,07,11,19,,,1.60,0.91,1.32*0C

$GPRMC,220659.000,A,0011.0514,S,07829.0926,W,4.95,111.17,300317,,,D*6E

$GPRMC,220700.000,A,0011.0519,S,07829.0912,W,5.22,106.11,300317,,,D*64

$GPVTG,106.11,T,,M,5.22,N,9.66,K,D*33

$GPVTG,116.29,T,,M,5.01,N,9.28,K,D*32

$GPGGA,220702.000,0011.0531,S,07829.0885,W,2,10,0.91,2799.6,M,13.7,M,0000,0000*5C

$GPGSV,3,3,12,22,20,130,,08,17,021,27,19,11,232,32,28,08,312,30*79

$GPRMC,220702.000,A,0011.0531,S,07829.0885,W,5.48,109.72,300317,,,D*65

$GPRMC,220703.000,A,0011.0536,S,07829.0870,W,5.28,106.97,300317,,,D*6B

$GPVTG,106.97,T,,M,5.28,N,9.78,K,D*38

$GPVTG,112.66,T,,M,5.76,N,10.68,K,D*01

$GPGGA,220705.000,0011.0545,S,07829.0841,W,2,10,0.91,2799.2,M,13.7,M,0000,0000*54

$GPGGA,220706.000,0011.0548,S,07829.0827,W,2,10,0.91,2798.6,M,13.7,M,0000,0000*5F

$GPGSA,A,3,08,28,09,03,01,17,23,07,11,19,,,1.60,0.91,1.32*0C

$GPGSV,3,1,12,01,64,099,30,11,61,037,32,51,56,270,37,09,50,239,37*7C

$GPGSV,3,2,12,07,49,356,36,23,40,183,34,17,29,248,30,03,23,157,24*7B

$GPGGA,220708.000,0011.0555,S,07829.0795,W,2,10,0.91,2798.2,M,13.7,M,0000,0000*5F

$GPGSA,A,3,08,28,09,03,01,17,23,07,11,19,,,1.60,0.91,1.32*0C

$GPGSA,A,3,08,28,09,03,01,17,23,07,11,19,,,1.18,0.86,0.80*0D

$GPRMC,220709.000,A,0011.0557,S,07829.0779,W,5.52,93.52,300317,,,D*59

$GPRMC,220710.000,A,0011.0558,S,07829.0762,W,5.57,95.67,300317,,,D*51

$GPVTG,95.67,T,,M,5.57,N,10.32,K,D*32

$GPVTG,95.00,T,,M,5.60,N,10.37,K,D*32

$GPGGA,220712.000,0011.0561,S,07829.0728,W,2,10,0.91,2796.5,M,13.7,M,0000,0000*5C

$GPGSV,3,3,12,22,20,130,,08,17,021,25,19,11,232,31,28,08,312,37*7F

$GPRMC,220712.000,A,0011.0561,S,07829.0728,W,5.74,89.04,300317,,,D*5E

$GPRMC,220713.000,A,0011.0561,S,07829.0711,W,5.75,89.08,300317,,,D*58

$GPVTG,89.08,T,,M,5.75,N,10.66,K,D*37

$GPVTG,81.19,T,,M,4.98,N,9.23,K,D*04

$GPGGA,220715.000,0011.0558,S,07829.0681,W,2,10,0.90,2795.8,M,13.7,M,0000,0000*5C

$GPGGA,220716.000,0011.0557,S,07829.0666,W,2,10,0.90,2796.0,M,13.7,M,0000,0000*52

$GPGSA,A,3,08,28,09,03,01,17,23,07,11,19,,,1.60,0.90,1.32*0D

$GPGSA,A,3,28,09,03,01,17,23,07,11,19,,,,1.95,1.08,1.62*0A

$GPGSV,3,1,12,01,64,099,29,11,61,037,32,51,56,270,39,09,50,239,39*74

$GPVTG,80.34,T,,M,5.69,N,10.54,K,D*3D

$GPGGA,220718.000,0011.0552,S,07829.0632,W,2,10,0.90,2794.8,M,13.7,M,0000,0000*52

$GPGGA,220719.000,0011.0549,S,07829.0617,W,2,09,1.08,2794.8,M,13.7,M,0000,0000*56

$GPGSA,A,3,28,09,03,01,17,23,07,11,19,,,,1.95,1.08,1.62*0A

$GPGSA,A,3,28,09,03,01,17,23,07,11,19,,,,1.95,1.08,1.62*0A

$GPRMC,220720.000,A,0011.0546,S,07829.0600,W,5.76,77.98,300317,,,D*57

$GPRMC,220721.000,A,0011.0542,S,07829.0585,W,5.59,71.92,300317,,,D*5D

$GPVTG,71.92,T,,M,5.59,N,10.36,K,D*38

$GPGSV,3,2,12,07,49,356,34,23,40,182,37,17,29,248,43,03,23,157,29*72

$GPGSV,3,3,12,22,20,130,,08,17,021,22,19,11,232,29,28,08,312,34*72

$GPGSA,A,3,08,28,09,03,01,17,23,07,11,19,,,1.60,0.90,1.32*0D

$GPRMC,220723.000,A,0011.0533,S,07829.0556,W,5.07,73.72,300317,,,D*50

$GPRMC,220724.000,A,0011.0528,S,07829.0541,W,5.31,65.10,300317,,,D*5D

$GPVTG,65.10,T,,M,5.31,N,9.83,K,D*0F

$GPVTG,67.16,T,,M,5.15,N,9.54,K,D*07

$GPGGA,220726.000,0011.0516,S,07829.0515,W,2,10,0.90,2794.0,M,13.7,M,0000,0000*51

$GPGGA,220727.000,0011.0508,S,07829.0501,W,2,09,1.08,2793.7,M,13.7,M,0000,0000*52

$GPGSA,A,3,28,09,03,01,17,23,07,11,19,,,,1.95,1.08,1.62*0A

$GPRMC,220727.000,A,0011.0508,S,07829.0501,W,5.26,57.19,300317,,,D*56

$GPVTG,57.19,T,,M,5.26,N,9.74,K,D*09

$GPVTG,58.15,T,,M,5.51,N,10.21,K,D*32

$GPGGA,220729.000,0011.0492,S,07829.0475,W,2,10,0.90,2793.8,M,13.7,M,0000,0000*5B

$GPGGA,220730.000,0011.0484,S,07829.0462,W,2,10,0.90,2793.5,M,13.7,M,0000,0000*5F

$GPGSA,A,3,08,28,09,03,01,17,23,07,11,19,,,1.60,0.90,1.32*0D

$GPGSA,A,3,08,28,09,03,01,17,23,07,11,19,,,1.60,0.90,1.32*0D

$GPRMC,220731.000,A,0011.0476,S,07829.0448,W,5.25,57.40,300317,,,D*5A

$GPGSV,3,1,12,01,64,099,31,11,61,037,32,51,56,270,38,09,50,239,40*72

$GPGSV,3,2,12,07,49,356,35,23,40,182,41,17,29,248,42,03,23,157,33*78

$GPGGA,220733.000,0011.0457,S,07829.0421,W,2,09,1.08,2792.1,M,13.7,M,0000,0000*58

$GPGSA,A,3,28,09,03,01,17,23,07,11,19,,,,1.95,1.08,1.62*0A

$GPRMC,220734.000,A,0011.0447,S,07829.0409,W,5.27,54.02,300317,,,D*5F

$GPVTG,54.02,T,,M,5.27,N,9.76,K,D*03

$GPVTG,51.06,T,,M,5.24,N,9.70,K,D*07

$GPGGA,220736.000,0011.0429,S,07829.0385,W,2,09,1.08,2791.5,M,13.7,M,0000,0000*5A

$GPGGA,220737.000,0011.0418,S,07829.0374,W,2,09,1.08,2791.1,M,13.7,M,0000,0000*53

$GPGSA,A,3,28,09,03,01,17,23,07,11,19,,,,1.95,1.08,1.62*0A

$GPRMC,220737.000,A,0011.0418,S,07829.0374,W,5.43,40.50,300317,,,D*5B

$GPVTG,40.50,T,,M,5.43,N,10.07,K,D*3D

$GPVTG,44.31,T,,M,5.56,N,10.31,K,D*3F

$GPGGA,220739.000,0011.0395,S,07829.0352,W,2,09,1.08,2790.8,M,13.7,M,0000,0000*53

$GPGGA,220740.000,0011.0383,S,07829.0343,W,2,09,1.08,2790.6,M,13.7,M,0000,0000*54

$GPGSA,A,3,28,09,03,01,17,23,07,11,19,,,,1.95,1.08,1.62*0A

$GPGSA,A,3,08,28,09,03,01,17,23,07,11,19,,,1.60,0.90,1.32*0D

$GPRMC,220741.000,A,0011.0369,S,07829.0334,W,5.65,38.28,300317,,,D*5B

$GPGSV,3,1,12,01,64,099,34,11,61,037,29,51,56,270,37,09,50,238,39*7D

$GPGSV,3,2,12,07,49,356,34,23,40,182,41,17,29,248,42,03,23,157,37*7D

$GPGGA,220743.000,0011.0342,S,07829.0318,W,2,10,0.90,2790.5,M,13.7,M,0000,0000*5F

$GPGSA,A,3,08,28,09,03,01,17,23,07,11,19,,,1.60,0.90,1.32*0D

$GPGSA,A,3,08,28,09,03,01,17,23,07,11,19,,,1.60,0.90,1.32*0D

$GPRMC,220744.000,A,0011.0329,S,07829.0312,W,4.97,30.81,300317,,,D*59

$GPRMC,220745.000,A,0011.0316,S,07829.0306,W,5.28,27.62,300317,,,D*5F

$GPVTG,27.62,T,,M,5.28,N,9.79,K,D*01

$GPVTG,26.87,T,,M,5.20,N,9.64,K,D*0F

$GPGGA,220747.000,0011.0290,S,07829.0295,W,2,09,1.08,2791.1,M,13.7,M,0000,0000*5C

$GPGSV,3,3,12,22,20,130,34,08,17,021,,19,11,232,37,28,08,313,29*77

$GPRMC,220747.000,A,0011.0290,S,07829.0295,W,5.11,22.67,300317,,,D*53

$GPRMC,220748.000,A,0011.0276,S,07829.0290,W,4.94,28.28,300317,,,D*5C

$GPVTG,28.28,T,,M,4.94,N,9.15,K,D*0C

$GPVTG,22.35,T,,M,4.87,N,9.02,K,D*0E

$GPGGA,220750.000,0011.0251,S,07829.0280,W,2,10,0.90,2791.6,M,13.7,M,0000,0000*5C

$GPGGA,220751.000,0011.0237,S,07829.0276,W,2,10,0.90,2791.9,M,13.7,M,0000,0000*5B

$GPGSA,A,3,28,09,03,01,17,23,07,11,19,08,,,1.60,0.90,1.32*0D

$GPGSA,A,3,09,03,01,17,23,07,11,19,,,,,2.68,1.30,2.34*0A

$GPGSV,3,1,12,01,64,099,29,11,61,036,28,51,56,270,35,09,50,238,39*73

$GPVTG,8.89,T,,M,4.76,N,8.81,K,D*35

$GPGGA,220753.000,0011.0209,S,07829.0270,W,2,10,0.90,2791.7,M,13.7,M,0000,0000*5C

$GPGGA,220754.000,0011.0194,S,07829.0268,W,2,10,0.90,2792.0,M,13.7,M,0000,0000*51

$GPGSA,A,3,28,09,03,01,17,23,07,11,19,08,,,1.60,0.90,1.32*0D

$GPGSA,A,3,28,09,03,01,17,23,07,11,19,08,,,1.60,0.90,1.32*0D

$GPRMC,220755.000,A,0011.0180,S,07829.0265,W,4.94,11.06,300317,,,D*56

$GPRMC,220756.000,A,0011.0166,S,07829.0263,W,5.01,8.28,300317,,,D*62

$GPVTG,8.28,T,,M,5.01,N,9.28,K,D*3D

$GPGSV,3,2,12,07,49,356,32,23,40,182,39,17,29,249,41,03,23,157,43*75

$GPGSV,3,3,12,22,20,130,24,08,17,021,26,19,11,232,37,28,08,313,22*79

$GPGSA,A,3,09,03,01,17,23,07,11,19,08,,,,1.75,0.99,1.44*0B

$GPRMC,220758.000,A,0011.0137,S,07829.0260,W,4.97,11.45,300317,,,D*56

$GPRMC,220759.000,A,0011.0122,S,07829.0257,W,5.64,9.79,300317,,,D*6C

$GPVTG,9.79,T,,M,5.64,N,10.45,K,D*08

$GPVTG,9.87,T,,M,5.48,N,10.16,K,D*01

$GPGGA,220801.000,0011.0092,S,07829.0253,W,2,10,0.90,2791.5,M,13.7,M,0000,0000*57

$GPGGA,220802.000,0011.0078,S,07829.0250,W,2,09,0.99,2791.3,M,13.7,M,0000,0000*54

$GPGSA,A,3,09,03,01,17,23,07,11,19,08,,,,1.75,0.99,1.44*0B

$GPRMC,220802.000,A,0011.0078,S,07829.0250,W,4.83,13.72,300317,,,D*5C

$GPVTG,13.72,T,,M,4.83,N,8.95,K,D*04

$GPVTG,9.22,T,,M,5.07,N,9.40,K,D*3E

$GPGGA,220804.000,0011.0051,S,07829.0245,W,2,09,0.99,2791.2,M,13.7,M,0000,0000*5C

$GPGGA,220805.000,0011.0036,S,07829.0243,W,2,09,0.99,2791.2,M,13.7,M,0000,0000*5A

$GPGSA,A,3,09,03,01,17,23,07,11,19,08,,,,1.75,0.99,1.44*0B

$GPGSA,A,3,09,03,01,17,23,07,11,19,08,,,,1.75,0.99,1.44*0B

$GPRMC,220806.000,A,0011.0023,S,07829.0242,W,4.80,12.72,300317,,,D*57

$GPGSV,3,1,12,01,64,099,36,11,61,036,29,51,56,270,35,09,50,238,39*7C

$GPGSV,3,2,12,07,49,356,32,23,40,182,43,17,29,249,42,03,23,157,40*78

$GPGGA,220808.000,0010.9997,S,07829.0237,W,2,10,0.90,2792.4,M,13.7,M,0000,0000*5A

$GPGSA,A,3,28,09,03,01,17,23,07,11,19,08,,,1.60,0.90,1.32*0D

$GPGSA,A,3,28,09,03,01,17,23,07,11,19,08,,,1.60,0.90,1.32*0D

$GPRMC,220809.000,A,0010.9984,S,07829.0235,W,4.61,11.70,300317,,,D*5A

$GPRMC,220810.000,A,0010.9970,S,07829.0232,W,4.92,10.73,300317,,,D*50

$GPVTG,10.73,T,,M,4.92,N,9.13,K,D*09

$GPVTG,8.75,T,,M,4.66,N,8.64,K,D*3C

$GPGGA,220812.000,0010.9944,S,07829.0228,W,2,09,0.99,2793.1,M,13.7,M,0000,0000*54

$GPGSV,3,3,12,22,20,130,34,08,17,021,22,19,11,232,40,28,08,313,19*74

$GPRMC,220812.000,A,0010.9944,S,07829.0228,W,4.76,9.21,300317,,,D*6B

$GPRMC,220813.000,A,0010.9930,S,07829.0226,W,4.92,7.65,300317,,,D*63

$GPVTG,7.65,T,,M,4.92,N,9.12,K,D*39

$GPVTG,7.98,T,,M,4.99,N,9.25,K,D*34

$GPGGA,220815.000,0010.9901,S,07829.0221,W,2,09,0.98,2792.4,M,13.7,M,0000,0000*5E

$GPGGA,220816.000,0010.9887,S,07829.0219,W,2,10,0.90,2792.5,M,13.7,M,0000,0000*58

$GPGSA,A,3,28,09,03,01,17,23,07,11,19,08,,,1.60,0.90,1.32*0D

$GPGSA,A,3,28,09,03,01,17,23,07,11,19,08,,,1.60,0.90,1.32*0D

$GPGSV,3,1,12,01,64,098,34,11,61,036,27,51,56,270,34,07,50,357,32*7D

$GPVTG,7.36,T,,M,5.02,N,9.31,K,D*36

$GPGGA,220818.000,0010.9859,S,07829.0216,W,2,10,0.90,2792.6,M,13.7,M,0000,0000*59

$GPGGA,220819.000,0010.9845,S,07829.0215,W,2,10,0.90,2792.8,M,13.7,M,0000,0000*58

$GPGSA,A,3,28,09,03,01,17,23,07,11,19,08,,,1.60,0.90,1.32*0D

$GPGSA,A,3,09,03,01,17,23,07,11,19,08,,,,1.75,0.99,1.44*0B

$GPRMC,220820.000,A,0010.9832,S,07829.0212,W,5.09,12.17,300317,,,D*55

$GPRMC,220821.000,A,0010.9819,S,07829.0210,W,4.68,11.62,300317,,,D*58

$GPVTG,11.62,T,,M,4.68,N,8.67,K,D*0F

$GPGSV,3,2,12,09,50,238,37,23,40,182,41,17,29,249,40,03,23,156,38*7C

$GPGSV,3,3,12,22,20,130,33,08,17,021,21,19,11,232,38,28,08,313,20*75

$GPGSA,A,3,28,09,03,01,17,23,07,11,19,08,,,1.60,0.90,1.32*0D

$GPRMC,220823.000,A,0010.9791,S,07829.0205,W,4.82,8.34,300317,,,D*6E

$GPRMC,220824.000,A,0010.9777,S,07829.0202,W,4.59,10.90,300317,,,D*57

$GPVTG,10.90,T,,M,4.59,N,8.51,K,D*04

$GPVTG,9.13,T,,M,5.05,N,9.35,K,D*3C

$GPGGA,220826.000,0010.9749,S,07829.0197,W,2,09,0.98,2791.8,M,13.7,M,0000,0000*5D

$GPGGA,220827.000,0010.9734,S,07829.0197,W,2,09,0.98,2791.5,M,13.7,M,0000,0000*5B

$GPGSA,A,3,09,03,01,17,23,07,11,19,08,,,,1.74,0.98,1.44*0B

$GPRMC,220827.000,A,0010.9734,S,07829.0197,W,5.32,357.36,300317,,,D*6C

$GPVTG,357.36,T,,M,5.32,N,9.86,K,D*3F

$GPVTG,2.87,T,,M,5.29,N,9.80,K,D*3A

$GPGGA,220829.000,0010.9703,S,07829.0195,W,2,10,0.90,2790.8,M,13.7,M,0000,0000*5F

$GPGGA,220830.000,0010.9688,S,07829.0192,W,2,09,0.98,2790.6,M,13.7,M,0000,0000*5C

$GPGSA,A,3,09,03,01,17,23,07,11,19,08,,,,1.75,0.98,1.44*0A

$GPGSA,A,3,28,09,03,01,17,23,07,11,19,08,,,1.60,0.90,1.32*0D

$GPRMC,220831.000,A,0010.9672,S,07829.0189,W,5.58,12.42,300317,,,D*5A

$GPGSV,3,1,12,01,64,098,35,11,61,036,27,51,56,270,35,07,50,357,31*7E

$GPGSV,3,2,12,09,50,238,37,23,40,182,42,17,29,249,38,03,23,156,39*71

$GPGGA,220833.000,0010.9641,S,07829.0184,W,2,10,0.90,2790.3,M,13.7,M,0000,0000*58

$GPGSA,A,3,28,09,03,01,17,23,07,11,19,08,,,1.60,0.90,1.32*0D

$GPGSA,A,3,28,09,03,01,17,23,07,11,19,08,,,1.60,0.90,1.32*0D

$GPRMC,220834.000,A,0010.9625,S,07829.0181,W,5.61,7.63,300317,,,D*68

$GPRMC,220835.000,A,0010.9610,S,07829.0179,W,5.75,5.93,300317,,,D*60

$GPVTG,5.93,T,,M,5.75,N,10.65,K,D*02

$GPVTG,9.33,T,,M,5.59,N,10.35,K,D*0F

$GPGGA,220837.000,0010.9579,S,07829.0176,W,2,10,0.90,2790.2,M,13.7,M,0000,0000*58

$GPGSV,3,3,12,22,20,129,37,08,17,021,22,19,11,232,37,28,08,313,20*75

$GPRMC,220837.000,A,0010.9579,S,07829.0176,W,5.52,6.58,300317,,,D*60

$GPRMC,220838.000,A,0010.9563,S,07829.0174,W,5.84,3.83,300317,,,D*6E

$GPVTG,3.83,T,,M,5.84,N,10.83,K,D*03

$GPVTG,3.77,T,,M,5.75,N,10.66,K,D*0D

$GPGGA,220840.000,0010.9530,S,07829.0171,W,2,10,0.90,2790.3,M,13.7,M,0000,0000*53

$GPGGA,220841.000,0010.9513,S,07829.0167,W,2,10,0.90,2789.7,M,13.7,M,0000,0000*58

$GPGSA,A,3,28,09,03,01,17,23,07,11,19,08,,,1.60,0.90,1.32*0D

$GPGSA,A,3,28,09,03,01,17,23,07,11,19,08,,,1.60,0.90,1.32*0D

$GPGSV,3,1,12,01,64,098,36,11,61,036,27,51,56,270,32,07,50,357,30*7B

$GPVTG,14.52,T,,M,6.09,N,11.28,K,D*3F

$GPGGA,220843.000,0010.9482,S,07829.0160,W,2,10,0.90,2789.9,M,13.7,M,0000,0000*5A

$GPGGA,220844.000,0010.9465,S,07829.0158,W,2,10,0.90,2790.1,M,13.7,M,0000,0000*5F

$GPGSA,A,3,28,09,03,01,17,23,07,11,19,08,,,1.60,0.90,1.32*0D

$GPGSA,A,3,09,03,01,17,23,07,11,19,08,,,,1.74,0.98,1.44*0B

$GPRMC,220845.000,A,0010.9449,S,07829.0157,W,6.16,2.45,300317,,,D*6F

$GPRMC,220846.000,A,0010.9434,S,07829.0157,W,5.88,0.18,300317,,,D*68

$GPVTG,0.18,T,,M,5.88,N,10.90,K,D*0C

$GPGSV,3,2,12,09,50,238,36,23,39,182,41,17,29,249,39,03,23,156,38*7D

$GPGSV,3,3,12,22,20,129,31,08,17,021,21,19,11,232,38,28,08,313,22*7D

$GPGSA,A,3,28,09,03,01,17,23,07,11,19,08,,,1.60,0.90,1.32*0D

$GPRMC,220848.000,A,0010.9401,S,07829.0157,W,6.26,0.14,300317,,,D*6B

$GPRMC,220849.000,A,0010.9384,S,07829.0158,W,6.16,351.98,300317,,,D*6F

$GPVTG,351.98,T,,M,6.16,N,11.42,K,D*09

$GPVTG,351.22,T,,M,6.55,N,12.13,K,D*08

$GPGGA,220851.000,0010.9349,S,07829.0165,W,2,10,0.90,2790.3,M,13.7,M,0000,0000*5E

$GPGGA,220852.000,0010.9333,S,07829.0170,W,2,09,0.98,2790.8,M,13.7,M,0000,0000*5F

$GPGSA,A,3,09,03,01,17,23,07,11,19,08,,,,1.74,0.98,1.44*0B

$GPRMC,220852.000,A,0010.9333,S,07829.0170,W,6.50,346.30,300317,,,D*65

$GPVTG,346.30,T,,M,6.50,N,12.05,K,D*0F

$GPVTG,345.50,T,,M,6.17,N,11.43,K,D*08

$GPGGA,220854.000,0010.9300,S,07829.0180,W,2,10,0.90,2790.9,M,13.7,M,0000,0000*57

$GPGGA,220855.000,0010.9287,S,07829.0185,W,2,11,0.77,2791.2,M,13.7,M,0000,0000*5F

$GPGSA,A,3,22,28,09,03,01,17,23,07,11,19,08,,1.42,0.77,1.20*07

$GPGSA,A,3,22,09,03,01,17,23,07,11,19,08,,,1.60,0.85,1.35*04

$GPRMC,220856.000,A,0010.9273,S,07829.0190,W,5.37,335.54,300317,,,D*6E

$GPGSV,3,1,12,01,64,097,36,11,60,036,31,51,56,270,32,07,50,357,26*75

$GPGSV,3,2,12,09,50,237,34,23,39,182,41,17,29,249,31,03,23,156,38*78

$GPGGA,220858.000,0010.9245,S,07829.0201,W,2,10,0.85,2791.1,M,13.7,M,0000,0000*5C

$GPGSA,A,3,22,09,03,01,17,23,07,11,19,08,,,1.60,0.85,1.35*04

$GPGSA,A,3,22,09,03,01,17,23,07,11,19,08,,,1.60,0.85,1.35*04

$GPRMC,220859.000,A,0010.9231,S,07829.0206,W,5.71,334.97,300317,,,D*67

$GPRMC,220900.000,A,0010.9216,S,07829.0213,W,5.70,331.66,300317,,,D*61

$GPVTG,331.66,T,,M,5.70,N,10.56,K,D*09

$GPVTG,336.11,T,,M,5.54,N,10.27,K,D*0E

$GPGGA,220902.000,0010.9188,S,07829.0226,W,2,09,1.15,2791.6,M,13.7,M,0000,0000*52

$GPGSV,3,3,12,22,20,129,39,08,16,021,,19,11,232,30,28,08,313,*7F

$GPRMC,220902.000,A,0010.9188,S,07829.0226,W,5.83,333.19,300317,,,D*67

$GPRMC,220903.000,A,0010.9174,S,07829.0233,W,5.56,327.31,300317,,,D*66

$GPVTG,327.31,T,,M,5.56,N,10.30,K,D*08

$GPVTG,322.31,T,,M,5.23,N,9.70,K,D*33

$GPGGA,220905.000,0010.9150,S,07829.0250,W,2,10,0.85,2792.1,M,13.7,M,0000,0000*55

$GPGGA,220906.000,0010.9139,S,07829.0259,W,2,10,0.85,2792.3,M,13.7,M,0000,0000*52

$GPGSA,A,3,22,08,09,03,01,17,23,07,11,19,,,1.60,0.85,1.35*04

$GPGSA,A,3,22,08,09,03,01,17,23,07,11,19,,,1.60,0.85,1.35*04

$GPGSV,3,1,12,01,64,097,37,11,60,036,31,51,56,270,29,07,50,357,27*7F

$GPVTG,317.30,T,,M,5.35,N,9.92,K,D*3F

$GPGGA,220908.000,0010.9115,S,07829.0280,W,2,10,0.85,2791.8,M,13.7,M,0000,0000*5E

$GPGGA,220909.000,0010.9105,S,07829.0290,W,2,10,0.85,2792.4,M,13.7,M,0000,0000*50

$GPGSA,A,3,22,08,09,03,01,17,23,07,11,19,,,1.60,0.85,1.35*04

$GPGSA,A,3,22,08,09,03,01,17,23,07,11,19,,,1.60,0.85,1.35*04

$GPRMC,220910.000,A,0010.9094,S,07829.0301,W,5.55,314.04,300317,,,D*6E

$GPRMC,220911.000,A,0010.9081,S,07829.0313,W,5.86,314.15,300317,,,D*66

$GPVTG,314.15,T,,M,5.86,N,10.86,K,D*0E

$GPGSV,3,2,12,09,50,237,31,23,39,182,40,17,29,249,27,03,23,156,38*7B

$GPGSV,3,3,12,22,20,129,40,08,16,021,29,19,11,233,24,28,08,313,*7E

$GPGSA,A,3,22,08,09,03,01,17,23,07,11,19,,,1.60,0.85,1.35*04

$GPRMC,220913.000,A,0010.9059,S,07829.0344,W,7.05,304.16,300317,,,D*68

$GPRMC,220914.000,A,0010.9049,S,07829.0363,W,7.78,300.18,300317,,,D*6B

$GPVTG,300.18,T,,M,7.78,N,14.43,K,D*08

$GPVTG,295.88,T,,M,8.15,N,15.10,K,D*0F

$GPGGA,220916.000,0010.9029,S,07829.0403,W,2,10,0.85,2794.3,M,13.7,M,0000,0000*5C

$GPGGA,220917.000,0010.9019,S,07829.0423,W,2,10,0.85,2793.9,M,13.7,M,0000,0000*51

$GPGSA,A,3,22,08,09,03,01,17,23,07,11,19,,,1.60,0.85,1.35*04

$GPRMC,220917.000,A,0010.9019,S,07829.0423,W,8.28,294.78,300317,,,D*6E

$GPVTG,294.78,T,,M,8.28,N,15.34,K,D*09

$GPVTG,290.53,T,,M,8.15,N,15.09,K,D*04

$GPGGA,220919.000,0010.9003,S,07829.0465,W,2,10,0.85,2794.5,M,13.7,M,0000,0000*5D

$GPGGA,220920.000,0010.8997,S,07829.0489,W,2,10,0.85,2794.7,M,13.7,M,0000,0000*52

$GPGSA,A,3,22,08,09,03,01,17,23,07,11,19,,,1.60,0.85,1.35*04

$GPGSA,A,3,22,08,09,03,01,17,23,07,11,19,,,1.60,0.85,1.35*04

$GPRMC,220921.000,A,0010.8992,S,07829.0511,W,7.70,283.37,300317,,,D*6F

$GPGSV,3,1,12,01,64,097,40,11,60,036,39,51,56,270,30,07,50,357,39*70

$GPGSV,3,2,12,09,50,237,29,23,39,182,34,17,29,249,25,03,23,156,28*72

$GPGGA,220923.000,0010.8984,S,07829.0555,W,2,11,0.77,2795.4,M,13.7,M,0000,0000*5D

$GPGSA,A,3,22,08,09,03,01,17,23,07,11,19,28,,1.42,0.77,1.20*07

$GPRMC,220924.000,A,0010.8981,S,07829.0577,W,7.21,277.60,300317,,,D*65

$GPVTG,277.60,T,,M,7.21,N,13.36,K,D*0F

$GPVTG,272.55,T,,M,7.75,N,14.37,K,D*0B

$GPGGA,220926.000,0010.8978,S,07829.0621,W,2,11,0.77,2795.4,M,13.7,M,0000,0000*5B

$GPGGA,220927.000,0010.8978,S,07829.0644,W,2,11,0.77,2795.5,M,13.7,M,0000,0000*58

$GPGSA,A,3,22,08,09,03,01,17,23,07,11,19,28,,1.42,0.77,1.20*07

$GPRMC,220927.000,A,0010.8978,S,07829.0644,W,8.19,265.26,300317,,,D*66

$GPVTG,265.26,T,,M,8.19,N,15.17,K,D*0F

$GPVTG,262.27,T,,M,7.63,N,14.14,K,D*09

$GPGGA,220929.000,0010.8987,S,07829.0689,W,2,11,0.77,2796.7,M,13.7,M,0000,0000*56

$GPGGA,220930.000,0010.8991,S,07829.0711,W,2,11,0.77,2796.9,M,13.7,M,0000,0000*57

$GPGSA,A,3,22,08,09,03,01,17,23,07,11,19,28,,1.42,0.77,1.20*07

$GPGSA,A,3,22,08,09,03,01,17,23,07,11,19,28,,1.42,0.77,1.20*07

$GPRMC,220931.000,A,0010.8995,S,07829.0734,W,7.58,262.59,300317,,,D*61

$GPGSV,3,1,12,01,64,096,38,11,60,036,37,51,56,270,27,07,50,357,39*76

$GPGSV,3,2,12,09,50,237,30,23,39,182,30,17,29,249,25,03,23,156,24*72

$GPGGA,220933.000,0010.9004,S,07829.0777,W,2,11,0.77,2797.1,M,13.7,M,0000,0000*59

$GPGSA,A,3,22,08,09,03,01,17,23,07,11,19,28,,1.42,0.77,1.20*07

$GPGSA,A,3,22,08,09,03,01,17,23,07,11,19,28,,1.42,0.77,1.20*07

$GPRMC,220934.000,A,0010.9014,S,07829.0796,W,7.62,244.66,300317,,,D*6C

$GPRMC,220935.000,A,0010.9023,S,07829.0816,W,7.71,245.76,300317,,,D*6C

$GPVTG,245.76,T,,M,7.71,N,14.28,K,D*04

$GPVTG,240.51,T,,M,7.55,N,13.99,K,D*0F

$GPGGA,220937.000,0010.9044,S,07829.0855,W,2,10,0.85,2799.8,M,13.7,M,0000,0000*5D

$GPGSV,3,3,12,22,20,129,31,08,16,021,39,19,11,233,21,28,08,313,17*7A

$GPRMC,220937.000,A,0010.9044,S,07829.0855,W,7.64,239.73,300317,,,D*62

$GPRMC,220938.000,A,0010.9055,S,07829.0873,W,7.36,235.07,300317,,,D*61

$GPVTG,235.07,T,,M,7.36,N,13.64,K,D*09

$GPVTG,231.61,T,,M,6.75,N,12.51,K,D*0C

$GPGGA,220940.000,0010.9077,S,07829.0904,W,2,11,0.77,2802.1,M,13.7,M,0000,0000*50

$GPGGA,220941.000,0010.9091,S,07829.0919,W,2,10,0.85,2803.0,M,13.7,M,0000,0000*59

$GPGSA,A,3,22,08,09,03,01,17,23,07,11,19,,,1.60,0.85,1.35*04

$GPGSA,A,3,22,08,09,03,01,17,23,07,11,19,,,1.60,0.85,1.35*04

$GPGSV,3,1,12,01,64,096,38,11,60,036,41,51,56,270,29,07,50,357,41*76

$GPVTG,219.77,T,,M,7.53,N,13.95,K,D*0D

$GPGGA,220943.000,0010.9124,S,07829.0947,W,2,11,0.77,2803.6,M,13.7,M,0000,0000*55

$GPGGA,220944.000,0010.9143,S,07829.0962,W,2,10,0.85,2804.2,M,13.7,M,0000,0000*5B

$GPGSA,A,3,22,08,09,03,01,17,23,07,11,19,,,1.60,0.85,1.35*04

$GPGSA,A,3,22,08,09,03,01,17,23,07,11,19,28,,1.42,0.77,1.20*07

$GPRMC,220945.000,A,0010.9164,S,07829.0975,W,8.72,214.37,300317,,,D*60

$GPRMC,220946.000,A,0010.9185,S,07829.0991,W,8.07,216.18,300317,,,D*6B

$GPVTG,216.18,T,,M,8.07,N,14.95,K,D*02

$GPGSV,3,2,12,09,50,237,24,23,39,182,27,17,29,250,25,03,23,156,21*7C

$GPGSV,3,3,12,22,20,129,27,08,16,021,37,19,12,233,19,28,08,313,19*75

$GPGSA,A,3,22,08,09,03,01,17,23,07,11,19,28,,1.42,0.77,1.20*07

$GPRMC,220948.000,A,0010.9227,S,07829.1021,W,8.49,207.92,300317,,,D*65

