
$GPGSA,A,3,21,20,25,26,14,,,,,,,,1.50,1.20,0.90*0B

$GPRMC,153801.303,A,0010.8886,S,07829.0025,W,10.20,310.80,200217,,,A*5C

$GPGSV,4,1,13,21,57,188,37,25,44,098,36,48,27,270,,14,19,311,31*79

$GPGSV,4,2,13,20,19,121,23,26,17,202,34,29,12,147,,10,,,24*4C

$GPVTG,317.19,T,,M,8.99,N,16.65,K,A*0C

$GPGGA,153804.000,0010.8877,S,07829.0056,W,1,05,1.20,2805.1,M,13.7,M,,*53

$GPGGA,153805.000,0010.8881,S,07829.0061,W,1,05,1.20,2805.7,M,13.7,M,,*59

$GPGSA,A,3,21,20,25,26,14,,,,,,,,1.50,1.20,0.90*0B

$GPGSA,A,3,21,20,25,26,14,,,,,,,,1.50,1.20,0.90*0B

$GPRMC,153806.000,A,0010.8871,S,07829.0071,W,6.80,321.02,200217,,,A*67

$GPRMC,153807.000,A,0010.8860,S,07829.0079,W,6.19,323.27,200217,,,A*6B

$GPVTG,323.27,T,,M,6.19,N,11.47,K,A*07

$GPGSV,4,2,13,20,19,121,20,26,17,202,33,29,12,147,,10,,,25*49

$GPGSV,4,3,13,04,,,30,12,,,34,32,,,23,31,,,37*79

$GPGGA,153809.000,0010.8902,S,07829.0058,W,1,05,1.21,2808.6,M,13.7,M,,*58

$GPGSA,A,3,21,20,25,26,14,,,,,,,,2.36,1.21,2.03*01

$GPGSA,A,3,21,20,25,26,14,,,,,,,,1.50,1.20,0.90*0B

$GPRMC,153810.000,A,0010.8906,S,07829.0054,W,0.09,293.15,200217,,,A*6F

$GPRMC,153811.000,A,0010.8912,S,07829.0051,W,0.43,158.24,200217,,,A*66

$GPVTG,158.24,T,,M,0.43,N,0.79,K,A*3E

$GPVTG,152.84,T,,M,1.47,N,2.73,K,A*33

$GPGGA,153813.000,0010.8929,S,07829.0038,W,1,05,1.20,2808.1,M,13.7,M,,*5A

$GPGSV,4,3,13,04,,,36,12,,,42,32,,,26,31,,,43*78

$GPGSV,4,4,13,18,,,33*72

$GPGSA,A,3,21,20,25,26,14,,,,,,,,1.50,1.20,0.90*0B

$GPRMC,153814.000,A,0010.8933,S,07829.0037,W,1.22,157.21,200217,,,A*6C

$GPRMC,153815.000,A,0010.8938,S,07829.0034,W,1.21,164.84,200217,,,A*69

$GPVTG,164.84,T,,M,1.21,N,2.25,K,A*35

$GPVTG,186.84,T,,M,1.00,N,1.86,K,A*30

$GPGGA,153817.000,0010.8947,S,07829.0031,W,1,05,1.20,2805.7,M,13.7,M,,*54

$GPGGA,153818.000,0010.8950,S,07829.0031,W,1,05,1.20,2805.7,M,13.7,M,,*5D

$GPGSA,A,3,21,20,25,26,14,,,,,,,,1.50,1.20,0.90*0B

$GPGSV,4,4,13,18,,,25*75

$GPRMC,153818.000,A,0010.8950,S,07829.0031,W,1.32,197.68,200217,,,A*63

$GPRMC,153819.000,A,0010.8955,S,07829.0032,W,1.71,201.30,200217,,,A*62

$GPVTG,201.30,T,,M,1.71,N,3.17,K,A*3F

$GPVTG,224.02,T,,M,2.15,N,3.99,K,A*3E

$GPGGA,153821.000,0010.8966,S,07829.0042,W,1,05,1.20,2806.7,M,13.7,M,,*55

$GPGGA,153822.000,0010.8969,S,07829.0046,W,1,05,1.20,2806.6,M,13.7,M,,*5C

$GPGSA,A,3,21,20,25,26,14,,,,,,,,1.50,1.20,0.90*0B

$GPGSA,A,3,21,20,25,26,14,,,,,,,,1.50,1.20,0.90*0B

$GPGSV,4,1,13,21,57,187,39,51,56,270,,25,44,097,34,14,19,311,32*78

$GPRMC,153823.000,A,0010.8973,S,07829.0048,W,1.93,227.25,200217,,,A*6E

$GPVTG,227.25,T,,M,1.93,N,3.58,K,A*38

$GPVTG,227.10,T,,M,2.13,N,3.94,K,A*35

$GPGGA,153825.000,0010.8981,S,07829.0055,W,1,05,1.20,2806.5,M,13.7,M,,*5C

$GPGGA,153826.000,0010.8984,S,07829.0061,W,1,05,1.20,2806.4,M,13.7,M,,*5C

$GPGSA,A,3,21,20,25,26,14,,,,,,,,1.50,1.20,0.90*0B

$GPGSA,A,3,21,20,25,26,14,,,,,,,,1.50,1.20,0.90*0B

$GPRMC,153827.000,A,0010.8987,S,07829.0065,W,2.18,236.47,200217,,,A*6A

$GPGSV,4,1,13,21,57,187,41,51,56,270,,25,44,097,37,14,19,311,34*72

$GPGSV,4,2,13,20,19,121,27,26,17,202,25,29,11,147,,10,,,31*4F

$GPVTG,244.55,T,,M,1.50,N,2.77,K,A*39

$GPGGA,153829.000,0010.8991,S,07829.0074,W,1,05,1.20,2806.7,M,13.7,M,,*50

$GPGGA,153830.000,0010.8993,S,07829.0079,W,1,05,1.20,2806.8,M,13.7,M,,*58

$GPGSA,A,3,21,20,25,26,14,,,,,,,,1.50,1.20,0.90*0B

$GPGSA,A,3,21,20,25,26,14,31,,,,,,,1.44,1.16,0.86*0E

$GPRMC,153831.000,A,0010.8994,S,07829.0085,W,2.06,263.14,200217,,,A*68

$GPRMC,153832.000,A,0010.8994,S,07829.0090,W,2.01,257.53,200217,,,A*6C

$GPVTG,257.53,T,,M,2.01,N,3.73,K,A*3F

$GPGSV,4,2,13,14,19,311,41,20,19,121,39,26,17,202,35,29,11,147,*79

$GPGSV,4,3,13,10,,,39,04,,,35,12,,,39,32,,,37*79

$GPGSA,A,3,21,20,25,26,14,31,,,,,,,1.44,1.16,0.86*0E

$GPRMC,153834.000,A,0010.8996,S,07829.0099,W,1.64,260.49,200217,,,A*6E

$GPRMC,153835.000,A,0010.8997,S,07829.0103,W,1.47,255.94,200217,,,A*6B

$GPVTG,255.94,T,,M,1.47,N,2.73,K,A*36

$GPVTG,269.03,T,,M,1.08,N,2.00,K,A*38

$GPGGA,153837.000,0010.8997,S,07829.0106,W,1,06,1.16,2807.8,M,13.7,M,,*55

$GPGGA,153838.000,0010.8997,S,07829.0108,W,1,06,1.16,2807.9,M,13.7,M,,*55

$GPGSA,A,3,21,20,25,26,14,31,,,,,,,1.44,1.16,0.86*0E

$GPRMC,153838.000,A,0010.8997,S,07829.0108,W,0.24,7.32,200217,,,A*60

$GPVTG,7.32,T,,M,0.24,N,0.44,K,A*3D

$GPVTG,9.52,T,,M,0.24,N,0.44,K,A*35

$GPGGA,153840.000,0010.8996,S,07829.0108,W,1,06,1.15,2808.0,M,13.7,M,,*5E

$GPGGA,153841.000,0010.8996,S,07829.0108,W,1,06,1.15,2808.0,M,13.7,M,,*5F

$GPGSA,A,3,21,20,25,26,14,31,,,,,,,1.44,1.15,0.86*0D

$GPGSA,A,3,21,20,25,26,14,31,,,,,,,1.44,1.15,0.86*0D

$GPRMC,153842.000,A,0010.8998,S,07829.0110,W,1.28,224.95,200217,,,A*68

$GPGSV,4,1,13,21,57,187,37,31,54,250,41,25,44,097,36,48,27,270,37*70

$GPGSV,4,2,13,14,19,311,38,20,19,121,30,26,17,202,32,29,11,147,*79

$GPVTG,228.69,T,,M,1.60,N,2.96,K,A*30

$GPGGA,153844.000,0010.9004,S,07829.0116,W,1,06,1.15,2808.1,M,13.7,M,,*57

$GPGGA,153845.000,0010.9004,S,07829.0116,W,1,06,1.15,2808.1,M,13.7,M,,*56

$GPGSA,A,3,21,20,25,26,14,31,,,,,,,1.44,1.15,0.86*0D

$GPGSA,A,3,21,20,25,26,14,31,,,,,,,1.44,1.15,0.86*0D

$GPRMC,153846.000,A,0010.9007,S,07829.0120,W,1.79,236.69,200217,,,A*65

$GPRMC,153847.000,A,0010.9009,S,07829.0125,W,1.92,230.13,200217,,,A*61

$GPVTG,230.13,T,,M,1.92,N,3.55,K,A*37

$GPGSV,4,2,13,14,19,311,34,20,19,121,29,26,17,202,38,29,11,147,*77

$GPGSV,4,3,13,10,,,34,04,,,37,12,,,33,32,,,39*72

$GPGGA,153849.000,0010.9018,S,07829.0134,W,1,06,1.14,2808.3,M,13.7,M,,*54

$GPGSA,A,3,21,25,26,14,31,18,,,,,,,1.45,1.14,0.90*01

$GPGSA,A,3,21,20,25,26,14,31,18,,,,,,1.32,1.01,0.85*03

$GPRMC,153850.000,A,0010.9023,S,07829.0138,W,2.09,219.65,200217,,,A*68

$GPRMC,153851.000,A,0010.9027,S,07829.0144,W,2.53,233.15,200217,,,A*66

$GPVTG,233.15,T,,M,2.53,N,4.69,K,A*34

$GPVTG,238.80,T,,M,2.19,N,4.07,K,A*35

$GPGGA,153853.000,0010.9035,S,07829.0155,W,1,07,1.01,2808.5,M,13.7,M,,*54

$GPGSV,4,3,13,29,11,147,,10,,,35,04,,,36,12,,,27*45

$GPGSV,4,4,13,32,,,36*7F

$GPGSA,A,3,21,20,25,26,14,31,18,,,,,,1.32,1.01,0.85*03

$GPRMC,153854.000,A,0010.9039,S,07829.0161,W,2.03,229.88,200217,,,A*61

$GPRMC,153855.000,A,0010.9044,S,07829.0166,W,1.99,232.59,200217,,,A*6B

$GPVTG,232.59,T,,M,1.99,N,3.69,K,A*3F

$GPVTG,227.77,T,,M,1.83,N,3.39,K,A*39

$GPGGA,153857.000,0010.9053,S,07829.0173,W,1,08,1.00,2808.4,M,13.7,M,,*5B

$GPGGA,153858.000,0010.9058,S,07829.0177,W,1,09,0.87,2808.4,M,13.7,M,,*54

$GPGSA,A,3,21,20,10,25,26,32,14,31,18,,,,1.21,0.87,0.84*0F

$GPRMC,153858.000,A,0010.9058,S,07829.0177,W,1.88,222.87,200217,,,A*69

$GPVTG,222.87,T,,M,1.88,N,3.48,K,A*3E

$GPVTG,224.78,T,,M,1.87,N,3.47,K,A*38

$GPGGA,153900.000,0010.9066,S,07829.0184,W,1,09,0.87,2808.3,M,13.7,M,,*5E

$GPGGA,153901.000,0010.9070,S,07829.0188,W,1,09,0.87,2808.3,M,13.7,M,,*54

$GPGSA,A,3,21,20,10,25,26,32,14,31,18,,,,1.21,0.87,0.84*0F

$GPGSA,A,3,21,20,10,25,29,26,32,14,31,18,,,1.16,0.84,0.81*06

$GPRMC,153902.000,A,0010.9073,S,07829.0190,W,1.86,221.20,200217,,,A*67

$GPGSV,3,1,12,21,57,187,38,18,54,041,32,31,54,250,39,25,44,097,30*74

$GPGSV,3,2,12,10,38,001,35,48,27,270,,32,22,336,38,14,19,311,37*7C

$GPGGA,153904.000,0010.9083,S,07829.0196,W,1,10,0.84,2807.9,M,13.7,M,,*5C

$GPGSA,A,3,21,20,10,25,29,26,32,14,31,18,,,1.16,0.84,0.81*06

$GPGSA,A,3,21,20,10,25,29,26,32,14,31,18,,,1.16,0.84,0.81*06

$GPRMC,153905.000,A,0010.9089,S,07829.0200,W,2.40,218.78,200217,,,A*61

$GPRMC,153906.000,A,0010.9095,S,07829.0204,W,2.00,226.37,200217,,,A*69

$GPVTG,226.37,T,,M,2.00,N,3.71,K,A*38

$GPVTG,226.75,T,,M,1.81,N,3.36,K,A*37

$GPGGA,153908.000,0010.9106,S,07829.0210,W,1,10,0.84,2806.6,M,13.7,M,,*5F

$GPGSV,3,3,12,20,19,121,28,26,17,202,35,29,11,147,40,12,,,25*45

$GPRMC,153908.000,A,0010.9106,S,07829.0210,W,1.69,225.63,200217,,,A*67

$GPRMC,153909.000,A,0010.9111,S,07829.0213,W,1.57,213.57,200217,,,A*6C

$GPVTG,213.57,T,,M,1.57,N,2.91,K,A*36

$GPVTG,236.24,T,,M,2.09,N,3.88,K,A*34

$GPGGA,153911.000,0010.9119,S,07829.0221,W,1,10,0.84,2806.3,M,13.7,M,,*5E

$GPGGA,153912.000,0010.9123,S,07829.0225,W,1,10,0.84,2806.4,M,13.7,M,,*57

$GPGSA,A,3,21,20,10,25,29,26,32,14,31,18,,,1.16,0.84,0.81*06

$GPGSA,A,3,21,10,25,29,26,32,14,31,18,,,,1.22,0.90,0.82*05

$GPGSV,3,1,12,21,57,187,35,18,54,041,27,31,54,251,42,25,44,097,31*71

$GPVTG,227.08,T,,M,1.34,N,2.49,K,A*3B

$GPGGA,153914.000,0010.9131,S,07829.0233,W,1,10,0.84,2806.4,M,13.7,M,,*55

$GPGGA,153915.000,0010.9134,S,07829.0235,W,1,10,0.84,2806.2,M,13.7,M,,*51

$GPGSA,A,3,21,20,10,25,29,26,32,14,31,18,,,1.16,0.84,0.81*06

$GPGSA,A,3,21,20,10,25,29,26,32,14,31,18,,,1.16,0.84,0.81*06

$GPRMC,153916.000,A,0010.9138,S,07829.0237,W,1.47,219.97,200217,,,A*68

$GPRMC,153917.000,A,0010.9141,S,07829.0240,W,1.47,232.27,200217,,,A*65

$GPVTG,232.27,T,,M,1.47,N,2.72,K,A*3E

$GPGSV,3,2,12,10,38,001,30,32,22,336,19,14,19,311,19,20,19,121,22*72

$GPGSV,3,3,12,33,18,090,,26,17,202,23,29,11,147,28,12,,,21*4A

$GPGSA,A,3,21,20,10,25,29,26,32,14,31,18,,,1.16,0.84,0.81*06

$GPRMC,153919.000,A,0010.9146,S,07829.0247,W,1.52,245.60,200217,,,A*6C

$GPRMC,153920.000,A,0010.9148,S,07829.0250,W,1.42,244.79,200217,,,A*66

$GPVTG,244.79,T,,M,1.42,N,2.63,K,A*31

$GPVTG,243.14,T,,M,1.36,N,2.52,K,A*3C

$GPGGA,153922.000,0010.9152,S,07829.0257,W,1,10,0.84,2805.9,M,13.7,M,,*59

$GPGGA,153923.000,0010.9153,S,07829.0260,W,1,10,0.84,2805.9,M,13.7,M,,*5D

$GPGSA,A,3,21,20,10,25,29,26,32,14,31,18,,,1.16,0.84,0.81*06

$GPRMC,153923.000,A,0010.9153,S,07829.0260,W,1.42,248.12,200217,,,A*6D

$GPVTG,248.12,T,,M,1.42,N,2.63,K,A*30

$GPVTG,244.00,T,,M,1.33,N,2.46,K,A*3E

$GPGGA,153925.000,0010.9158,S,07829.0266,W,1,10,0.84,2806.1,M,13.7,M,,*5D

$GPGGA,153926.000,0010.9161,S,07829.0268,W,1,10,0.84,2806.1,M,13.7,M,,*5A

$GPGSA,A,3,21,20,10,25,29,26,32,14,31,18,,,1.16,0.84,0.81*06

$GPGSA,A,3,21,20,10,25,29,26,32,14,31,18,,,1.16,0.84,0.81*06

$GPRMC,153927.000,A,0010.9166,S,07829.0269,W,1.57,220.73,200217,,,A*6B

$GPGSV,3,1,12,21,57,187,30,18,54,041,21,31,54,251,32,25,44,097,20*75

$GPGSV,3,2,12,10,38,001,27,32,22,336,24,14,19,311,20,20,19,121,18*79

$GPGGA,153929.000,0010.9174,S,07829.0277,W,1,10,0.84,2806.1,M,13.7,M,,*5F

$GPGSA,A,3,21,20,10,25,29,26,32,14,31,18,,,1.16,0.84,0.81*06

$GPGSA,A,3,21,20,10,25,29,26,32,14,31,18,,,1.16,0.84,0.81*06

$GPRMC,153930.000,A,0010.9177,S,07829.0281,W,1.80,226.55,200217,,,A*63

$GPRMC,153931.000,A,0010.9180,S,07829.0285,W,1.74,234.01,200217,,,A*67

$GPVTG,234.01,T,,M,1.74,N,3.22,K,A*38

$GPVTG,242.94,T,,M,1.79,N,3.32,K,A*39

$GPGGA,153933.000,0010.9184,S,07829.0295,W,1,10,0.84,2806.3,M,13.7,M,,*55

$GPGSV,3,3,12,26,17,202,23,29,11,147,36,35,,,,12,,,18*79

$GPRMC,153933.000,A,0010.9184,S,07829.0295,W,1.86,244.57,200217,,,A*69

$GPRMC,153934.000,A,0010.9188,S,07829.0299,W,1.83,239.01,200217,,,A*62

$GPVTG,239.01,T,,M,1.83,N,3.39,K,A*37

$GPVTG,231.96,T,,M,1.80,N,3.34,K,A*3F

$GPGGA,153936.000,0010.9195,S,07829.0305,W,1,10,0.84,2806.4,M,13.7,M,,*5F

$GPGGA,153937.000,0010.9197,S,07829.0307,W,1,10,0.84,2806.5,M,13.7,M,,*5F

$GPGSA,A,3,21,20,10,25,29,26,32,14,31,18,,,1.16,0.84,0.81*06

$GPGSA,A,3,21,20,10,25,29,26,32,14,31,18,,,1.16,0.84,0.81*06

$GPGSV,3,1,12,21,56,187,33,18,54,041,20,31,54,251,33,25,44,097,20*77

$GPVTG,233.86,T,,M,1.78,N,3.30,K,A*3F

$GPGGA,153939.000,0010.9203,S,07829.0315,W,1,10,0.84,2806.6,M,13.7,M,,*5F

$GPGGA,153940.000,0010.9206,S,07829.0319,W,1,10,0.84,2806.6,M,13.7,M,,*58

$GPGSA,A,3,21,20,10,25,29,26,32,14,31,18,,,1.16,0.84,0.81*06

$GPGSA,A,3,21,20,10,25,29,26,32,14,31,18,,,1.16,0.84,0.81*06

$GPRMC,153941.000,A,0010.9209,S,07829.0323,W,1.85,237.77,200217,,,A*63

$GPRMC,153942.000,A,0010.9211,S,07829.0325,W,1.66,235.91,200217,,,A*68

$GPVTG,235.91,T,,M,1.66,N,3.07,K,A*34

$GPGSV,3,2,12,10,38,001,28,32,22,336,28,14,19,311,20,20,19,121,27*76

$GPGSV,3,3,12,26,17,202,24,29,11,147,38,38,,,,12,,,17*72

$GPGSA,A,3,21,20,10,25,29,26,32,14,31,18,,,1.16,0.84,0.81*06

$GPRMC,153944.000,A,0010.9218,S,07829.0337,W,1.97,240.78,200217,,,A*6F

$GPRMC,153945.000,A,0010.9220,S,07829.0341,W,1.92,238.71,200217,,,A*67

$GPVTG,238.71,T,,M,1.92,N,3.56,K,A*38

$GPVTG,239.69,T,,M,2.07,N,3.84,K,A*30

$GPGGA,153947.000,0010.9226,S,07829.0353,W,1,10,0.84,2806.8,M,13.7,M,,*5D

$GPGGA,153948.000,0010.9229,S,07829.0358,W,1,10,0.84,2806.9,M,13.7,M,,*57

$GPGSA,A,3,21,20,10,25,29,26,32,14,31,18,,,1.16,0.84,0.81*06

$GPRMC,153948.000,A,0010.9229,S,07829.0358,W,1.98,234.69,200217,,,A*64

$GPVTG,234.69,T,,M,1.98,N,3.67,K,A*35

$GPVTG,238.73,T,,M,1.90,N,3.51,K,A*3F

$GPGGA,153950.000,0010.9235,S,07829.0367,W,1,10,0.84,2806.9,M,13.7,M,,*5F

$GPGGA,153951.000,0010.9240,S,07829.0374,W,1,10,0.84,2806.9,M,13.7,M,,*5E

$GPGSA,A,3,21,20,10,25,29,26,32,14,31,18,,,1.16,0.84,0.81*06

$GPGSA,A,3,21,20,10,25,29,26,32,14,31,18,,,1.16,0.84,0.81*06

$GPRMC,153952.000,A,0010.9243,S,07829.0379,W,2.01,239.68,200217,,,A*6F

$GPGSV,3,1,12,21,56,187,33,18,54,041,21,31,54,251,32,25,44,096,18*7D

$GPGSV,3,2,12,10,38,001,27,32,22,337,18,14,19,311,20,20,19,121,26*7A

$GPGGA,153954.000,0010.9249,S,07829.0387,W,1,10,0.84,2807.0,M,13.7,M,,*56

$GPGSA,A,3,21,20,10,25,29,26,32,14,31,18,,,1.16,0.84,0.81*06

$GPGSA,A,3,21,20,10,25,29,26,32,14,31,18,,,1.16,0.84,0.81*06

$GPRMC,153955.000,A,0010.9252,S,07829.0392,W,1.86,237.86,200217,,,A*6F

$GPRMC,153956.000,A,0010.9255,S,07829.0396,W,1.91,233.09,200217,,,A*6A

$GPVTG,233.09,T,,M,1.91,N,3.54,K,A*3D

$GPVTG,241.60,T,,M,1.98,N,3.67,K,A*3E

$GPGGA,153958.000,0010.9258,S,07829.0407,W,1,10,0.84,2807.0,M,13.7,M,,*55

$GPGSV,3,3,12,26,17,202,24,29,11,147,33,43,,,,12,,,18*7A

$GPRMC,153958.000,A,0010.9258,S,07829.0407,W,1.77,243.40,200217,,,A*64

$GPRMC,153959.000,A,0010.9261,S,07829.0412,W,1.70,245.69,200217,,,A*61

$GPVTG,245.69,T,,M,1.70,N,3.14,K,A*31

$GPVTG,247.42,T,,M,1.66,N,3.07,K,A*3F

$GPGGA,154001.000,0010.9268,S,07829.0427,W,1,10,0.84,2806.9,M,13.7,M,,*5E

$GPGGA,154002.000,0010.9272,S,07829.0432,W,1,10,0.84,2806.8,M,13.7,M,,*53

$GPGSA,A,3,21,20,10,25,29,26,32,14,31,18,,,1.16,0.84,0.81*06

$GPGSA,A,3,21,20,10,25,29,26,32,14,31,18,,,1.16,0.84,0.81*06

$GPGSV,3,1,12,21,56,187,26,18,54,041,29,31,54,251,33,25,44,096,33*79

$GPVTG,237.22,T,,M,1.74,N,3.22,K,A*3A

$GPGGA,154004.000,0010.9278,S,07829.0443,W,1,10,0.84,2806.9,M,13.7,M,,*58

$GPGGA,154005.000,0010.9281,S,07829.0447,W,1,10,0.84,2806.9,M,13.7,M,,*5B

$GPGSA,A,3,21,20,10,25,29,26,32,14,31,18,,,1.16,0.84,0.81*06

$GPGSA,A,3,21,20,10,25,29,26,32,14,31,18,,,1.16,0.84,0.81*06

$GPRMC,154006.000,A,0010.9285,S,07829.0451,W,1.79,234.00,200217,,,A*68

$GPRMC,154007.000,A,0010.9288,S,07829.0453,W,1.61,226.69,200217,,,A*63

$GPVTG,226.69,T,,M,1.61,N,2.99,K,A*30

$GPGSV,3,2,12,10,39,001,21,32,22,337,26,14,19,312,20,20,19,121,22*77

$GPGSV,3,3,12,26,17,202,23,29,11,147,26,46,,,,12,,,24*73

$GPGSA,A,3,21,20,10,25,29,26,32,14,31,18,,,1.16,0.84,0.81*06

$GPRMC,154009.000,A,0010.9293,S,07829.0460,W,1.55,227.65,200217,,,A*6D

$GPRMC,154010.000,A,0010.9297,S,07829.0464,W,1.74,224.13,200217,,,A*64

$GPVTG,224.13,T,,M,1.74,N,3.22,K,A*3A

$GPVTG,224.19,T,,M,1.74,N,3.22,K,A*30

$GPGGA,154012.000,0010.9303,S,07829.0470,W,1,10,0.84,2807.0,M,13.7,M,,*5A

$GPGGA,154013.000,0010.9307,S,07829.0474,W,1,10,0.84,2807.0,M,13.7,M,,*5B

$GPGSA,A,3,21,20,10,25,29,26,32,14,31,18,,,1.16,0.84,0.81*06

$GPRMC,154013.000,A,0010.9307,S,07829.0474,W,1.72,227.52,200217,,,A*6E

$GPVTG,227.52,T,,M,1.72,N,3.19,K,A*32

$GPVTG,219.80,T,,M,1.74,N,3.23,K,A*3F

$GPGGA,154015.000,0010.9318,S,07829.0476,W,1,10,0.84,2806.9,M,13.7,M,,*59

$GPGGA,154016.000,0010.9321,S,07829.0479,W,1,10,0.84,2806.9,M,13.7,M,,*5F

$GPGSA,A,3,21,20,10,25,29,26,32,14,31,18,,,1.16,0.84,0.81*06

$GPVTG,212.66,T,,M,1.51,N,2.81,K,A*32

$GPGGA,154018.000,0010.9330,S,07829.0484,W,1,10,0.84,2806.9,M,13.7,M,,*53

$GPGSV,3,3,12,26,17,202,23,29,11,147,34,46,,,31,12,,,26*70

$GPRMC,154018.000,A,0010.9330,S,07829.0484,W,1.50,209.84,200217,,,A*69

$GPRMC,154019.000,A,0010.9334,S,07829.0487,W,1.48,212.08,200217,,,A*68

$GPVTG,212.08,T,,M,1.48,N,2.75,K,A*39

$GPVTG,217.08,T,,M,1.80,N,3.33,K,A*3B

$GPGGA,154021.000,0010.9344,S,07829.0495,W,1,10,0.84,2806.9,M,13.7,M,,*5A

$GPGGA,154022.000,0010.9350,S,07829.0497,W,1,10,0.84,2806.9,M,13.7,M,,*5E

$GPGSA,A,3,21,20,10,25,29,26,32,14,31,18,,,1.16,0.84,0.81*06

$GPGSA,A,3,21,20,10,25,29,26,32,14,31,18,,,1.16,0.84,0.81*06

$GPGSV,3,1,12,21,56,187,31,18,54,041,33,31,54,252,34,25,44,096,35*76

$GPVTG,201.25,T,,M,1.67,N,3.10,K,A*3B

$GPGGA,154024.000,0010.9359,S,07829.0502,W,1,10,0.84,2807.0,M,13.7,M,,*54

$GPGGA,154025.000,0010.9364,S,07829.0504,W,1,10,0.84,2807.0,M,13.7,M,,*5D

$GPGSA,A,3,21,20,10,25,29,26,32,14,31,18,,,1.16,0.84,0.81*06

$GPGSA,A,3,21,20,10,25,29,26,32,14,31,18,,,1.16,0.84,0.81*06

$GPRMC,154026.000,A,0010.9369,S,07829.0507,W,1.81,199.93,200217,,,A*62

$GPRMC,154027.000,A,0010.9373,S,07829.0509,W,1.60,201.04,200217,,,A*65

$GPVTG,201.04,T,,M,1.60,N,2.96,K,A*30

$GPGSV,3,2,12,10,39,001,27,32,22,337,21,14,19,312,21,20,18,121,30*75

$GPGSV,3,3,12,26,17,202,25,29,11,146,37,46,,,31,12,,,30*73

$GPGSA,A,3,21,20,10,25,29,26,32,14,31,18,,,1.16,0.84,0.81*06

$GPRMC,154029.000,A,0010.9379,S,07829.0514,W,1.47,202.27,200217,,,A*6A

$GPRMC,154030.000,A,0010.9383,S,07829.0517,W,1.51,206.95,200217,,,A*6E

$GPVTG,206.95,T,,M,1.51,N,2.79,K,A*3C

$GPVTG,201.02,T,,M,1.71,N,3.17,K,A*3E

$GPGGA,154032.000,0010.9390,S,07829.0521,W,1,11,0.75,2806.9,M,13.7,M,,*50

$GPGGA,154033.000,0010.9393,S,07829.0522,W,1,11,0.75,2806.8,M,13.7,M,,*50

$GPGSA,A,3,21,20,10,25,29,26,12,32,14,31,18,,1.09,0.75,0.79*02

$GPRMC,154033.000,A,0010.9393,S,07829.0522,W,1.48,204.08,200217,,,A*64

$GPVTG,204.08,T,,M,1.48,N,2.75,K,A*3E

$GPVTG,199.92,T,,M,1.43,N,2.65,K,A*30

$GPGGA,154035.000,0010.9400,S,07829.0525,W,1,11,0.75,2806.7,M,13.7,M,,*53

$GPGGA,154036.000,0010.9404,S,07829.0526,W,1,11,0.75,2806.7,M,13.7,M,,*57

$GPGSA,A,3,21,20,10,25,29,26,12,32,14,31,18,,1.09,0.75,0.79*02

$GPGSA,A,3,21,20,10,25,29,26,12,32,14,31,18,,1.09,0.75,0.79*02

$GPRMC,154037.000,A,0010.9408,S,07829.0527,W,1.69,198.20,200217,,,A*6F

$GPGSV,3,1,12,21,56,187,34,18,54,041,24,31,54,252,39,25,44,096,32*7F

$GPGSV,3,2,12,10,39,002,28,32,22,337,23,14,19,312,23,20,18,121,25*7D

$GPGGA,154039.000,0010.9414,S,07829.0529,W,1,11,0.75,2806.7,M,13.7,M,,*56

$GPGSA,A,3,21,20,10,25,29,26,12,32,14,31,18,,1.09,0.75,0.79*02

$GPGSA,A,3,21,20,10,25,29,26,12,32,14,31,18,,1.09,0.75,0.79*02

$GPRMC,154040.000,A,0010.9417,S,07829.0531,W,1.54,205.00,200217,,,A*6D

$GPRMC,154041.000,A,0010.9422,S,07829.0533,W,1.72,200.96,200217,,,A*66

$GPVTG,200.96,T,,M,1.72,N,3.20,K,A*35

$GPVTG,203.29,T,,M,1.67,N,3.10,K,A*35

$GPGGA,154043.000,0010.9428,S,07829.0538,W,1,11,0.75,2806.5,M,13.7,M,,*56

$GPRMC,154043.000,A,0010.9428,S,07829.0538,W,1.68,212.36,200217,,,A*67

$GPVTG,212.36,T,,M,1.68,N,3.11,K,A*35

$GPVTG,216.27,T,,M,1.70,N,3.15,K,A*3C

$GPGGA,154045.000,0010.9435,S,07829.0542,W,1,11,0.75,2806.6,M,13.7,M,,*52

$GPGGA,154046.000,0010.9439,S,07829.0544,W,1,11,0.75,2806.6,M,13.7,M,,*5B

$GPGSA,A,3,21,20,10,25,29,26,12,32,14,31,18,,1.09,0.75,0.79*02

$GPGSA,A,3,21,20,10,25,29,26,12,32,14,31,18,,1.09,0.75,0.79*02

$GPRMC,154047.000,A,0010.9443,S,07829.0547,W,1.79,211.95,200217,,,A*6C

$GPGSV,3,1,12,21,56,186,35,18,54,042,28,31,54,252,38,25,44,096,36*75

$GPGSV,3,2,12,10,39,002,28,32,22,337,27,14,19,312,21,20,18,122,24*79

$GPGGA,154049.000,0010.9452,S,07829.0550,W,1,11,0.75,2806.6,M,13.7,M,,*5C

$GPGSA,A,3,21,20,10,25,29,26,12,32,14,31,18,,1.09,0.75,0.79*02

$GPGSA,A,3,21,20,10,25,29,26,12,32,14,31,18,,1.09,0.75,0.79*02

$GPRMC,154050.000,A,0010.9455,S,07829.0552,W,1.65,205.35,200217,,,A*6B

$GPRMC,154051.000,A,0010.9459,S,07829.0553,W,1.59,203.72,200217,,,A*6D

$GPVTG,203.72,T,,M,1.59,N,2.94,K,A*3B

$GPVTG,205.43,T,,M,1.68,N,3.11,K,A*31

$GPGGA,154053.000,0010.9469,S,07829.0558,W,1,11,0.75,2806.6,M,13.7,M,,*57

$GPGSV,3,3,12,26,18,202,27,12,15,062,30,29,11,146,34,46,,,31*4D

$GPRMC,154053.000,A,0010.9469,S,07829.0558,W,1.73,207.17,200217,,,A*68

$GPRMC,154054.000,A,0010.9474,S,07829.0559,W,1.83,204.68,200217,,,A*66

$GPVTG,204.68,T,,M,1.83,N,3.38,K,A*37

$GPVTG,203.00,T,,M,1.81,N,3.36,K,A*32

$GPGGA,154056.000,0010.9482,S,07829.0565,W,1,11,0.75,2806.5,M,13.7,M,,*5A

$GPGGA,154057.000,0010.9486,S,07829.0567,W,1,11,0.75,2806.5,M,13.7,M,,*5D

$GPGSA,A,3,21,20,10,25,29,26,12,32,14,31,18,,1.09,0.75,0.79*02

$GPGSA,A,3,21,20,10,25,29,26,12,32,14,31,18,,1.09,0.75,0.79*02

$GPGSV,3,1,12,21,56,186,27,18,54,042,28,31,54,252,28,25,44,095,33*71

$GPVTG,212.06,T,,M,1.73,N,3.20,K,A*3E

$GPGGA,154059.000,0010.9495,S,07829.0572,W,1,11,0.75,2806.4,M,13.7,M,,*54

$GPGGA,154100.000,0010.9500,S,07829.0575,W,1,11,0.75,2806.4,M,13.7,M,,*53

$GPGSA,A,3,21,20,10,25,29,26,12,32,14,31,18,,1.09,0.75,0.79*02

$GPGSA,A,3,21,20,10,25,29,26,12,32,14,31,18,,1.09,0.75,0.79*02

$GPRMC,154101.000,A,0010.9505,S,07829.0579,W,2.10,211.90,200217,,,A*68

$GPRMC,154102.000,A,0010.9510,S,07829.0582,W,2.10,212.68,200217,,,A*6F

$GPVTG,212.68,T,,M,2.10,N,3.90,K,A*3B

$GPGSV,3,2,12,10,39,002,28,32,22,337,21,14,19,312,25,20,18,122,26*79

$GPGSV,3,3,12,26,18,202,26,12,15,062,30,29,11,146,36,46,,,29*47

$GPGSA,A,3,21,20,10,25,29,26,12,32,14,31,18,,1.09,0.75,0.79*02

$GPRMC,154104.000,A,0010.9518,S,07829.0584,W,1.84,201.17,200217,,,A*63

$GPRMC,154105.000,A,0010.9522,S,07829.0586,W,1.77,207.42,200217,,,A*63

$GPVTG,207.42,T,,M,1.77,N,3.28,K,A*36

$GPVTG,212.76,T,,M,1.74,N,3.23,K,A*3D

$GPGGA,154107.000,0010.9529,S,07829.0591,W,1,11,0.75,2806.3,M,13.7,M,,*52

$GPGGA,154108.000,0010.9533,S,07829.0592,W,1,11,0.75,2806.4,M,13.7,M,,*52

$GPGSA,A,3,21,20,10,25,29,26,12,32,14,31,18,,1.09,0.75,0.79*02

$GPRMC,154108.000,A,0010.9533,S,07829.0592,W,1.63,213.54,200217,,,A*6C

$GPVTG,213.54,T,,M,1.63,N,3.03,K,A*38

$GPVTG,210.76,T,,M,1.67,N,3.10,K,A*3D

$GPGGA,154110.000,0010.9542,S,07829.0596,W,1,11,0.75,2806.5,M,13.7,M,,*58

$GPGSA,A,3,21,20,10,25,29,26,12,32,14,31,18,,1.09,0.75,0.79*02

$GPRMC,154111.000,A,0010.9547,S,07829.0599,W,1.94,210.98,200217,,,A*67

$GPRMC,154112.000,A,0010.9551,S,07829.0600,W,1.78,207.53,200217,,,A*63

$GPVTG,207.53,T,,M,1.78,N,3.29,K,A*38

$GPGSV,3,2,12,10,39,002,31,32,22,337,32,14,19,312,24,20,18,122,20*74

$GPGSV,3,3,12,26,18,202,19,12,15,062,31,29,11,146,25,46,,,29*48

$GPGSA,A,3,21,20,10,25,29,26,12,32,14,31,18,,1.09,0.75,0.79*02

$GPRMC,154114.000,A,0010.9559,S,07829.0605,W,1.72,214.93,200217,,,A*6C

$GPRMC,154115.000,A,0010.9563,S,07829.0609,W,1.83,216.20,200217,,,A*6C

$GPVTG,216.20,T,,M,1.83,N,3.39,K,A*39

$GPVTG,214.92,T,,M,1.73,N,3.21,K,A*34

$GPGGA,154117.000,0010.9571,S,07829.0615,W,1,11,0.75,2806.8,M,13.7,M,,*5A

$GPGSA,A,3,21,20,10,25,29,26,12,32,14,31,18,,1.09,0.75,0.79*02

$GPGSV,3,1,12,21,56,186,31,18,54,042,28,31,54,252,36,25,44,095,34*7E

$GPVTG,221.50,T,,M,1.67,N,3.09,K,A*33

$GPGGA,154119.000,0010.9577,S,07829.0622,W,1,11,0.75,2806.8,M,13.7,M,,*56

$GPGGA,154120.000,0010.9580,S,07829.0625,W,1,11,0.75,2806.8,M,13.7,M,,*53

$GPGSA,A,3,21,20,10,25,29,26,12,32,14,31,18,,1.09,0.75,0.79*02

$GPGSA,A,3,21,20,10,25,29,26,12,32,14,31,18,,1.09,0.75,0.79*02

$GPRMC,154121.000,A,0010.9585,S,07829.0627,W,1.54,208.36,200217,,,A*6D

$GPRMC,154122.000,A,0010.9589,S,07829.0630,W,1.62,212.47,200217,,,A*6C

$GPVTG,212.47,T,,M,1.62,N,3.01,K,A*38

$GPGSV,3,2,12,10,39,002,26,32,22,337,24,14,19,312,23,20,18,122,26*74

$GPGSV,3,3,12,26,18,202,26,12,15,061,32,29,11,146,35,46,,,31*4C

$GPGSA,A,3,21,20,10,25,29,26,12,32,14,31,18,,1.09,0.75,0.79*02

$GPRMC,154124.000,A,0010.9598,S,07829.0636,W,1.87,208.72,200217,,,A*6A

$GPRMC,154125.000,A,0010.9603,S,07829.0638,W,1.87,203.28,200217,,,A*60

$GPVTG,203.28,T,,M,1.87,N,3.47,K,A*38

$GPVTG,205.60,T,,M,1.77,N,3.28,K,A*34

$GPGGA,154127.000,0010.9613,S,07829.0643,W,1,11,0.75,2806.6,M,13.7,M,,*53

$GPGGA,154128.000,0010.9618,S,07829.0646,W,1,11,0.76,2806.6,M,13.7,M,,*51

$GPGSA,A,3,21,20,10,25,29,26,12,32,14,31,18,,1.09,0.76,0.79*01

$GPRMC,154128.000,A,0010.9618,S,07829.0646,W,2.10,209.70,200217,,,A*64

$GPVTG,209.70,T,,M,2.10,N,3.90,K,A*38

$GPVTG,206.43,T,,M,2.06,N,3.83,K,A*32

$GPGGA,154130.000,0010.9629,S,07829.0652,W,1,11,0.76,2806.5,M,13.7,M,,*5C

$GPGGA,154131.000,0010.9634,S,07829.0655,W,1,11,0.76,2806.4,M,13.7,M,,*57

$GPGSA,A,3,21,20,10,25,29,26,12,32,14,31,18,,1.09,0.76,0.79*01

$GPGSA,A,3,21,20,10,25,29,26,12,32,14,31,18,,1.09,0.76,0.79*01

$GPRMC,154132.000,A,0010.9639,S,07829.0657,W,2.02,203.35,200217,,,A*64

$GPGSV,3,1,12,21,56,186,34,31,55,253,39,18,54,042,33,25,44,095,36*7C

$GPGSV,3,2,12,10,39,002,30,32,22,337,24,14,19,312,18,20,18,122,29*74

$GPGGA,154134.000,0010.9651,S,07829.0658,W,1,11,0.76,2806.3,M,13.7,M,,*5B

$GPGSA,A,3,21,20,10,25,29,26,12,32,14,31,18,,1.09,0.76,0.79*01

$GPGSA,A,3,21,20,10,25,29,26,12,32,14,31,18,,1.09,0.76,0.79*01

$GPRMC,154135.000,A,0010.9656,S,07829.0660,W,2.04,191.60,200217,,,A*60

$GPRMC,154136.000,A,0010.9662,S,07829.0661,W,2.03,191.81,200217,,,A*6D

$GPVTG,191.81,T,,M,2.03,N,3.76,K,A*3E

$GPVTG,189.36,T,,M,1.88,N,3.49,K,A*37

$GPGGA,154138.000,0010.9671,S,07829.0662,W,1,11,0.76,2806.2,M,13.7,M,,*5D

$GPGSV,3,3,12,26,18,202,25,12,15,061,33,29,11,146,32,46,,,31*49

$GPRMC,154138.000,A,0010.9671,S,07829.0662,W,1.75,186.21,200217,,,A*6C

$GPRMC,154139.000,A,0010.9675,S,07829.0663,W,1.76,193.31,200217,,,A*6E

$GPVTG,193.31,T,,M,1.76,N,3.27,K,A*32

$GPVTG,192.64,T,,M,1.74,N,3.23,K,A*35

$GPGGA,154141.000,0010.9685,S,07829.0665,W,1,11,0.76,2806.0,M,13.7,M,,*5D

$GPGGA,154142.000,0010.9690,S,07829.0666,W,1,11,0.76,2806.0,M,13.7,M,,*59

$GPGSA,A,3,21,20,10,25,29,26,12,32,14,31,18,,1.09,0.76,0.79*01

$GPGSA,A,3,21,20,10,25,29,26,12,32,14,31,18,,1.09,0.76,0.79*01

$GPGSV,3,1,12,21,56,186,37,31,55,253,38,18,54,042,34,25,44,095,37*78

$GPGGA,154144.000,0010.9702,S,07829.0665,W,1,11,0.76,2806.0,M,13.7,M,,*56

$GPGSA,A,3,21,20,10,25,29,26,12,32,14,31,18,,1.09,0.76,0.79*01

$GPGSA,A,3,21,20,10,25,29,26,12,32,14,31,18,,1.09,0.76,0.79*01

$GPRMC,154145.000,A,0010.9708,S,07829.0666,W,2.16,193.60,200217,,,A*6A

$GPRMC,154146.000,A,0010.9714,S,07829.0667,W,2.24,190.96,200217,,,A*6E

$GPVTG,190.96,T,,M,2.24,N,4.15,K,A*3E

$GPVTG,212.25,T,,M,1.54,N,2.86,K,A*37

$GPGGA,154148.000,0010.9722,S,07829.0671,W,1,11,0.76,2806.1,M,13.7,M,,*5C

$GPGSV,3,3,12,26,18,202,26,12,15,061,30,29,11,146,32,46,,,33*4B

$GPRMC,154148.000,A,0010.9722,S,07829.0671,W,2.25,194.82,200217,,,A*62

$GPRMC,154149.000,A,0010.9728,S,07829.0673,W,1.91,197.83,200217,,,A*65

$GPVTG,197.83,T,,M,1.91,N,3.53,K,A*35

$GPVTG,204.86,T,,M,1.83,N,3.39,K,A*36

$GPGGA,154151.000,0010.9737,S,07829.0677,W,1,11,0.76,2806.1,M,13.7,M,,*56

$GPGGA,154152.000,0010.9742,S,07829.0679,W,1,11,0.76,2806.1,M,13.7,M,,*59

$GPGSA,A,3,21,20,10,25,29,26,12,32,14,31,18,,1.09,0.76,0.79*01

$GPGSA,A,3,21,20,10,25,29,26,12,32,14,31,18,,1.09,0.76,0.79*01

$GPGSV,3,1,12,21,56,186,34,31,55,253,40,18,54,042,33,25,44,095,36*72

$GPVTG,201.91,T,,M,1.95,N,3.61,K,A*3F

$GPGGA,154154.000,0010.9751,S,07829.0682,W,1,11,0.76,2806.2,M,13.7,M,,*5A

$GPGGA,154155.000,0010.9755,S,07829.0683,W,1,11,0.76,2806.2,M,13.7,M,,*5E

$GPGSA,A,3,21,20,10,25,29,26,12,32,14,31,18,,1.09,0.76,0.79*01

$GPGSA,A,3,21,20,10,25,29,26,12,32,14,31,18,,1.09,0.76,0.79*01

$GPRMC,154156.000,A,0010.9760,S,07829.0686,W,1.86,205.45,200217,,,A*69

$GPRMC,154157.000,A,0010.9764,S,07829.0687,W,1.66,200.45,200217,,,A*66

$GPVTG,200.45,T,,M,1.66,N,3.08,K,A*34

$GPGSV,3,2,12,10,39,002,31,32,22,337,26,14,19,312,27,20,18,122,28*7A

$GPGSV,3,3,12,26,18,202,27,12,15,061,30,29,11,146,33,46,,,30*48

$GPGSA,A,3,21,20,10,25,29,26,12,32,14,31,18,,1.09,0.76,0.79*01

$GPRMC,154159.000,A,0010.9772,S,07829.0691,W,1.59,202.90,200217,,,A*6E

$GPRMC,154200.000,A,0010.9776,S,07829.0693,W,1.72,203.65,200217,,,A*65

$GPVTG,203.65,T,,M,1.72,N,3.18,K,A*31

$GPVTG,204.07,T,,M,1.65,N,3.05,K,A*38

$GPGGA,154202.000,0010.9786,S,07829.0697,W,1,11,0.76,2805.7,M,13.7,M,,*52

$GPGGA,154203.000,0010.9791,S,07829.0699,W,1,11,0.76,2805.6,M,13.7,M,,*5A

$GPGSA,A,3,21,20,10,25,29,26,12,32,14,31,18,,1.09,0.76,0.79*01

$GPRMC,154203.000,A,0010.9791,S,07829.0699,W,1.85,197.37,200217,,,A*64

$GPVTG,197.37,T,,M,1.85,N,3.43,K,A*3E

$GPVTG,201.27,T,,M,1.66,N,3.07,K,A*3E

$GPGGA,154205.000,0010.9800,S,07829.0702,W,1,11,0.76,2805.5,M,13.7,M,,*5B

$GPGGA,154206.000,0010.9804,S,07829.0703,W,1,11,0.76,2805.4,M,13.7,M,,*5C

$GPGSA,A,3,21,20,10,25,29,26,12,32,14,31,18,,1.09,0.76,0.79*01

$GPGSA,A,3,21,20,10,25,29,26,12,32,14,31,18,,1.09,0.76,0.79*01

$GPRMC,154207.000,A,0010.9808,S,07829.0705,W,1.59,198.71,200217,,,A*67

$GPGSV,3,1,12,46,66,261,32,21,55,186,37,18,55,043,34,31,55,253,40*7D

$GPGSV,3,2,12,25,44,095,36,10,39,002,29,32,22,337,22,14,19,312,23*7D

$GPGGA,154209.000,0010.9819,S,07829.0707,W,1,11,0.76,2805.2,M,13.7,M,,*5D

$GPGSA,A,3,21,20,10,25,29,26,12,32,14,31,18,,1.09,0.76,0.79*01

$GPGSA,A,3,21,20,10,25,29,26,12,32,14,31,18,,1.09,0.76,0.79*01

$GPRMC,154210.000,A,0010.9824,S,07829.0708,W,1.80,193.68,200217,,,A*65

$GPRMC,154211.000,A,0010.9828,S,07829.0709,W,1.65,189.32,200217,,,A*66

$GPVTG,189.32,T,,M,1.65,N,3.07,K,A*3A

$GPVTG,197.39,T,,M,1.68,N,3.11,K,A*34

$GPGGA,154213.000,0010.9837,S,07829.0713,W,1,11,0.76,2805.1,M,13.7,M,,*5C

$GPGSV,3,3,12,20,18,122,27,26,18,201,27,12,15,061,31,29,11,146,30*77

$GPRMC,154213.000,A,0010.9837,S,07829.0713,W,1.78,200.43,200217,,,A*69

$GPRMC,154214.000,A,0010.9842,S,07829.0715,W,1.78,201.80,200217,,,A*64

$GPVTG,201.80,T,,M,1.78,N,3.31,K,A*39

$GPVTG,195.49,T,,M,1.73,N,3.21,K,A*38

$GPGGA,154216.000,0010.9851,S,07829.0717,W,1,11,0.76,2805.1,M,13.7,M,,*5D

$GPGGA,154217.000,0010.9855,S,07829.0718,W,1,11,0.76,2805.1,M,13.7,M,,*57

$GPGSA,A,3,21,20,10,25,29,26,12,32,14,31,18,,1.09,0.76,0.79*01

$GPGSA,A,3,21,20,10,25,29,26,12,32,14,31,18,,1.09,0.76,0.79*01

$GPGSV,3,1,12,46,66,261,31,21,55,186,37,18,55,043,33,31,55,253,36*78

$GPVTG,192.56,T,,M,1.61,N,2.98,K,A*31

$GPGGA,154219.000,0010.9863,S,07829.0718,W,1,11,0.76,2805.1,M,13.7,M,,*5C

$GPGGA,154220.000,0010.9868,S,07829.0719,W,1,11,0.76,2805.1,M,13.7,M,,*5C

$GPGSA,A,3,21,20,10,25,29,26,12,32,14,31,18,,1.09,0.76,0.79*01

$GPGSA,A,3,21,20,10,25,29,26,12,32,14,31,18,,1.09,0.76,0.79*01

$GPRMC,154221.000,A,0010.9873,S,07829.0718,W,1.58,178.83,200217,,,A*61

$GPRMC,154222.000,A,0010.9878,S,07829.0717,W,1.69,176.64,200217,,,A*63

$GPVTG,176.64,T,,M,1.69,N,3.12,K,A*31

$GPGSV,3,2,12,25,44,095,34,10,40,002,27,32,22,338,20,14,19,312,25*74

$GPGSV,3,3,12,20,18,122,30,26,18,201,29,12,15,061,30,29,11,146,30*7E

$GPGSA,A,3,21,20,10,25,29,26,12,32,14,31,18,,1.09,0.76,0.79*01

$GPRMC,154224.000,A,0010.9888,S,07829.0718,W,1.83,180.43,200217,,,A*6D

$GPRMC,154225.000,A,0010.9893,S,07829.0718,W,1.71,178.97,200217,,,A*65

$GPVTG,178.97,T,,M,1.71,N,3.17,K,A*3F

$GPVTG,183.95,T,,M,1.55,N,2.87,K,A*37

$GPGGA,154227.000,0010.9901,S,07829.0719,W,1,11,0.76,2805.2,M,13.7,M,,*56

$GPGGA,154228.000,0010.9904,S,07829.0720,W,1,11,0.76,2805.3,M,13.7,M,,*57

$GPGSA,A,3,21,20,10,25,29,26,12,32,14,31,18,,1.09,0.76,0.79*01

$GPRMC,154228.000,A,0010.9904,S,07829.0720,W,1.55,187.83,200217,,,A*6F

$GPVTG,187.83,T,,M,1.55,N,2.88,K,A*3B

$GPVTG,192.83,T,,M,1.67,N,3.09,K,A*36

$GPGGA,154230.000,0010.9913,S,07829.0722,W,1,11,0.76,2805.4,M,13.7,M,,*5D

$GPGGA,154231.000,0010.9917,S,07829.0723,W,1,11,0.76,2805.4,M,13.7,M,,*59

$GPGSA,A,3,21,20,10,25,29,26,12,32,14,31,18,,1.09,0.76,0.79*01

$GPGSA,A,3,21,20,10,25,29,26,12,32,14,31,18,,1.09,0.76,0.79*01

$GPRMC,154232.000,A,0010.9921,S,07829.0725,W,1.56,201.27,200217,,,A*66

$GPGSV,3,1,12,46,66,261,31,21,55,186,36,18,55,043,31,31,55,253,39*74

$GPGSV,3,2,12,25,44,095,37,10,40,002,26,32,22,338,26,14,19,313,19*7E

$GPGGA,154234.000,0010.9928,S,07829.0727,W,1,11,0.76,2805.5,M,13.7,M,,*55

$GPGSA,A,3,21,20,10,25,29,26,12,32,14,31,18,,1.09,0.76,0.79*01

$GPGSA,A,3,21,20,10,25,29,26,12,32,14,31,18,,1.09,0.76,0.79*01

$GPRMC,154235.000,A,0010.9932,S,07829.0728,W,1.43,202.10,200217,,,A*6D

$GPRMC,154236.000,A,0010.9935,S,07829.0730,W,1.29,204.33,200217,,,A*6B

$GPVTG,204.33,T,,M,1.29,N,2.40,K,A*37

$GPVTG,212.02,T,,M,1.16,N,2.15,K,A*3E

$GPGGA,154238.000,0010.9937,S,07829.0732,W,1,11,0.76,2805.4,M,13.7,M,,*52

$GPGSV,3,3,12,20,18,122,29,26,18,201,29,12,15,061,28,29,11,146,27*79

$GPRMC,154238.000,A,0010.9937,S,07829.0732,W,0.40,212.53,200217,,,A*6A

$GPRMC,154239.000,A,0010.9938,S,07829.0732,W,0.36,263.16,200217,,,A*62

$GPVTG,263.16,T,,M,0.36,N,0.67,K,A*39

$GPVTG,252.78,T,,M,0.33,N,0.61,K,A*30

$GPGGA,154241.000,0010.9941,S,07829.0732,W,1,11,0.76,2805.5,M,13.7,M,,*5C

$GPGGA,154242.000,0010.9942,S,07829.0733,W,1,11,0.76,2805.5,M,13.7,M,,*5D

$GPGSA,A,3,21,20,10,25,29,26,12,32,14,31,18,,1.09,0.76,0.79*01

$GPGSA,A,3,21,20,10,25,29,26,12,32,14,31,18,,1.09,0.76,0.79*01

$GPGSV,3,1,12,46,66,261,37,21,55,186,39,18,55,043,40,31,55,253,41*74

$GPVTG,265.41,T,,M,0.06,N,0.11,K,A*3F

$GPGGA,154244.000,0010.9942,S,07829.0734,W,1,11,0.76,2805.6,M,13.7,M,,*5F

$GPGGA,154245.000,0010.9943,S,07829.0734,W,1,11,0.76,2805.6,M,13.7,M,,*5F

$GPGSA,A,3,21,20,10,25,29,26,12,32,14,31,18,,1.09,0.76,0.79*01

$GPGSA,A,3,21,20,10,25,29,26,12,32,14,31,18,,1.09,0.76,0.79*01

$GPRMC,154246.000,A,0010.9943,S,07829.0734,W,0.11,265.13,200217,,,A*66

$GPRMC,154247.000,A,0010.9943,S,07829.0735,W,0.32,21.63,200217,,,A*52

$GPVTG,21.63,T,,M,0.32,N,0.59,K,A*06

$GPGSV,3,2,12,25,44,094,42,10,40,002,40,32,22,338,42,14,19,313,33*77

$GPGSV,3,3,12,20,18,122,37,26,18,201,38,12,15,061,41,29,11,145,34*78

$GPGSA,A,3,21,20,10,25,29,26,12,32,14,31,18,,1.09,0.76,0.79*01

$GPRMC,154249.000,A,0010.9942,S,07829.0734,W,0.32,254.01,200217,,,A*68

$GPRMC,154250.000,A,0010.9943,S,07829.0735,W,0.96,217.22,200217,,,A*68

$GPVTG,217.22,T,,M,0.96,N,1.77,K,A*37

$GPVTG,220.01,T,,M,1.44,N,2.66,K,A*3F

$GPGGA,154252.000,0010.9951,S,07829.0740,W,1,11,0.76,2805.5,M,13.7,M,,*5A

$GPGGA,154253.000,0010.9956,S,07829.0742,W,1,11,0.76,2805.4,M,13.7,M,,*5F

$GPGSA,A,3,21,20,10,25,29,26,12,32,14,31,18,,1.09,0.76,0.79*01

$GPRMC,154253.000,A,0010.9956,S,07829.0742,W,1.83,204.00,200217,,,A*68

$GPVTG,204.00,T,,M,1.83,N,3.40,K,A*36

$GPVTG,192.00,T,,M,1.82,N,3.37,K,D*3E

$GPGGA,154255.000,0010.9966,S,07829.0744,W,2,11,0.76,2805.3,M,13.7,M,0000,0000*58

$GPGGA,154256.000,0010.9972,S,07829.0744,W,2,11,0.76,2805.1,M,13.7,M,0000,0000*5C

$GPGSA,A,3,21,20,10,25,29,26,12,32,14,31,18,,1.09,0.76,0.79*01

$GPGSA,A,3,21,20,10,25,29,26,12,32,14,31,18,,1.09,0.76,0.79*01

$GPRMC,154257.000,A,0010.9977,S,07829.0744,W,1.76,171.88,200217,,,D*67

$GPGSV,3,1,12,46,66,261,38,21,55,186,41,18,55,043,40,31,55,254,42*70

$GPGSV,3,2,12,25,44,094,42,10,40,002,41,32,22,338,37,14,19,313,27*71

$GPGGA,154259.000,0010.9988,S,07829.0741,W,2,11,0.76,2804.9,M,13.7,M,0000,0000*5A

$GPGSA,A,3,21,20,10,25,29,26,12,32,14,31,18,,1.09,0.76,0.79*01

$GPGSA,A,3,21,20,10,25,29,26,12,32,14,31,18,,1.09,0.76,0.79*01

$GPRMC,154300.000,A,0010.9993,S,07829.0739,W,1.77,161.54,200217,,,D*65

$GPRMC,154301.000,A,0010.9999,S,07829.0737,W,1.89,150.34,200217,,,D*65

$GPVTG,150.34,T,,M,1.89,N,3.50,K,D*3D

$GPVTG,150.35,T,,M,1.81,N,3.36,K,D*34

$GPGGA,154303.000,0011.0008,S,07829.0731,W,2,11,0.76,2804.8,M,13.7,M,0000,0000*5B

$GPGSV,3,3,12,20,18,122,41,26,18,201,31,12,14,061,41,29,11,145,42*70

$GPRMC,154303.000,A,0011.0008,S,07829.0731,W,1.71,156.39,200217,,,D*64

$GPRMC,154304.000,A,0011.0013,S,07829.0729,W,1.76,161.43,200217,,,D*6E

$GPVTG,161.43,T,,M,1.76,N,3.26,K,D*3E

$GPVTG,156.01,T,,M,1.75,N,3.25,K,D*3C

$GPGGA,154306.000,0011.0022,S,07829.0723,W,2,11,0.76,2804.5,M,13.7,M,0000,0000*58

$GPGGA,154307.000,0011.0027,S,07829.0720,W,2,11,0.76,2804.4,M,13.7,M,0000,0000*5E

$GPGSA,A,3,21,20,10,25,29,26,12,32,14,31,18,,1.09,0.76,0.79*01

$GPGSA,A,3,21,20,10,25,29,26,12,32,14,31,18,,1.09,0.76,0.79*01

$GPGSV,3,1,12,46,66,261,37,21,55,186,41,18,55,044,39,31,55,254,38*7B

$GPVTG,146.45,T,,M,1.85,N,3.43,K,D*32

$GPGGA,154309.000,0011.0037,S,07829.0714,W,2,11,0.76,2804.1,M,13.7,M,0000,0000*53

$GPGGA,154310.000,0011.0042,S,07829.0711,W,2,11,0.76,2803.9,M,13.7,M,0000,0000*53

$GPGSA,A,3,21,20,10,25,29,26,12,32,14,31,18,,1.09,0.76,0.79*01

$GPGSA,A,3,21,20,10,25,29,26,12,32,14,31,18,,1.09,0.76,0.79*01

$GPRMC,154311.000,A,0011.0046,S,07829.0709,W,1.89,144.94,200217,,,D*65

$GPRMC,154312.000,A,0011.0051,S,07829.0706,W,1.70,146.82,200217,,,D*6C

$GPVTG,146.82,T,,M,1.70,N,3.16,K,D*33

$GPGSV,3,2,12,25,44,094,36,10,40,002,39,32,22,338,34,14,19,313,33*7B

$GPGSV,3,3,12,20,18,123,34,26,18,201,28,12,14,061,34,29,11,145,40*7B

$GPGSA,A,3,21,20,10,25,29,26,12,32,14,31,18,,1.09,0.76,0.79*01

$GPRMC,154314.000,A,0011.0059,S,07829.0700,W,1.56,145.65,200217,,,D*6A

$GPRMC,154315.000,A,0011.0063,S,07829.0697,W,1.84,149.09,200217,,,D*64

$GPVTG,149.09,T,,M,1.84,N,3.41,K,D*36

$GPVTG,149.89,T,,M,1.87,N,3.46,K,D*3A

$GPGGA,154317.000,0011.0073,S,07829.0692,W,2,11,0.76,2802.7,M,13.7,M,0000,0000*53

$GPGGA,154318.000,0011.0077,S,07829.0689,W,2,11,0.76,2802.6,M,13.7,M,0000,0000*53

$GPGSA,A,3,21,20,10,25,29,26,12,32,14,31,18,,1.09,0.76,0.79*01

$GPRMC,154318.000,A,0011.0077,S,07829.0689,W,1.88,138.44,200217,,,D*60

$GPVTG,138.44,T,,M,1.88,N,3.48,K,D*3C

$GPVTG,131.07,T,,M,1.82,N,3.37,K,D*30

$GPGGA,154320.000,0011.0083,S,07829.0681,W,2,11,0.76,2802.3,M,13.7,M,0000,0000*5E

$GPGGA,154321.000,0011.0086,S,07829.0677,W,2,11,0.76,2802.1,M,13.7,M,0000,0000*51

$GPGSA,A,3,21,20,10,25,29,26,12,32,14,31,18,,1.09,0.76,0.79*01

$GPGSA,A,3,21,20,10,25,29,26,12,32,14,31,18,,1.09,0.76,0.79*01

$GPRMC,154322.000,A,0011.0089,S,07829.0672,W,1.85,116.65,200217,,,D*6E

$GPGSV,3,1,12,46,66,261,38,21,55,186,41,18,55,044,41,31,55,254,41*75

$GPGSV,3,2,12,25,44,094,39,10,40,002,38,32,22,338,26,14,19,313,32*77

$GPGGA,154324.000,0011.0093,S,07829.0662,W,2,11,0.76,2801.7,M,13.7,M,0000,0000*51

$GPGSA,A,3,21,20,10,25,29,26,12,32,14,31,18,,1.09,0.76,0.79*01

$GPGSA,A,3,21,20,10,25,29,26,12,32,14,31,18,,1.09,0.76,0.79*01

$GPRMC,154325.000,A,0011.0094,S,07829.0657,W,1.84,104.60,200217,,,D*65

$GPRMC,154326.000,A,0011.0095,S,07829.0652,W,1.77,99.91,200217,,,D*55

$GPVTG,99.91,T,,M,1.77,N,3.28,K,D*08

$GPVTG,102.51,T,,M,1.83,N,3.40,K,D*32

$GPGGA,154328.000,0011.0097,S,07829.0642,W,2,11,0.76,2801.0,M,13.7,M,0000,0000*5C

$GPGSV,3,3,12,20,18,123,30,26,18,201,31,12,14,061,39,29,11,145,37*7A

$GPRMC,154328.000,A,0011.0097,S,07829.0642,W,1.68,98.26,200217,,,D*5B

$GPRMC,154329.000,A,0011.0097,S,07829.0637,W,1.73,94.48,200217,,,D*56

$GPVTG,94.48,T,,M,1.73,N,3.21,K,D*0C

$GPVTG,90.51,T,,M,1.72,N,3.18,K,D*0B

$GPGGA,154331.000,0011.0097,S,07829.0627,W,2,11,0.76,2800.7,M,13.7,M,0000,0000*51

$GPGSA,A,3,21,20,10,25,29,26,12,32,14,31,18,,1.09,0.76,0.79*01

$GPRMC,154332.000,A,0011.0097,S,07829.0622,W,1.66,96.77,200217,,,D*52

$GPGSV,3,1,12,46,66,261,40,21,55,186,41,18,55,044,42,31,55,254,44*7C

$GPGSV,3,2,12,25,44,094,38,10,40,002,45,32,22,338,22,14,19,313,34*7E

$GPGGA,154334.000,0011.0098,S,07829.0613,W,2,11,0.76,2800.6,M,13.7,M,0000,0000*5D

$GPGSA,A,3,21,20,10,25,29,26,12,32,14,31,18,,1.09,0.76,0.79*01

$GPGSA,A,3,21,20,10,25,29,26,12,32,14,31,18,,1.09,0.76,0.79*01

$GPRMC,154335.000,A,0011.0097,S,07829.0608,W,1.72,93.76,200217,,,D*5C

$GPRMC,154336.000,A,0011.0097,S,07829.0603,W,1.83,92.67,200217,,,D*5B

$GPVTG,92.67,T,,M,1.83,N,3.38,K,D*00

$GPVTG,88.12,T,,M,1.72,N,3.18,K,D*05

$GPGGA,154338.000,0011.0097,S,07829.0589,W,2,11,0.76,2800.9,M,13.7,M,0000,0000*51

$GPGSV,3,3,12,20,18,123,29,26,18,201,34,12,14,060,43,29,11,145,38*74

$GPRMC,154338.000,A,0011.0097,S,07829.0589,W,2.01,93.09,200217,,,D*54

$GPRMC,154339.000,A,0011.0098,S,07829.0583,W,1.76,101.08,200217,,,D*68

$GPVTG,101.08,T,,M,1.76,N,3.25,K,D*34

$GPVTG,97.80,T,,M,1.49,N,2.76,K,D*01

$GPGGA,154341.000,0011.0100,S,07829.0572,W,2,11,0.76,2801.2,M,13.7,M,0000,0000*5E

$GPGGA,154342.000,0011.0101,S,07829.0566,W,2,11,0.76,2801.4,M,13.7,M,0000,0000*5F

$GPGSA,A,3,21,20,10,25,29,26,12,32,14,31,18,,1.09,0.76,0.79*01

$GPGSA,A,3,21,20,10,25,29,26,12,14,31,18,,,1.13,0.80,0.80*04

$GPGSV,3,1,12,46,66,261,40,21,55,186,37,18,55,044,42,31,55,254,44*7D

$GPVTG,86.10,T,,M,1.64,N,3.04,K,D*03

$GPGGA,154344.000,0011.0100,S,07829.0555,W,2,11,0.76,2801.5,M,13.7,M,0000,0000*59

$GPGGA,154345.000,0011.0099,S,07829.0550,W,2,11,0.76,2801.3,M,13.7,M,0000,0000*5A

$GPGSA,A,3,21,20,10,25,29,26,12,32,14,31,18,,1.09,0.76,0.79*01

$GPGSA,A,3,21,20,10,25,29,26,12,32,14,31,18,,1.09,0.76,0.79*01

$GPRMC,154346.000,A,0011.0098,S,07829.0544,W,1.79,76.02,200217,,,D*5F

$GPRMC,154347.000,A,0011.0096,S,07829.0539,W,1.75,77.33,200217,,,D*55

$GPVTG,77.33,T,,M,1.75,N,3.25,K,D*0F

$GPGSV,3,2,12,25,44,094,35,10,40,002,40,32,22,338,34,14,19,313,28*7C

$GPGSV,3,3,12,20,18,123,30,26,18,201,32,12,14,060,40,29,11,145,30*71

$GPGSA,A,3,21,20,10,25,29,26,12,32,14,31,18,,1.09,0.76,0.79*01

$GPRMC,154349.000,A,0011.0095,S,07829.0530,W,1.66,86.65,200217,,,D*5E

$GPRMC,154350.000,A,0011.0094,S,07829.0525,W,1.73,77.18,200217,,,D*53

$GPVTG,77.18,T,,M,1.73,N,3.20,K,D*05

$GPVTG,77.92,T,,M,1.84,N,3.41,K,D*08

$GPGGA,154352.000,0011.0092,S,07829.0515,W,2,11,0.76,2800.3,M,13.7,M,0000,0000*57

$GPGGA,154353.000,0011.0090,S,07829.0508,W,2,11,0.76,2800.1,M,13.7,M,0000,0000*5A

$GPGSA,A,3,21,20,10,25,29,26,12,32,14,31,18,,1.09,0.76,0.79*01

$GPRMC,154353.000,A,0011.0090,S,07829.0508,W,2.02,81.65,200217,,,D*5D

$GPVTG,81.65,T,,M,2.02,N,3.74,K,D*02

$GPVTG,74.88,T,,M,1.92,N,3.56,K,D*01

$GPGGA,154355.000,0011.0088,S,07829.0497,W,2,11,0.76,2799.7,M,13.7,M,0000,0000*5B

$GPGGA,154356.000,0011.0086,S,07829.0492,W,2,11,0.76,2799.4,M,13.7,M,0000,0000*50

$GPGSA,A,3,21,20,10,25,29,26,12,32,14,31,18,,1.09,0.76,0.79*01

$GPGSA,A,3,21,20,10,25,29,26,12,32,14,31,18,,1.09,0.76,0.79*01

$GPRMC,154357.000,A,0011.0085,S,07829.0487,W,1.84,70.10,200217,,,D*5A

$GPGSV,3,1,12,46,66,261,39,18,55,044,41,31,55,255,43,21,54,185,39*7A

$GPGSV,3,2,12,25,44,093,37,10,40,002,38,32,22,338,35,14,19,313,24*7B

$GPGGA,154359.000,0011.0081,S,07829.0477,W,2,11,0.76,2798.9,M,13.7,M,0000,0000*5F

$GPGSA,A,3,21,20,10,25,29,26,12,32,14,31,18,,1.09,0.76,0.79*01

$GPGSA,A,3,21,20,10,25,29,26,12,14,31,18,,,1.13,0.80,0.80*04

$GPRMC,154400.000,A,0011.0080,S,07829.0473,W,1.66,68.03,200217,,,D*56

$GPRMC,154401.000,A,0011.0078,S,07829.0469,W,1.70,60.74,200217,,,D*54

$GPVTG,60.74,T,,M,1.70,N,3.16,K,D*0F

$GPVTG,61.10,T,,M,1.71,N,3.17,K,D*0C

$GPGGA,154403.000,0011.0073,S,07829.0461,W,2,10,0.79,2798.3,M,13.7,M,0000,0000*59

$GPGSV,3,3,12,26,19,201,25,20,18,123,34,12,14,060,43,29,11,145,26*76

$GPRMC,154403.000,A,0011.0073,S,07829.0461,W,1.71,68.38,200217,,,D*54

$GPRMC,154404.000,A,0011.0070,S,07829.0457,W,1.73,54.70,200217,,,D*54

$GPVTG,54.70,T,,M,1.73,N,3.21,K,D*0B

$GPVTG,56.15,T,,M,1.80,N,3.33,K,D*05

$GPGGA,154406.000,0011.0064,S,07829.0449,W,2,11,0.76,2797.8,M,13.7,M,0000,0000*5A

$GPGGA,154407.000,0011.0061,S,07829.0446,W,2,11,0.76,2797.5,M,13.7,M,0000,0000*5C

$GPGSA,A,3,21,20,10,25,29,26,12,32,14,31,18,,1.09,0.76,0.79*01

$GPGSA,A,3,21,20,10,25,29,26,12,32,14,31,18,,1.09,0.76,0.79*01

$GPGSV,3,1,12,46,66,261,40,18,55,044,40,31,55,255,45,21,54,185,36*7C

$GPGGA,154409.000,0011.0057,S,07829.0437,W,2,11,0.76,2797.3,M,13.7,M,0000,0000*57

$GPGSA,A,3,21,20,10,25,29,26,12,32,14,31,18,,1.09,0.76,0.79*01

$GPGSA,A,3,21,20,10,25,29,26,12,32,14,31,18,,1.09,0.76,0.79*01

$GPRMC,154410.000,A,0011.0054,S,07829.0433,W,1.71,60.52,200217,,,D*50

$GPRMC,154411.000,A,0011.0053,S,07829.0428,W,1.67,66.68,200217,,,D*54

$GPVTG,66.68,T,,M,1.67,N,3.10,K,D*04

$GPVTG,68.21,T,,M,1.65,N,3.05,K,D*01

$GPGGA,154413.000,0011.0049,S,07829.0420,W,2,11,0.76,2796.8,M,13.7,M,0000,0000*5F

$GPGSV,3,3,12,26,19,201,22,20,18,123,37,12,14,060,47,29,11,145,35*74

$GPRMC,154413.000,A,0011.0049,S,07829.0420,W,1.72,61.14,200217,,,D*5D

$GPRMC,154414.000,A,0011.0047,S,07829.0416,W,1.62,64.15,200217,,,D*54

$GPVTG,64.15,T,,M,1.62,N,3.01,K,D*09

$GPVTG,64.35,T,,M,1.73,N,3.20,K,D*08

$GPGGA,154416.000,0011.0043,S,07829.0408,W,2,11,0.76,2796.5,M,13.7,M,0000,0000*57

$GPGGA,154417.000,0011.0040,S,07829.0405,W,2,11,0.76,2796.4,M,13.7,M,0000,0000*59

$GPGSA,A,3,21,20,10,25,29,26,12,32,14,31,18,,1.09,0.76,0.79*01

$GPGSA,A,3,21,20,10,25,29,26,12,32,14,31,18,,1.09,0.76,0.79*01

$GPGSV,3,1,12,46,66,261,41,18,55,044,44,31,55,255,45,21,54,185,39*76

$GPVTG,61.10,T,,M,1.96,N,3.64,K,D*01

$GPGGA,154419.000,0011.0035,S,07829.0397,W,2,11,0.76,2796.2,M,13.7,M,0000,0000*5F

$GPGGA,154420.000,0011.0032,S,07829.0392,W,2,11,0.76,2796.2,M,13.7,M,0000,0000*57

$GPGSA,A,3,21,20,10,25,29,26,12,32,14,31,18,,1.09,0.76,0.79*01

$GPRMC,154421.000,A,0011.0029,S,07829.0387,W,1.95,64.72,200217,,,D*5C

$GPVTG,64.72,T,,M,1.95,N,3.62,K,D*05

$GPVTG,60.96,T,,M,2.03,N,3.76,K,D*02

$GPGGA,154423.000,0011.0024,S,07829.0378,W,2,11,0.76,2796.0,M,13.7,M,0000,0000*55

$GPGSV,3,3,12,26,19,201,30,20,17,123,32,12,14,060,34,29,11,145,39*75

$GPRMC,154423.000,A,0011.0024,S,07829.0378,W,2.10,60.15,200217,,,D*58

$GPRMC,154424.000,A,0011.0022,S,07829.0373,W,2.00,67.24,200217,,,D*56

$GPVTG,67.24,T,,M,2.00,N,3.70,K,D*09

$GPVTG,60.29,T,,M,1.97,N,3.66,K,D*09

$GPGGA,154426.000,0011.0017,S,07829.0364,W,2,11,0.76,2795.9,M,13.7,M,0000,0000*57

$GPGGA,154427.000,0011.0015,S,07829.0359,W,2,11,0.76,2795.9,M,13.7,M,0000,0000*5A

$GPGSA,A,3,21,20,10,25,29,26,12,32,14,31,18,,1.09,0.76,0.79*01

$GPGSA,A,3,21,10,25,29,26,12,32,14,31,18,,,1.12,0.80,0.79*00

$GPGSV,3,1,12,46,66,261,36,18,55,045,40,31,55,255,42,21,54,185,39*74

$GPGGA,154429.000,0011.0010,S,07829.0351,W,2,11,0.76,2795.9,M,13.7,M,0000,0000*59

$GPGSA,A,3,21,20,10,25,29,26,12,32,14,31,18,,1.09,0.76,0.79*01

$GPGSA,A,3,21,20,10,25,29,26,12,32,14,31,18,,1.09,0.76,0.79*01

$GPRMC,154430.000,A,0011.0007,S,07829.0347,W,1.94,53.70,200217,,,D*5B

$GPRMC,154431.000,A,0011.0004,S,07829.0344,W,1.48,64.65,200217,,,D*5B

$GPVTG,64.65,T,,M,1.48,N,2.74,K,D*05

$GPVTG,56.52,T,,M,1.63,N,3.02,K,D*09

$GPGGA,154433.000,0010.9999,S,07829.0337,W,2,11,0.76,2795.6,M,13.7,M,0000,0000*5D

$GPGSV,3,3,12,26,19,201,29,20,17,123,32,12,14,060,41,29,11,145,31*77

$GPRMC,154433.000,A,0010.9999,S,07829.0337,W,1.95,50.99,200217,,,D*5C

$GPRMC,154434.000,A,0010.9996,S,07829.0333,W,1.73,51.51,200217,,,D*5D

$GPVTG,51.51,T,,M,1.73,N,3.21,K,D*0D

$GPVTG,57.19,T,,M,1.54,N,2.85,K,D*0D

$GPGGA,154436.000,0010.9991,S,07829.0326,W,2,11,0.76,2795.2,M,13.7,M,0000,0000*54

$GPGGA,154437.000,0010.9988,S,07829.0323,W,2,11,0.76,2795.2,M,13.7,M,0000,0000*58

$GPGSA,A,3,21,20,10,25,29,26,12,32,14,31,18,,1.09,0.76,0.79*01

$GPGSA,A,3,21,20,10,25,29,26,12,32,14,31,18,,1.09,0.76,0.79*01

$GPGSV,3,1,12,46,66,261,36,18,55,045,43,31,55,255,40,21,54,185,38*74

$GPVTG,42.48,T,,M,1.45,N,2.69,K,D*0F

$GPGGA,154439.000,0010.9982,S,07829.0318,W,2,11,0.76,2795.0,M,13.7,M,0000,0000*56

$GPGGA,154440.000,0010.9978,S,07829.0315,W,2,11,0.76,2794.9,M,13.7,M,0000,0000*58

$GPGSA,A,3,21,20,10,25,29,26,12,32,14,31,18,,1.09,0.76,0.79*01

$GPGSA,A,3,21,20,10,25,29,26,12,32,14,31,18,,1.09,0.76,0.79*01

$GPRMC,154441.000,A,0010.9973,S,07829.0312,W,1.79,32.58,200217,,,D*51

$GPRMC,154442.000,A,0010.9969,S,07829.0310,W,1.88,37.52,200217,,,D*5A

$GPVTG,37.52,T,,M,1.88,N,3.47,K,D*0A

$GPGSV,3,2,12,25,44,093,36,10,40,003,41,32,22,339,43,14,19,314,37*70

$GPGSV,3,3,12,26,19,201,33,20,17,123,32,12,14,060,26,29,11,145,23*7E

$GPGSA,A,3,21,20,10,25,29,26,12,32,14,31,18,,1.09,0.76,0.79*01

$GPRMC,154444.000,A,0010.9960,S,07829.0305,W,2.06,30.68,200217,,,D*5A

$GPRMC,154445.000,A,0010.9955,S,07829.0302,W,2.05,21.45,200217,,,D*56

$GPVTG,21.45,T,,M,2.05,N,3.79,K,D*00

$GPVTG,23.63,T,,M,2.42,N,4.48,K,D*00

$GPGGA,154447.000,0010.9942,S,07829.0299,W,2,11,0.76,2794.6,M,13.7,M,0000,0000*5C

$GPGSA,A,3,21,20,10,25,29,26,12,32,14,31,18,,1.09,0.76,0.79*01

$GPGSV,3,1,12,46,66,261,40,18,55,045,43,31,55,255,44,21,54,185,39*70

$GPVTG,21.98,T,,M,2.20,N,4.08,K,D*06

$GPGGA,154449.000,0010.9931,S,07829.0295,W,2,11,0.76,2794.6,M,13.7,M,0000,0000*5A

$GPGGA,154450.000,0010.9925,S,07829.0294,W,2,11,0.76,2794.6,M,13.7,M,0000,0000*56

$GPGSA,A,3,21,20,10,25,29,26,12,32,14,31,18,,1.09,0.76,0.79*01

$GPGSA,A,3,21,20,10,25,29,26,12,32,14,31,18,,1.48,0.76,1.27*0E

$GPRMC,154451.000,A,0010.9919,S,07829.0293,W,2.16,17.23,200217,,,D*55

$GPRMC,154452.000,A,0010.9913,S,07829.0292,W,2.23,15.13,200217,,,D*5A

$GPVTG,15.13,T,,M,2.23,N,4.13,K,D*0B

$GPGSV,3,2,12,25,44,093,42,10,40,003,40,32,22,339,37,14,19,314,43*72

$GPGSV,3,3,12,26,19,201,32,20,17,123,34,12,14,060,33,29,11,145,20*7E

$GPGSA,A,3,21,20,10,25,29,26,12,32,14,31,18,,1.09,0.76,0.79*01

$GPRMC,154454.000,A,0010.9901,S,07829.0290,W,2.07,5.63,200217,,,D*6D

$GPRMC,154455.000,A,0010.9895,S,07829.0290,W,2.29,5.03,200217,,,D*6A

$GPVTG,5.03,T,,M,2.29,N,4.25,K,D*34

$GPVTG,12.66,T,,M,2.17,N,4.03,K,D*08

$GPGGA,154457.000,0010.9883,S,07829.0288,W,2,11,0.76,2794.6,M,13.7,M,0000,0000*51

$GPGGA,154458.000,0010.9877,S,07829.0286,W,2,11,0.76,2794.6,M,13.7,M,0000,0000*5B

$GPGSA,A,3,21,20,10,25,29,26,12,32,14,31,18,,1.09,0.76,0.79*01

$GPRMC,154458.000,A,0010.9877,S,07829.0286,W,2.41,16.07,200217,,,D*54

$GPVTG,16.07,T,,M,2.41,N,4.47,K,D*08

$GPVTG,12.81,T,,M,2.23,N,4.13,K,D*07

$GPGGA,154500.000,0010.9863,S,07829.0283,W,2,11,0.76,2794.7,M,13.7,M,0000,0000*56

$GPGGA,154501.000,0010.9856,S,07829.0282,W,2,11,0.76,2794.7,M,13.7,M,0000,0000*50

$GPGSA,A,3,21,20,10,25,29,26,12,32,14,31,18,,1.09,0.76,0.79*01

$GPGSA,A,3,21,20,10,25,29,26,12,32,14,31,18,,1.48,0.76,1.27*0E

$GPRMC,154502.000,A,0010.9850,S,07829.0281,W,2.12,9.93,200217,,,D*6D

$GPGSV,3,1,12,46,66,261,39,18,55,045,43,31,55,255,44,21,54,185,40*70

$GPGSV,3,2,12,25,44,092,41,10,40,003,42,32,22,339,38,14,19,314,40*7E

$GPGGA,154504.000,0010.9838,S,07829.0278,W,2,11,0.76,2794.4,M,13.7,M,0000,0000*5B

$GPGSA,A,3,21,20,10,25,29,26,12,32,14,31,18,,1.48,0.76,1.27*0E

$GPGSA,A,3,21,20,10,25,29,26,12,32,14,31,18,,1.48,0.76,1.27*0E

$GPRMC,154505.000,A,0010.9832,S,07829.0277,W,2.24,13.63,200217,,,D*56

$GPRMC,154506.000,A,0010.9825,S,07829.0276,W,2.30,11.04,200217,,,D*54

$GPVTG,11.04,T,,M,2.30,N,4.26,K,D*0D

$GPVTG,8.02,T,,M,2.29,N,4.24,K,D*39

$GPGGA,154508.000,0010.9813,S,07829.0274,W,2,11,0.76,2794.1,M,13.7,M,0000,0000*57

$GPGSV,3,3,12,26,19,201,24,20,17,123,36,12,14,060,39,29,11,144,30*71

$GPRMC,154508.000,A,0010.9813,S,07829.0274,W,2.13,10.43,200217,,,D*5E

$GPRMC,154509.000,A,0010.9807,S,07829.0273,W,1.89,10.64,200217,,,D*58

$GPVTG,10.64,T,,M,1.89,N,3.50,K,D*0D

$GPVTG,9.53,T,,M,2.32,N,4.29,K,D*3B

$GPGGA,154511.000,0010.9795,S,07829.0270,W,2,11,0.76,2793.8,M,13.7,M,0000,0000*54

$GPGGA,154512.000,0010.9789,S,07829.0269,W,2,11,0.76,2793.6,M,13.7,M,0000,0000*5C

$GPGSA,A,3,21,20,10,25,29,26,12,32,14,31,18,,1.48,0.76,1.27*0E

$GPGSV,3,1,12,46,66,262,38,18,55,045,42,31,55,256,44,21,54,185,44*74

$GPGSV,3,2,12,25,44,092,39,10,40,003,44,32,22,339,32,14,19,314,41*7C

$GPGGA,154514.000,0010.9776,S,07829.0267,W,2,11,0.76,2793.6,M,13.7,M,0000,0000*54

$GPGSA,A,3,21,20,10,25,29,26,12,32,14,31,18,,1.48,0.76,1.27*0E

$GPGSA,A,3,21,20,10,25,29,26,12,32,14,31,18,,1.48,0.76,1.27*0E

$GPRMC,154515.000,A,0010.9769,S,07829.0266,W,2.37,8.38,200217,,,D*60

$GPRMC,154516.000,A,0010.9763,S,07829.0265,W,2.33,5.44,200217,,,D*68

$GPVTG,5.44,T,,M,2.33,N,4.31,K,D*39

$GPVTG,11.52,T,,M,2.42,N,4.49,K,D*02

$GPGGA,154518.000,0010.9749,S,07829.0263,W,2,11,0.76,2793.3,M,13.7,M,0000,0000*55

$GPGSV,3,3,12,26,19,201,39,20,17,123,36,12,14,060,40,29,11,144,22*70

$GPRMC,154518.000,A,0010.9749,S,07829.0263,W,2.44,6.07,200217,,,D*6C

$GPRMC,154519.000,A,0010.9742,S,07829.0262,W,2.22,3.71,200217,,,D*63

$GPVTG,3.71,T,,M,2.22,N,4.12,K,D*38

$GPVTG,5.85,T,,M,2.38,N,4.41,K,D*38

$GPGGA,154521.000,0010.9729,S,07829.0261,W,2,11,0.76,2792.9,M,13.7,M,0000,0000*50

$GPGGA,154522.000,0010.9723,S,07829.0260,W,2,11,0.76,2792.8,M,13.7,M,0000,0000*59

$GPGSA,A,3,21,20,10,25,29,26,12,32,14,31,18,,1.48,0.76,1.27*0E

$GPGSA,A,3,21,20,10,25,29,26,12,32,14,31,18,,1.48,0.76,1.27*0E

$GPGSV,3,1,12,46,66,262,38,18,55,045,44,31,55,256,42,21,54,185,40*70

$GPVTG,11.63,T,,M,2.24,N,4.15,K,D*09

$GPGGA,154524.000,0010.9711,S,07829.0258,W,2,11,0.76,2792.7,M,13.7,M,0000,0000*5A

$GPGGA,154525.000,0010.9705,S,07829.0258,W,2,11,0.76,2792.7,M,13.7,M,0000,0000*5E

$GPGSA,A,3,21,20,10,25,29,26,12,32,14,31,18,,1.48,0.76,1.27*0E

$GPGSA,A,3,21,20,10,25,29,26,12,32,14,31,18,,1.48,0.76,1.27*0E

$GPRMC,154526.000,A,0010.9698,S,07829.0257,W,2.18,9.38,200217,,,D*61

$GPRMC,154527.000,A,0010.9692,S,07829.0257,W,2.05,11.33,200217,,,D*54

$GPVTG,11.33,T,,M,2.05,N,3.80,K,D*04

$GPGSV,3,2,12,25,44,092,41,10,41,003,44,32,22,339,42,14,19,314,32*71

$GPGSV,3,3,12,26,19,201,32,20,17,123,23,12,14,060,33,29,11,144,26*7F

$GPGSA,A,3,21,20,10,25,29,26,12,32,14,31,18,,1.48,0.76,1.27*0E

$GPRMC,154529.000,A,0010.9681,S,07829.0255,W,2.13,3.54,200217,,,D*6F

$GPRMC,154530.000,A,0010.9674,S,07829.0254,W,2.12,10.27,200217,,,D*5B

$GPVTG,10.27,T,,M,2.12,N,3.94,K,D*03

$GPVTG,7.04,T,,M,2.06,N,3.81,K,D*35

$GPGGA,154532.000,0010.9662,S,07829.0253,W,2,11,0.76,2792.6,M,13.7,M,0000,0000*52

$GPGGA,154533.000,0010.9656,S,07829.0251,W,2,11,0.76,2792.6,M,13.7,M,0000,0000*56

$GPGSA,A,3,21,20,10,25,29,26,12,32,14,31,18,,1.48,0.76,1.27*0E

$GPRMC,154533.000,A,0010.9656,S,07829.0251,W,2.22,15.08,200217,,,D*56

$GPVTG,15.08,T,,M,2.22,N,4.11,K,D*02

$GPVTG,10.11,T,,M,2.05,N,3.80,K,D*05

$GPGGA,154535.000,0010.9644,S,07829.0249,W,2,11,0.76,2792.9,M,13.7,M,0000,0000*55

$GPGGA,154536.000,0010.9638,S,07829.0248,W,2,11,0.76,2792.9,M,13.7,M,0000,0000*5C

$GPGSA,A,3,21,20,10,25,29,26,12,32,14,31,18,,1.48,0.76,1.27*0E

$GPGSA,A,3,21,20,10,25,29,26,12,32,14,31,18,,1.48,0.76,1.27*0E

$GPRMC,154537.000,A,0010.9632,S,07829.0247,W,2.16,8.47,200217,,,D*67

$GPGSV,3,1,12,46,66,262,38,18,55,045,42,31,55,256,44,21,54,185,41*71

$GPGSV,3,2,12,25,44,092,40,10,41,003,44,32,22,339,41,14,19,314,38*79

$GPGGA,154539.000,0010.9620,S,07829.0245,W,2,11,0.76,2792.9,M,13.7,M,0000,0000*57

$GPGSA,A,3,21,20,10,25,29,26,12,32,14,31,18,,1.48,0.76,1.27*0E

$GPGSA,A,3,21,20,10,25,29,26,12,32,14,31,18,,1.48,0.76,1.27*0E

$GPRMC,154540.000,A,0010.9614,S,07829.0245,W,2.22,10.66,200217,,,D*5C

$GPRMC,154541.000,A,0010.9608,S,07829.0243,W,2.24,14.20,200217,,,D*56

$GPVTG,14.20,T,,M,2.24,N,4.16,K,D*08

$GPVTG,11.91,T,,M,2.20,N,4.07,K,D*03

$GPGGA,154543.000,0010.9596,S,07829.0240,W,2,11,0.76,2792.9,M,13.7,M,0000,0000*51

$GPGSV,3,3,12,26,19,201,35,20,17,123,29,12,14,060,37,29,11,144,35*74

$GPRMC,154543.000,A,0010.9596,S,07829.0240,W,2.14,6.38,200217,,,D*6A

$GPRMC,154544.000,A,0010.9589,S,07829.0239,W,2.39,4.11,200217,,,D*6B

$GPVTG,4.11,T,,M,2.39,N,4.43,K,D*37

$GPVTG,12.05,T,,M,2.32,N,4.29,K,D*02

$GPGGA,154546.000,0010.9576,S,07829.0237,W,2,11,0.76,2793.0,M,13.7,M,0000,0000*52

$GPGGA,154547.000,0010.9570,S,07829.0237,W,2,11,0.76,2793.2,M,13.7,M,0000,0000*57

$GPGSA,A,3,21,20,10,25,29,26,12,32,14,31,18,,1.48,0.76,1.27*0E

$GPGSA,A,3,21,20,10,25,29,26,12,32,14,31,18,,1.48,0.77,1.27*0F

$GPGSV,3,1,12,46,66,262,40,18,55,045,44,31,55,256,44,21,54,185,39*77

$GPVTG,6.27,T,,M,2.15,N,3.99,K,D*3E

$GPGGA,154549.000,0010.9559,S,07829.0236,W,2,11,0.76,2793.3,M,13.7,M,0000,0000*52

$GPGGA,154550.000,0010.9553,S,07829.0235,W,2,11,0.77,2793.3,M,13.7,M,0000,0000*52

$GPGSA,A,3,21,20,10,25,29,26,12,32,14,31,18,,1.48,0.77,1.27*0F

$GPGSA,A,3,21,20,10,25,29,26,12,32,14,31,18,,1.48,0.77,1.27*0F

$GPRMC,154551.000,A,0010.9547,S,07829.0233,W,2.13,12.49,200217,,,D*55

$GPRMC,154552.000,A,0010.9541,S,07829.0232,W,2.20,12.46,200217,,,D*5E

$GPVTG,12.46,T,,M,2.20,N,4.08,K,D*05

$GPGSV,3,2,12,25,44,092,28,10,41,003,43,32,22,339,41,14,19,314,37*7F

$GPGSV,3,3,12,26,19,201,28,20,17,123,29,12,14,060,39,29,11,144,24*76

$GPGSA,A,3,21,20,10,25,29,26,12,32,14,31,18,,1.09,0.76,0.79*01

$GPRMC,154554.000,A,0010.9529,S,07829.0228,W,2.10,16.29,200217,,,D*53

$GPRMC,154555.000,A,0010.9524,S,07829.0227,W,1.84,9.33,200217,,,D*6B

$GPVTG,9.33,T,,M,1.84,N,3.41,K,D*3A

$GPVTG,9.70,T,,M,2.00,N,3.71,K,D*31

$GPGGA,154557.000,0010.9513,S,07829.0226,W,2,11,0.77,2793.2,M,13.7,M,0000,0000*52

$GPGGA,154558.000,0010.9507,S,07829.0224,W,2,11,0.77,2793.0,M,13.7,M,0000,0000*58

$GPGSA,A,3,21,20,10,25,29,26,12,32,14,31,18,,1.48,0.77,1.27*0F

$GPRMC,154558.000,A,0010.9507,S,07829.0224,W,2.19,10.58,200217,,,D*56

$GPVTG,10.58,T,,M,2.19,N,4.07,K,D*0D

$GPVTG,16.46,T,,M,2.09,N,3.87,K,D*0A

$GPGGA,154600.000,0010.9494,S,07829.0222,W,2,11,0.76,2793.2,M,13.7,M,0000,0000*58

$GPGSA,A,3,21,20,10,25,29,26,12,32,14,31,18,,1.48,0.77,1.27*0F

$GPRMC,154601.000,A,0010.9488,S,07829.0221,W,2.10,4.65,200217,,,D*68

$GPRMC,154602.000,A,0010.9482,S,07829.0220,W,2.04,8.36,200217,,,D*6F

$GPVTG,8.36,T,,M,2.04,N,3.79,K,D*3E

$GPGSV,3,2,12,25,44,092,39,10,41,003,43,32,22,339,40,14,19,314,38*71

$GPGSV,3,3,12,26,19,201,36,20,17,123,24,12,14,059,41,29,11,144,22*77

$GPGSA,A,3,21,20,10,25,29,26,12,32,14,31,18,,1.48,0.77,1.27*0F

$GPRMC,154604.000,A,0010.9470,S,07829.0217,W,2.27,7.75,200217,,,D*69

$GPRMC,154605.000,A,0010.9464,S,07829.0216,W,2.06,10.60,200217,,,D*5D

$GPVTG,10.60,T,,M,2.06,N,3.82,K,D*02

$GPVTG,11.21,T,,M,2.02,N,3.74,K,D*0B

$GPGGA,154607.000,0010.9453,S,07829.0215,W,2,11,0.77,2793.6,M,13.7,M,0000,0000*55

$GPGGA,154608.000,0010.9448,S,07829.0214,W,2,11,0.77,2793.4,M,13.7,M,0000,0000*53

$GPGSA,A,3,21,20,10,25,29,26,12,32,14,31,18,,1.48,0.77,1.27*0F

$GPRMC,154608.000,A,0010.9448,S,07829.0214,W,1.70,4.53,200217,,,D*6B

$GPVTG,4.53,T,,M,1.70,N,3.16,K,D*38

$GPVTG,0.16,T,,M,2.13,N,3.96,K,D*33

$GPGGA,154610.000,0010.9437,S,07829.0215,W,2,11,0.77,2793.0,M,13.7,M,0000,0000*57

$GPGGA,154611.000,0010.9431,S,07829.0215,W,2,11,0.77,2793.0,M,13.7,M,0000,0000*50

$GPGSA,A,3,21,20,10,25,29,26,12,32,14,31,18,,1.48,0.77,1.27*0F

$GPGSA,A,3,21,20,10,25,29,26,12,32,14,31,18,,1.48,0.77,1.27*0F

$GPRMC,154612.000,A,0010.9425,S,07829.0215,W,2.34,359.17,200217,,,D*62

$GPGSV,3,1,12,46,66,262,38,18,56,046,41,31,55,256,45,21,53,185,41*74

$GPGSV,3,2,12,25,44,092,38,10,41,003,39,32,22,339,37,14,19,314,38*7D

$GPGGA,154614.000,0010.9412,S,07829.0215,W,2,11,0.77,2793.1,M,13.7,M,0000,0000*55

$GPGSA,A,3,21,20,10,25,29,26,12,32,14,31,18,,1.48,0.77,1.27*0F

$GPGSA,A,3,21,20,10,25,29,26,12,32,14,31,18,,1.48,0.77,1.27*0F

$GPRMC,154615.000,A,0010.9406,S,07829.0215,W,2.16,351.04,200217,,,D*6E

$GPRMC,154616.000,A,0010.9400,S,07829.0215,W,2.13,357.43,200217,,,D*6B

$GPVTG,357.43,T,,M,2.13,N,3.96,K,D*32

$GPVTG,356.86,T,,M,2.10,N,3.88,K,D*36

$GPGGA,154618.000,0010.9388,S,07829.0215,W,2,11,0.77,2793.0,M,13.7,M,0000,0000*5C

$GPGSV,3,3,12,26,19,201,27,20,17,124,26,12,14,059,39,29,11,144,28*77

$GPRMC,154618.000,A,0010.9388,S,07829.0215,W,2.09,353.05,200217,,,D*6F

$GPRMC,154619.000,A,0010.9383,S,07829.0215,W,2.12,0.84,200217,,,D*63

$GPVTG,0.84,T,,M,2.12,N,3.92,K,D*3D

$GPVTG,7.84,T,,M,2.15,N,3.98,K,D*37

$GPGGA,154621.000,0010.9372,S,07829.0213,W,2,11,0.77,2792.6,M,13.7,M,0000,0000*52

$GPGGA,154622.000,0010.9367,S,07829.0208,W,2,11,0.76,2792.4,M,13.7,M,0000,0000*5C

$GPGSA,A,3,21,20,10,25,29,26,12,32,14,31,18,,1.09,0.76,0.78*00

$GPGSA,A,3,21,20,10,25,29,26,12,32,14,31,18,,1.09,0.76,0.78*00

