
$GPRMC,171555.303,A,0010.6981,S,07828.8093,W,0.24,207.57,150217,,,A*62

$GPVTG,207.57,T,,M,0.24,N,0.45,K,A*3D

$GPVTG,214.13,T,,M,0.59,N,1.09,K,A*3C

$GPGGA,171558.000,0010.6988,S,07828.8107,W,1,05,1.57,2784.6,M,13.7,M,,*55

$GPGGA,171559.000,0010.6990,S,07828.8113,W,1,05,1.57,2787.2,M,13.7,M,,*5F

$GPGSA,A,3,26,31,18,16,10,,,,,,,,1.85,1.57,0.98*05

$GPGSA,A,3,26,31,18,16,10,,,,,,,,1.85,1.57,0.98*05

$GPGSV,2,1,08,10,69,041,23,18,57,113,31,51,56,270,38,31,49,317,37*75

$GPGGA,171601.000,0010.6994,S,07828.8121,W,1,05,1.57,2788.6,M,13.7,M,,*5F

$GPGSA,A,3,26,31,18,16,10,,,,,,,,1.85,1.57,0.98*05

$GPGSA,A,3,26,31,18,16,10,,,,,,,,1.85,1.57,0.98*05

$GPRMC,171602.000,A,0010.6994,S,07828.8122,W,0.24,286.98,150217,,,A*66

$GPRMC,171603.000,A,0010.6994,S,07828.8124,W,0.36,268.96,150217,,,A*6C

$GPVTG,268.96,T,,M,0.36,N,0.66,K,A*3B

$GPVTG,290.38,T,,M,0.32,N,0.59,K,A*30

$GPGGA,171605.000,0010.6994,S,07828.8126,W,1,05,1.57,2789.2,M,13.7,M,,*59

$GPRMC,171605.000,A,0010.6994,S,07828.8126,W,0.37,267.27,150217,,,A*6C

$GPVTG,267.27,T,,M,0.37,N,0.68,K,A*31

$GPVTG,274.46,T,,M,0.18,N,0.34,K,A*30

$GPGGA,171607.000,0010.6994,S,07828.8126,W,1,05,1.57,2789.4,M,13.7,M,,*5D

$GPGGA,171608.000,0010.6995,S,07828.8126,W,1,05,1.57,2789.7,M,13.7,M,,*50

$GPGSA,A,3,26,31,18,16,10,,,,,,,,1.85,1.57,0.98*05

$GPGSA,A,3,26,31,18,16,10,,,,,,,,1.85,1.57,0.98*05

$GPRMC,171609.000,A,0010.6995,S,07828.8128,W,0.25,341.89,150217,,,A*6D

$GPGSV,2,1,08,10,70,041,22,18,57,113,31,51,56,270,37,31,49,317,38*7C

$GPGSV,2,2,08,26,48,192,40,16,19,203,35,14,11,333,,04,,,18*44

$GPGSA,A,3,26,31,18,16,10,,,,,,,,5.23,2.41,4.64*0E

$GPRMC,171611.000,A,0010.6996,S,07828.8130,W,0.09,332.11,150217,,,A*65

$GPRMC,171612.000,A,0010.6995,S,07828.8132,W,0.20,292.48,150217,,,A*6B

$GPVTG,292.48,T,,M,0.20,N,0.37,K,A*3E

$GPVTG,340.35,T,,M,0.19,N,0.34,K,A*33

$GPGGA,171614.000,0010.6996,S,07828.8131,W,1,05,1.57,2788.3,M,13.7,M,,*5D

$GPGGA,171615.000,0010.6998,S,07828.8130,W,1,05,2.41,2788.0,M,13.7,M,,*54

$GPGSA,A,3,26,31,18,16,10,,,,,,,,5.24,2.41,4.65*08

$GPVTG,273.32,T,,M,0.09,N,0.16,K,A*34

$GPGGA,171616.000,0010.6999,S,07828.8126,W,1,05,1.57,2787.8,M,13.7,M,,*52

$GPGGA,171617.000,0010.7000,S,07828.8123,W,1,05,1.57,2787.3,M,13.7,M,,*55

$GPGSA,A,3,26,31,18,16,10,,,,,,,,1.85,1.57,0.98*05

$GPGSA,A,3,26,31,18,16,10,,,,,,,,1.85,1.57,0.98*05

$GPRMC,171618.000,A,0010.6998,S,07828.8120,W,0.25,358.47,150217,,,A*62

$GPRMC,171619.000,A,0010.6997,S,07828.8117,W,0.03,15.91,150217,,,A*5D

$GPVTG,15.91,T,,M,0.03,N,0.06,K,A*04

$GPGSV,2,2,08,26,48,192,40,16,20,203,36,14,11,333,,04,,,19*4C

$GPRMC,171620.000,A,0010.6996,S,07828.8115,W,0.02,125.18,150217,,,A*66

$GPRMC,171621.000,A,0010.6996,S,07828.8112,W,0.15,117.30,150217,,,A*6D

$GPVTG,117.30,T,,M,0.15,N,0.28,K,A*37

$GPVTG,198.64,T,,M,0.14,N,0.25,K,A*3D

$GPGGA,171623.000,0010.6994,S,07828.8110,W,1,05,1.57,2782.3,M,13.7,M,,*52

$GPGGA,171624.000,0010.6994,S,07828.8109,W,1,05,1.57,2781.6,M,13.7,M,,*5B

$GPGSA,A,3,26,31,18,16,10,,,,,,,,1.85,1.57,0.98*05

$GPGSA,A,3,26,31,18,16,10,,,,,,,,1.85,1.57,0.98*05

$GPGSV,2,1,08,10,70,041,27,18,56,113,33,51,56,270,37,26,49,192,41*7D

$GPGGA,171626.000,0010.6992,S,07828.8108,W,1,05,1.57,2780.5,M,13.7,M,,*5C

$GPGSA,A,3,26,31,18,16,10,,,,,,,,1.85,1.57,0.98*05

$GPGSA,A,3,26,31,18,16,10,,,,,,,,1.85,1.57,0.98*05

$GPRMC,171627.000,A,0010.6992,S,07828.8107,W,0.06,256.42,150217,,,A*6A

$GPRMC,171628.000,A,0010.6992,S,07828.8107,W,0.12,334.15,150217,,,A*67

$GPVTG,334.15,T,,M,0.12,N,0.23,K,A*3F

$GPVTG,267.43,T,,M,0.11,N,0.20,K,A*3B

$GPGGA,171630.000,0010.6991,S,07828.8108,W,1,05,1.57,2779.7,M,13.7,M,,*5C

$GPRMC,171630.000,A,0010.6991,S,07828.8108,W,0.29,244.29,150217,,,A*63

$GPVTG,244.29,T,,M,0.29,N,0.54,K,A*3E

$GPVTG,218.77,T,,M,0.79,N,1.46,K,A*3B

$GPGGA,171632.000,0010.6997,S,07828.8114,W,1,05,1.57,2779.9,M,13.7,M,,*5B

$GPGGA,171633.000,0010.7003,S,07828.8115,W,1,05,1.57,2780.0,M,13.7,M,,*51

$GPGSA,A,3,26,31,18,16,10,,,,,,,,1.85,1.57,0.98*05

$GPGSA,A,3,26,31,18,16,10,,,,,,,,1.85,1.57,0.98*05

$GPRMC,171634.000,A,0010.7007,S,07828.8118,W,1.55,202.60,150217,,,A*64

$GPGSV,2,1,08,10,70,041,35,18,56,113,16,51,56,270,29,26,49,192,37*77

$GPGSV,2,2,08,31,49,318,33,16,20,203,35,14,11,333,,04,,,21*47

$GPGSA,A,3,26,31,18,16,10,,,,,,,,1.85,1.57,0.98*05

$GPRMC,171636.000,A,0010.7020,S,07828.8125,W,1.81,200.29,150217,,,A*6B

$GPRMC,171637.000,A,0010.7025,S,07828.8135,W,2.01,218.23,150217,,,A*66

$GPVTG,218.23,T,,M,2.01,N,3.73,K,A*33

$GPVTG,218.79,T,,M,1.97,N,3.64,K,A*36

$GPGGA,171639.000,0010.7037,S,07828.8141,W,1,05,1.57,2781.2,M,13.7,M,,*5E

$GPGGA,171640.000,0010.7044,S,07828.8143,W,1,05,1.57,2781.3,M,13.7,M,,*57

$GPGSA,A,3,26,31,18,16,10,,,,,,,,1.85,1.57,0.98*05

$GPVTG,207.43,T,,M,1.99,N,3.70,K,A*3A

$GPGGA,171641.000,0010.7048,S,07828.8148,W,1,05,1.57,2781.3,M,13.7,M,,*51

$GPGGA,171642.000,0010.7056,S,07828.8146,W,1,05,1.57,2781.3,M,13.7,M,,*53

$GPGSA,A,3,26,31,18,16,10,,,,,,,,1.85,1.57,0.98*05

$GPGSA,A,3,26,31,18,16,10,,,,,,,,1.85,1.57,0.98*05

$GPRMC,171643.000,A,0010.7062,S,07828.8146,W,1.97,195.07,150217,,,A*6E

$GPRMC,171644.000,A,0010.7067,S,07828.8147,W,1.90,196.64,150217,,,A*6C

$GPVTG,196.64,T,,M,1.90,N,3.52,K,A*3D

$GPGSV,2,2,08,31,49,318,27,16,20,203,34,14,11,333,,04,,,36*45

$GPRMC,171645.000,A,0010.7072,S,07828.8148,W,1.76,198.75,150217,,,A*60

$GPRMC,171646.000,A,0010.7079,S,07828.8148,W,2.03,197.45,150217,,,A*65

$GPVTG,197.45,T,,M,2.03,N,3.76,K,A*30

$GPVTG,197.00,T,,M,1.98,N,3.68,K,A*3F

$GPGGA,171648.000,0010.7091,S,07828.8148,W,1,05,1.57,2781.9,M,13.7,M,,*56

$GPGGA,171649.000,0010.7098,S,07828.8146,W,1,05,1.57,2781.9,M,13.7,M,,*50

$GPGSA,A,3,26,31,18,16,10,,,,,,,,1.85,1.57,0.98*05

$GPGSA,A,3,26,31,18,16,10,,,,,,,,1.85,1.57,0.98*05

$GPGSV,2,1,08,10,70,042,25,18,56,114,15,51,56,270,37,26,49,192,39*70

$GPGGA,171651.000,0010.7109,S,07828.8145,W,1,05,1.57,2781.8,M,13.7,M,,*52

$GPGSA,A,3,26,31,18,16,10,,,,,,,,1.85,1.57,0.98*05

$GPGSA,A,3,26,31,18,16,10,,,,,,,,1.85,1.57,0.98*05

$GPRMC,171652.000,A,0010.7115,S,07828.8146,W,1.97,187.55,150217,,,A*6B

$GPRMC,171653.000,A,0010.7121,S,07828.8146,W,2.00,185.25,150217,,,A*65

$GPVTG,185.25,T,,M,2.00,N,3.71,K,A*31

$GPVTG,185.74,T,,M,1.79,N,3.32,K,A*3F

$GPGGA,171655.000,0010.7132,S,07828.8150,W,1,05,1.57,2781.9,M,13.7,M,,*5B

$GPRMC,171655.000,A,0010.7132,S,07828.8150,W,1.89,190.65,150217,,,A*64

$GPVTG,190.65,T,,M,1.89,N,3.50,K,A*30

$GPVTG,197.18,T,,M,2.12,N,3.92,K,A*32

$GPGGA,171657.000,0010.7144,S,07828.8159,W,1,05,1.57,2781.9,M,13.7,M,,*51

$GPGGA,171658.000,0010.7149,S,07828.8161,W,1,05,1.58,2781.9,M,13.7,M,,*57

$GPGSA,A,3,26,31,18,16,10,,,,,,,,1.85,1.58,0.98*0A

$GPGSA,A,3,26,31,18,16,10,,,,,,,,1.85,1.57,0.98*05

$GPRMC,171659.000,A,0010.7155,S,07828.8157,W,1.98,195.09,150217,,,A*61

$GPGSV,2,1,08,10,70,042,24,18,56,114,40,51,56,270,30,26,49,192,38*77

$GPGSV,2,2,08,31,49,318,33,16,20,203,37,14,11,333,,04,,,39*4C

$GPGSA,A,3,26,31,18,16,10,,,,,,,,1.85,1.58,0.98*0A

$GPRMC,171701.000,A,0010.7166,S,07828.8164,W,2.12,210.38,150217,,,A*60

$GPRMC,171702.000,A,0010.7171,S,07828.8167,W,1.97,205.93,150217,,,A*6D

$GPVTG,205.93,T,,M,1.97,N,3.65,K,A*3F

$GPVTG,215.77,T,,M,1.73,N,3.21,K,A*3E

$GPGGA,171704.000,0010.7182,S,07828.8172,W,1,05,1.58,2781.9,M,13.7,M,,*5A

$GPGGA,171705.000,0010.7191,S,07828.8172,W,1,05,1.57,2781.9,M,13.7,M,,*56

$GPGSA,A,3,26,31,18,16,10,,,,,,,,1.85,1.57,0.98*05

$GPVTG,195.07,T,,M,2.37,N,4.39,K,A*3F

$GPGGA,171706.000,0010.7199,S,07828.8173,W,1,05,1.57,2781.9,M,13.7,M,,*5C

$GPGGA,171707.000,0010.7206,S,07828.8174,W,1,05,1.57,2782.0,M,13.7,M,,*55

$GPGSA,A,3,26,31,18,16,10,,,,,,,,1.85,1.57,0.98*05

$GPGSA,A,3,26,31,18,16,10,,,,,,,,1.85,1.58,0.98*0A

$GPRMC,171708.000,A,0010.7213,S,07828.8177,W,2.36,189.32,150217,,,A*65

$GPRMC,171709.000,A,0010.7219,S,07828.8177,W,2.24,187.19,150217,,,A*6A

$GPVTG,187.19,T,,M,2.24,N,4.15,K,A*3F

$GPGSV,2,2,07,31,49,318,38,16,20,203,38,14,11,333,*49

$GPRMC,171710.000,A,0010.7226,S,07828.8177,W,2.29,181.81,150217,,,A*64

$GPRMC,171711.000,A,0010.7231,S,07828.8177,W,2.19,179.85,150217,,,A*63

$GPVTG,179.85,T,,M,2.19,N,4.05,K,A*34

$GPVTG,176.93,T,,M,2.08,N,3.86,K,A*30

$GPGGA,171713.000,0010.7244,S,07828.8183,W,1,05,1.57,2782.3,M,13.7,M,,*5D

$GPGGA,171714.000,0010.7249,S,07828.8193,W,1,05,1.57,2782.4,M,13.7,M,,*51

$GPGSA,A,3,26,31,18,16,10,,,,,,,,1.85,1.57,0.98*05

$GPGSA,A,3,26,31,18,16,10,,,,,,,,1.85,1.58,0.98*0A

$GPGSV,2,1,07,10,70,042,30,18,56,114,41,51,56,270,25,26,49,192,39*79

$GPGGA,171716.000,0010.7259,S,07828.8199,W,1,05,1.57,2782.5,M,13.7,M,,*59

$GPGSA,A,3,26,31,18,16,10,,,,,,,,1.85,1.57,0.98*05

$GPGSA,A,3,26,31,18,16,10,,,,,,,,1.85,1.57,0.98*05

$GPRMC,171717.000,A,0010.7264,S,07828.8202,W,2.06,212.97,150217,,,A*67

$GPRMC,171718.000,A,0010.7268,S,07828.8204,W,1.75,213.24,150217,,,A*6C

$GPVTG,213.24,T,,M,1.75,N,3.24,K,A*3D

$GPVTG,216.22,T,,M,1.93,N,3.58,K,A*3D

$GPGGA,171720.000,0010.7281,S,07828.8209,W,1,05,1.58,2782.8,M,13.7,M,,*51

$GPRMC,171720.000,A,0010.7281,S,07828.8209,W,2.13,210.31,150217,,,A*69

$GPVTG,210.31,T,,M,2.13,N,3.94,K,A*32

$GPVTG,202.16,T,,M,2.16,N,4.00,K,A*3B

$GPGGA,171722.000,0010.7297,S,07828.8206,W,1,05,1.58,2782.9,M,13.7,M,,*5A

$GPGGA,171723.000,0010.7303,S,07828.8206,W,1,05,1.58,2783.0,M,13.7,M,,*5F

$GPGSA,A,3,26,31,18,16,10,,,,,,,,1.85,1.58,0.98*0A

$GPGSA,A,3,26,31,18,16,10,,,,,,,,1.85,1.58,0.98*0A

$GPRMC,171724.000,A,0010.7311,S,07828.8208,W,2.33,186.65,150217,,,A*6B

$GPGSV,2,1,07,10,70,043,37,18,56,114,24,51,56,270,37,26,49,192,40*71

$GPGSV,2,2,07,31,49,318,28,16,20,203,38,14,11,333,*48

$GPGSA,A,3,26,31,18,16,10,,,,,,,,1.85,1.57,0.98*05

$GPRMC,171726.000,A,0010.7323,S,07828.8210,W,2.34,189.92,150217,,,A*61

$GPRMC,171727.000,A,0010.7330,S,07828.8212,W,2.36,191.86,150217,,,A*6E

$GPVTG,191.86,T,,M,2.36,N,4.37,K,A*3D

$GPVTG,193.07,T,,M,2.43,N,4.50,K,A*35

$GPGGA,171729.000,0010.7343,S,07828.8216,W,1,05,1.58,2783.5,M,13.7,M,,*55

$GPGGA,171730.000,0010.7349,S,07828.8219,W,1,05,1.57,2783.6,M,13.7,M,,*54

$GPGSA,A,3,26,31,18,16,10,,,,,,,,1.85,1.57,0.98*05

$GPVTG,196.77,T,,M,2.26,N,4.18,K,A*38

$GPGGA,171731.000,0010.7355,S,07828.8223,W,1,05,1.57,2783.7,M,13.7,M,,*50

$GPGGA,171732.000,0010.7361,S,07828.8229,W,1,05,1.58,2783.9,M,13.7,M,,*5F

$GPGSA,A,3,26,31,18,16,10,,,,,,,,1.85,1.58,0.98*0A

$GPGSA,A,3,26,31,18,16,10,,,,,,,,1.85,1.58,0.98*0A

$GPRMC,171733.000,A,0010.7368,S,07828.8231,W,2.22,201.50,150217,,,A*63

$GPRMC,171734.000,A,0010.7375,S,07828.8233,W,2.30,198.65,150217,,,A*6C

$GPVTG,198.65,T,,M,2.30,N,4.26,K,A*3F

$GPGSV,2,2,07,31,49,318,35,16,20,203,37,14,11,333,*4B

$GPRMC,171735.000,A,0010.7381,S,07828.8235,W,2.38,198.82,150217,,,A*61

$GPRMC,171736.000,A,0010.7388,S,07828.8237,W,2.24,198.74,150217,,,A*6D

$GPVTG,198.74,T,,M,2.24,N,4.15,K,A*3A

$GPVTG,199.19,T,,M,2.22,N,4.12,K,A*31

$GPGGA,171738.000,0010.7400,S,07828.8244,W,1,05,1.58,2784.6,M,13.7,M,,*56

$GPGGA,171739.000,0010.7406,S,07828.8250,W,1,05,1.57,2784.8,M,13.7,M,,*55

$GPGSA,A,3,26,31,18,16,10,,,,,,,,1.85,1.57,0.98*05

$GPGSA,A,3,26,31,18,16,10,,,,,,,,1.85,1.58,0.98*0A

$GPGSV,2,1,07,10,70,043,28,18,56,114,32,51,56,270,26,26,49,192,40*78

$GPGGA,171741.000,0010.7419,S,07828.8255,W,1,05,1.58,2785.1,M,13.7,M,,*56

$GPGSA,A,3,26,31,18,16,10,,,,,,,,1.85,1.58,0.98*0A

$GPGSA,A,3,26,31,18,16,10,,,,,,,,1.85,1.58,0.98*0A

$GPRMC,171742.000,A,0010.7425,S,07828.8257,W,2.22,195.71,150217,,,A*66

$GPRMC,171743.000,A,0010.7429,S,07828.8262,W,1.86,210.04,150217,,,A*6C

$GPVTG,210.04,T,,M,1.86,N,3.45,K,A*37

$GPVTG,210.38,T,,M,1.92,N,3.56,K,A*3F

$GPGGA,171745.000,0010.7442,S,07828.8266,W,1,05,1.58,2785.4,M,13.7,M,,*59

$GPRMC,171745.000,A,0010.7442,S,07828.8266,W,2.13,205.67,150217,,,A*6D

$GPVTG,205.67,T,,M,2.13,N,3.96,K,A*37

$GPVTG,204.95,T,,M,2.26,N,4.19,K,A*3D

$GPGGA,171747.000,0010.7455,S,07828.8271,W,1,05,1.57,2785.6,M,13.7,M,,*56

$GPGGA,171748.000,0010.7461,S,07828.8273,W,1,05,1.58,2785.6,M,13.7,M,,*53

$GPGSA,A,3,26,31,18,16,10,,,,,,,,1.85,1.58,0.98*0A

$GPGSA,A,3,26,31,18,16,10,,,,,,,,1.85,1.58,0.98*0A

$GPRMC,171749.000,A,0010.7470,S,07828.8277,W,2.63,204.32,150217,,,A*66

$GPGSV,2,1,07,10,70,043,39,18,56,114,19,51,56,270,36,26,49,192,39*7E

$GPGSV,2,2,07,31,49,319,22,16,20,203,35,14,11,333,*4E

$GPGSA,A,3,26,31,18,16,10,,,,,,,,1.85,1.58,0.98*0A

$GPRMC,171751.000,A,0010.7482,S,07828.8284,W,2.36,208.49,150217,,,A*6E

$GPRMC,171752.000,A,0010.7486,S,07828.8288,W,2.30,212.52,150217,,,A*62

$GPVTG,212.52,T,,M,2.30,N,4.27,K,A*3B

$GPVTG,215.75,T,,M,2.29,N,4.24,K,A*32

$GPGGA,171754.000,0010.7496,S,07828.8294,W,1,05,1.58,2786.1,M,13.7,M,,*5B

$GPGGA,171755.000,0010.7500,S,07828.8296,W,1,05,1.58,2786.1,M,13.7,M,,*56

$GPGSA,A,3,26,31,18,16,10,,,,,,,,1.85,1.58,0.98*0A

$GPVTG,213.61,T,,M,2.06,N,3.82,K,A*37

$GPGGA,171756.000,0010.7504,S,07828.8299,W,1,05,1.58,2786.2,M,13.7,M,,*5D

$GPGGA,171757.000,0010.7510,S,07828.8300,W,1,05,1.57,2786.2,M,13.7,M,,*57

$GPGSA,A,3,26,31,18,16,10,,,,,,,,1.85,1.57,0.98*05

$GPGSA,A,3,26,31,18,16,10,,,,,,,,1.85,1.58,0.98*0A

$GPRMC,171758.000,A,0010.7515,S,07828.8304,W,2.33,211.32,150217,,,A*60

$GPRMC,171759.000,A,0010.7523,S,07828.8300,W,2.15,202.63,150217,,,A*62

$GPVTG,202.63,T,,M,2.15,N,3.99,K,A*3D

$GPGSV,2,2,07,31,49,319,22,16,20,203,36,14,11,334,*4A

$GPRMC,171800.000,A,0010.7529,S,07828.8303,W,2.26,203.83,150217,,,A*67

$GPRMC,171801.000,A,0010.7534,S,07828.8306,W,2.06,207.10,150217,,,A*63

$GPVTG,207.10,T,,M,2.06,N,3.82,K,A*34

$GPVTG,205.56,T,,M,2.12,N,3.93,K,A*31

$GPGGA,171803.000,0010.7549,S,07828.8303,W,1,05,1.58,2786.2,M,13.7,M,,*59

$GPGGA,171804.000,0010.7555,S,07828.8305,W,1,05,1.58,2786.2,M,13.7,M,,*55

$GPGSA,A,3,26,31,18,16,10,,,,,,,,1.85,1.58,0.98*0A

$GPGSA,A,3,26,31,18,16,10,,,,,,,,1.85,1.58,0.98*0A

$GPGSV,2,1,07,10,70,043,36,18,56,114,23,51,56,270,29,26,49,192,37*78

$GPGGA,171806.000,0010.7571,S,07828.8305,W,1,05,1.58,2786.3,M,13.7,M,,*50

$GPGSA,A,3,26,31,18,16,10,,,,,,,,1.86,1.58,0.98*09

$GPGSA,A,3,26,31,18,16,10,,,,,,,,1.86,1.58,0.98*09

$GPRMC,171807.000,A,0010.7576,S,07828.8306,W,2.11,198.58,150217,,,A*6C

$GPRMC,171808.000,A,0010.7582,S,07828.8307,W,2.01,199.68,150217,,,A*6A

$GPVTG,199.68,T,,M,2.01,N,3.72,K,A*37

$GPVTG,190.85,T,,M,1.91,N,3.54,K,A*33

$GPGGA,171810.000,0010.7594,S,07828.8307,W,1,05,1.58,2786.4,M,13.7,M,,*59

$GPRMC,171810.000,A,0010.7594,S,07828.8307,W,1.90,194.36,150217,,,A*69

$GPVTG,194.36,T,,M,1.90,N,3.51,K,A*3B

$GPVTG,188.79,T,,M,2.00,N,3.70,K,A*34

$GPGGA,171812.000,0010.7607,S,07828.8306,W,1,05,1.58,2786.5,M,13.7,M,,*52

$GPGGA,171813.000,0010.7614,S,07828.8304,W,1,05,1.58,2786.6,M,13.7,M,,*50

$GPGSA,A,3,26,31,18,16,10,,,,,,,,1.85,1.58,0.98*0A

$GPGSA,A,3,26,31,18,16,10,,,,,,,,1.85,1.58,0.98*0A

$GPRMC,171814.000,A,0010.7621,S,07828.8305,W,2.12,186.01,150217,,,A*6C

$GPGSV,2,1,07,10,70,043,34,18,56,114,23,51,56,270,28,26,49,192,40*7B

$GPGSV,2,2,07,31,49,319,34,16,20,203,34,14,11,334,*4F

$GPGSA,A,3,26,31,18,16,10,,,,,,,,1.85,1.58,0.98*0A

$GPRMC,171816.000,A,0010.7633,S,07828.8308,W,2.13,192.17,150217,,,A*63

$GPRMC,171817.000,A,0010.7639,S,07828.8310,W,2.13,193.67,150217,,,A*67

$GPVTG,193.67,T,,M,2.13,N,3.95,K,A*38

$GPVTG,191.55,T,,M,2.15,N,3.99,K,A*31

$GPGGA,171819.000,0010.7651,S,07828.8312,W,1,05,1.58,2786.4,M,13.7,M,,*5E

$GPGGA,171820.000,0010.7657,S,07828.8315,W,1,05,1.58,2786.4,M,13.7,M,,*55

$GPGSA,A,3,26,31,18,16,10,,,,,,,,1.85,1.58,0.98*0A

$GPVTG,195.65,T,,M,2.24,N,4.15,K,A*37

$GPGGA,171821.000,0010.7663,S,07828.8316,W,1,05,1.58,2786.4,M,13.7,M,,*50

$GPGGA,171822.000,0010.7668,S,07828.8317,W,1,05,1.58,2786.5,M,13.7,M,,*58

$GPGSA,A,3,26,31,18,16,10,,,,,,,,1.86,1.58,0.98*09

$GPGSA,A,3,26,31,18,16,10,,,,,,,,1.85,1.58,0.98*0A

$GPRMC,171823.000,A,0010.7674,S,07828.8317,W,1.85,191.07,150217,,,A*66

$GPRMC,171824.000,A,0010.7681,S,07828.8314,W,1.97,184.59,150217,,,A*64

$GPVTG,184.59,T,,M,1.97,N,3.65,K,A*33

$GPGSV,2,2,07,31,49,319,38,16,20,203,36,14,11,334,*41

$GPRMC,171825.000,A,0010.7691,S,07828.8310,W,2.33,180.79,150217,,,A*6B

$GPRMC,171826.000,A,0010.7699,S,07828.8309,W,2.43,180.46,150217,,,A*63

$GPVTG,180.46,T,,M,2.43,N,4.49,K,A*3A

$GPVTG,183.22,T,,M,2.30,N,4.25,K,A*35

$GPGGA,171828.000,0010.7713,S,07828.8308,W,1,05,1.58,2786.6,M,13.7,M,,*52

$GPGGA,171829.000,0010.7719,S,07828.8305,W,1,05,1.58,2786.6,M,13.7,M,,*54

$GPGSA,A,3,26,31,18,16,10,,,,,,,,1.86,1.58,0.98*09

$GPGSA,A,3,26,31,18,16,10,,,,,,,,1.85,1.58,0.98*0A

$GPGSV,2,1,07,10,70,044,26,18,56,114,38,51,56,270,30,26,49,192,35*7E

$GPGGA,171831.000,0010.7726,S,07828.8301,W,1,05,1.58,2786.6,M,13.7,M,,*55

$GPGSA,A,3,26,31,18,16,10,,,,,,,,1.85,1.58,0.98*0A

$GPGSA,A,3,26,31,18,16,10,,,,,,,,1.85,1.58,0.98*0A

$GPRMC,171832.000,A,0010.7729,S,07828.8298,W,1.23,156.82,150217,,,A*63

$GPRMC,171833.000,A,0010.7732,S,07828.8291,W,1.25,130.93,150217,,,A*67

$GPVTG,130.93,T,,M,1.25,N,2.32,K,A*30

$GPVTG,123.24,T,,M,1.40,N,2.59,K,A*30

$GPGGA,171835.000,0010.7740,S,07828.8280,W,1,05,1.58,2786.7,M,13.7,M,,*58

$GPRMC,171835.000,A,0010.7740,S,07828.8280,W,1.62,126.38,150217,,,A*61

$GPVTG,126.38,T,,M,1.62,N,3.00,K,A*35

$GPVTG,117.32,T,,M,1.86,N,3.45,K,A*36

$GPGGA,171837.000,0010.7750,S,07828.8261,W,1,05,1.58,2786.7,M,13.7,M,,*54

$GPGGA,171838.000,0010.7750,S,07828.8253,W,1,05,1.58,2786.6,M,13.7,M,,*5B

$GPGSA,A,3,26,31,18,16,10,,,,,,,,1.86,1.58,0.98*09

$GPGSA,A,3,26,31,18,16,10,,,,,,,,1.85,1.58,0.98*0A

$GPRMC,171839.000,A,0010.7751,S,07828.8247,W,2.03,107.90,150217,,,A*63

$GPGSV,2,1,07,10,70,044,42,18,56,115,39,51,56,270,30,26,49,192,16*7D

$GPGSV,2,2,07,31,49,319,32,16,21,203,17,14,12,334,*4A

$GPGSA,A,3,26,31,18,16,10,,,,,,,,1.86,1.58,0.98*09

$GPRMC,171841.000,A,0010.7757,S,07828.8240,W,1.43,117.04,150217,,,A*66

$GPRMC,171842.000,A,0010.7760,S,07828.8236,W,1.47,122.83,150217,,,A*6D

$GPVTG,122.83,T,,M,1.47,N,2.72,K,A*32

$GPVTG,124.42,T,,M,1.50,N,2.78,K,A*35

$GPGGA,171844.000,0010.7766,S,07828.8229,W,1,05,1.58,2786.5,M,13.7,M,,*5B

$GPGGA,171845.000,0010.7768,S,07828.8226,W,1,05,1.58,2786.5,M,13.7,M,,*5B

$GPGSA,A,3,26,31,18,16,10,,,,,,,,1.86,1.58,0.98*09

$GPVTG,126.68,T,,M,1.16,N,2.15,K,A*36

$GPGGA,171846.000,0010.7769,S,07828.8223,W,1,05,1.58,2786.5,M,13.7,M,,*5C

$GPGGA,171847.000,0010.7770,S,07828.8221,W,1,05,1.58,2786.5,M,13.7,M,,*57

$GPGSA,A,3,26,31,18,16,10,,,,,,,,1.85,1.58,0.98*0A

$GPGSA,A,3,26,31,18,16,10,,,,,,,,1.86,1.58,0.98*09

$GPRMC,171848.000,A,0010.7773,S,07828.8218,W,1.02,125.21,150217,,,A*67

$GPRMC,171849.000,A,0010.7776,S,07828.8214,W,1.06,125.00,150217,,,A*68

$GPVTG,125.00,T,,M,1.06,N,1.96,K,A*32

$GPGSV,2,2,07,31,48,319,23,16,21,203,11,14,12,334,*4D

$GPRMC,171850.000,A,0010.7779,S,07828.8210,W,1.19,126.87,150217,,,A*69

$GPRMC,171851.000,A,0010.7782,S,07828.8207,W,1.19,125.20,150217,,,A*64

$GPVTG,125.20,T,,M,1.19,N,2.21,K,A*31

$GPVTG,125.66,T,,M,1.26,N,2.33,K,A*3C

$GPGGA,171853.000,0010.7792,S,07828.8199,W,1,05,1.58,2786.5,M,13.7,M,,*5E

$GPGGA,171854.000,0010.7802,S,07828.8197,W,1,05,1.58,2786.5,M,13.7,M,,*51

$GPGSA,A,3,26,31,18,16,10,,,,,,,,1.85,1.58,0.98*0A

$GPGSA,A,3,26,31,18,16,10,,,,,,,,1.86,1.58,0.98*09

$GPGSV,2,1,07,10,70,044,33,18,56,115,38,51,56,270,28,26,50,192,16*7B

$GPGGA,171856.000,0010.7807,S,07828.8192,W,1,05,1.58,2786.5,M,13.7,M,,*53

$GPGSA,A,3,26,31,18,16,10,,,,,,,,1.86,1.58,0.98*09

$GPGSA,A,3,26,31,18,16,10,,,,,,,,1.86,1.58,0.98*09

$GPRMC,171857.000,A,0010.7811,S,07828.8187,W,1.32,137.24,150217,,,A*62

$GPRMC,171858.000,A,0010.7814,S,07828.8183,W,1.30,137.36,150217,,,A*6D

$GPVTG,137.36,T,,M,1.30,N,2.41,K,A*38

$GPVTG,142.54,T,,M,1.19,N,2.20,K,A*32

$GPGGA,171900.000,0010.7823,S,07828.8176,W,1,05,1.58,2786.5,M,13.7,M,,*5D

$GPRMC,171900.000,A,0010.7823,S,07828.8176,W,1.26,140.44,150217,,,A*6D

$GPVTG,140.44,T,,M,1.26,N,2.33,K,A*3F

$GPVTG,139.96,T,,M,1.39,N,2.58,K,A*3D

$GPGGA,171902.000,0010.7835,S,07828.8167,W,1,05,1.58,2786.5,M,13.7,M,,*58

$GPGGA,171903.000,0010.7840,S,07828.8163,W,1,05,1.58,2786.5,M,13.7,M,,*5F

$GPGSA,A,3,26,31,18,16,10,,,,,,,,1.86,1.58,0.98*09

$GPGSA,A,3,26,31,18,16,10,,,,,,,,1.86,1.58,0.98*09

$GPRMC,171904.000,A,0010.7841,S,07828.8155,W,1.67,137.98,150217,,,A*68

$GPGSV,2,1,07,10,71,045,27,18,56,115,35,51,56,270,25,26,50,192,17*7F

$GPGSV,2,2,07,31,48,319,25,16,21,203,11,14,12,334,*4B

$GPGSA,A,3,26,31,18,16,10,,,,,,,,1.86,1.58,0.98*09

$GPRMC,171906.000,A,0010.7835,S,07828.8123,W,1.93,123.24,150217,,,A*61

$GPRMC,171907.000,A,0010.7831,S,07828.8110,W,1.97,118.14,150217,,,A*6B

$GPVTG,118.14,T,,M,1.97,N,3.65,K,A*3F

$GPVTG,114.10,T,,M,2.04,N,3.78,K,A*32

$GPGGA,171909.000,0010.7827,S,07828.8087,W,1,05,1.58,2786.4,M,13.7,M,,*5E

$GPGGA,171910.000,0010.7811,S,07828.8063,W,1,05,1.58,2786.3,M,13.7,M,,*5E

$GPGSA,A,3,26,31,18,16,10,,,,,,,,1.86,1.58,0.98*09

$GPVTG,101.32,T,,M,2.30,N,4.27,K,A*3C

$GPGGA,171911.000,0010.7798,S,07828.8042,W,1,05,1.58,2786.3,M,13.7,M,,*52

$GPGGA,171912.000,0010.7791,S,07828.8025,W,1,05,1.58,2786.2,M,13.7,M,,*58

$GPGSA,A,3,26,31,18,16,10,,,,,,,,1.86,1.58,0.98*09

$GPGSA,A,3,26,31,18,16,10,,,,,,,,1.86,1.58,0.98*09

$GPRMC,171913.000,A,0010.7794,S,07828.8019,W,2.49,91.72,150217,,,A*56

$GPRMC,171914.000,A,0010.7800,S,07828.8015,W,2.40,95.19,150217,,,A*5F

$GPVTG,95.19,T,,M,2.40,N,4.44,K,A*0B

$GPGSV,2,2,07,31,48,319,25,16,21,203,15,14,12,334,*4F

$GPRMC,171915.000,A,0010.7802,S,07828.8008,W,2.37,95.45,150217,,,A*59

$GPRMC,171916.000,A,0010.7805,S,07828.8002,W,2.24,95.30,150217,,,A*57

$GPVTG,95.30,T,,M,2.24,N,4.16,K,A*05

$GPVTG,94.38,T,,M,2.27,N,4.20,K,A*0A

$GPGGA,171918.000,0010.7800,S,07828.7981,W,1,05,1.58,2786.1,M,13.7,M,,*5E

$GPGGA,171919.000,0010.7798,S,07828.7972,W,1,05,1.58,2786.0,M,13.7,M,,*5C

$GPGSA,A,3,26,31,18,16,10,,,,,,,,1.86,1.58,0.98*09

$GPGSA,A,3,26,31,18,16,10,,,,,,,,1.86,1.58,0.98*09

$GPGSV,2,1,07,10,71,045,40,18,56,115,38,51,56,270,28,26,50,192,28*72

$GPGGA,171921.000,0010.7801,S,07828.7968,W,1,05,1.58,2786.0,M,13.7,M,,*53

$GPGSA,A,3,26,31,18,16,10,,,,,,,,1.86,1.58,0.98*09

$GPGSA,A,3,26,31,18,16,10,,,,,,,,1.86,1.58,0.98*09

$GPRMC,171922.000,A,0010.7803,S,07828.7966,W,0.62,82.85,150217,,,A*5A

$GPRMC,171923.000,A,0010.7804,S,07828.7964,W,0.59,90.07,150217,,,A*5F

$GPVTG,90.07,T,,M,0.59,N,1.09,K,A*07

$GPVTG,106.36,T,,M,0.54,N,1.00,K,A*3F

$GPGGA,171925.000,0010.7810,S,07828.7964,W,1,05,1.58,2785.9,M,13.7,M,,*51

$GPRMC,171925.000,A,0010.7810,S,07828.7964,W,0.53,165.88,150217,,,A*6A

$GPVTG,165.88,T,,M,0.53,N,0.98,K,A*38

$GPVTG,160.54,T,,M,0.69,N,1.28,K,A*3F

$GPGGA,171927.000,0010.7820,S,07828.7964,W,1,05,1.58,2785.9,M,13.7,M,,*50

$GPGGA,171928.000,0010.7826,S,07828.7967,W,1,05,1.58,2785.9,M,13.7,M,,*5A

$GPGSA,A,3,26,31,18,16,10,,,,,,,,1.86,1.58,0.98*09

$GPGSA,A,3,26,31,18,16,10,,,,,,,,1.86,1.58,0.98*09

$GPRMC,171929.000,A,0010.7831,S,07828.7970,W,1.46,200.60,150217,,,A*63

$GPGSV,2,1,07,10,71,045,33,18,56,115,40,51,56,270,34,26,50,192,36*7B

$GPGSV,2,2,07,31,48,320,24,16,21,203,17,14,12,334,*46

$GPGSA,A,3,26,31,18,16,10,,,,,,,,1.86,1.58,0.98*09

$GPRMC,171931.000,A,0010.7841,S,07828.7973,W,1.60,194.39,150217,,,A*68

$GPRMC,171932.000,A,0010.7846,S,07828.7972,W,1.66,189.92,150217,,,A*66

$GPVTG,189.92,T,,M,1.66,N,3.08,K,A*3C

$GPVTG,188.02,T,,M,1.89,N,3.50,K,A*38

$GPGGA,171934.000,0010.7859,S,07828.7976,W,1,05,1.58,2786.0,M,13.7,M,,*55

$GPGGA,171935.000,0010.7864,S,07828.7978,W,1,05,1.58,2786.0,M,13.7,M,,*54

$GPGSA,A,3,26,31,18,16,10,,,,,,,,1.86,1.58,0.98*09

$GPVTG,198.72,T,,M,1.98,N,3.68,K,A*35

$GPGGA,171936.000,0010.7870,S,07828.7978,W,1,05,1.58,2786.0,M,13.7,M,,*52

$GPGGA,171937.000,0010.7875,S,07828.7980,W,1,05,1.58,2786.0,M,13.7,M,,*51

$GPGSA,A,3,26,31,18,16,10,,,,,,,,1.86,1.58,0.98*09

$GPGSA,A,3,26,31,18,16,10,,,,,,,,1.86,1.58,0.98*09

$GPRMC,171938.000,A,0010.7880,S,07828.7982,W,2.01,195.25,150217,,,A*6A

$GPRMC,171939.000,A,0010.7886,S,07828.7984,W,1.99,194.41,150217,,,A*6A

$GPVTG,194.41,T,,M,1.99,N,3.69,K,A*39

$GPGSV,2,2,07,31,48,320,28,16,21,203,16,14,12,334,*4B

$GPRMC,171940.000,A,0010.7893,S,07828.7986,W,2.11,198.53,150217,,,A*6E

$GPRMC,171941.000,A,0010.7900,S,07828.7986,W,2.17,191.53,150217,,,A*6B

$GPVTG,191.53,T,,M,2.17,N,4.02,K,A*30

$GPVTG,188.63,T,,M,2.26,N,4.19,K,A*33

$GPGGA,171943.000,0010.7913,S,07828.7988,W,1,05,1.58,2786.1,M,13.7,M,,*5A

$GPGGA,171944.000,0010.7920,S,07828.7988,W,1,05,1.58,2786.2,M,13.7,M,,*5E

$GPGSA,A,3,26,31,18,16,10,,,,,,,,1.86,1.58,0.98*09

$GPGSA,A,3,26,31,18,16,10,,,,,,,,1.86,1.58,0.98*09

$GPGSV,2,1,07,10,71,046,30,18,56,115,31,51,56,270,,26,50,192,40*7B

$GPGGA,171946.000,0010.7933,S,07828.7987,W,1,05,1.58,2786.2,M,13.7,M,,*51

$GPGSA,A,3,26,31,18,16,10,,,,,,,,1.86,1.58,0.98*09

$GPGSA,A,3,26,31,18,16,10,,,,,,,,1.86,1.58,0.98*09

$GPRMC,171947.000,A,0010.7940,S,07828.7988,W,2.21,188.42,150217,,,A*6A

$GPRMC,171948.000,A,0010.7948,S,07828.7987,W,2.24,184.98,150217,,,A*6C

$GPVTG,184.98,T,,M,2.24,N,4.14,K,A*34

$GPVTG,191.52,T,,M,2.37,N,4.38,K,A*3A

$GPGGA,171950.000,0010.7960,S,07828.7993,W,1,05,1.58,2786.3,M,13.7,M,,*54

$GPRMC,171950.000,A,0010.7960,S,07828.7993,W,2.31,194.61,150217,,,A*69

$GPVTG,194.61,T,,M,2.31,N,4.28,K,A*38

$GPVTG,196.13,T,,M,2.38,N,4.41,K,A*39

$GPGGA,171952.000,0010.7974,S,07828.7997,W,1,05,1.58,2786.4,M,13.7,M,,*50

$GPGGA,171953.000,0010.7981,S,07828.7997,W,1,05,1.58,2786.4,M,13.7,M,,*5B

$GPGSA,A,3,26,31,18,16,10,,,,,,,,1.86,1.58,0.98*09

$GPGSA,A,3,26,31,18,16,10,,,,,,,,1.86,1.58,0.98*09

$GPRMC,171954.000,A,0010.7989,S,07828.7997,W,2.21,190.24,150217,,,A*6A

$GPGSV,2,1,07,10,71,046,36,51,56,270,31,18,55,116,39,26,50,192,38*78

$GPGSV,2,2,07,31,48,320,21,16,21,202,17,14,12,334,*42

$GPGSA,A,3,26,31,18,16,10,,,,,,,,1.86,1.58,0.98*09

$GPRMC,171956.000,A,0010.8004,S,07828.7996,W,2.25,184.92,150217,,,A*66

$GPRMC,171957.000,A,0010.8011,S,07828.7998,W,2.30,188.32,150217,,,A*6F

$GPVTG,188.32,T,,M,2.30,N,4.27,K,A*3D

$GPVTG,190.23,T,,M,2.09,N,3.88,K,A*3C

$GPGGA,171959.000,0010.8025,S,07828.7998,W,1,05,1.58,2786.6,M,13.7,M,,*54

$GPGGA,172000.000,0010.8031,S,07828.7999,W,1,05,1.58,2786.6,M,13.7,M,,*56

$GPGSA,A,3,26,31,18,16,10,,,,,,,,1.86,1.58,0.98*09

$GPVTG,189.92,T,,M,2.23,N,4.13,K,A*33

$GPGGA,172001.000,0010.8036,S,07828.8001,W,1,05,1.58,2786.7,M,13.7,M,,*56

$GPGGA,172002.000,0010.8043,S,07828.8002,W,1,05,1.58,2786.7,M,13.7,M,,*54

$GPGSA,A,3,26,31,18,16,10,,,,,,,,1.86,1.58,0.98*09

$GPGSA,A,3,26,31,18,16,10,,,,,,,,1.86,1.58,0.98*09

$GPRMC,172003.000,A,0010.8049,S,07828.8002,W,2.09,188.88,150217,,,A*67

$GPRMC,172004.000,A,0010.8056,S,07828.8004,W,2.30,193.16,150217,,,A*6F

$GPVTG,193.16,T,,M,2.30,N,4.27,K,A*31

$GPGSV,2,2,08,31,48,320,20,16,21,202,19,14,12,334,,32,,,24*45

$GPRMC,172005.000,A,0010.8062,S,07828.8006,W,2.25,196.03,150217,,,A*6E

$GPRMC,172006.000,A,0010.8069,S,07828.8006,W,2.25,192.22,150217,,,A*61

$GPVTG,192.22,T,,M,2.25,N,4.17,K,A*30

$GPVTG,190.48,T,,M,2.11,N,3.92,K,A*33

$GPGGA,172008.000,0010.8083,S,07828.8006,W,1,05,1.58,2786.9,M,13.7,M,,*58

$GPGGA,172009.000,0010.8090,S,07828.8006,W,1,05,1.58,2786.9,M,13.7,M,,*5B

$GPGSA,A,3,26,31,18,16,10,,,,,,,,1.86,1.58,0.98*09

$GPGSA,A,3,26,31,18,16,10,,,,,,,,1.86,1.58,0.98*09

$GPGSV,2,1,08,10,71,046,35,18,55,116,37,26,50,192,38,31,48,320,20*77

$GPGGA,172011.000,0010.8105,S,07828.8008,W,1,05,1.58,2786.6,M,13.7,M,,*5E

$GPGSA,A,3,26,31,18,16,10,,,,,,,,1.86,1.58,0.98*09

$GPGSA,A,3,26,31,18,16,10,,,,,,,,1.86,1.58,0.98*09

$GPRMC,172012.000,A,0010.8113,S,07828.8010,W,2.30,191.50,150217,,,A*6D

$GPRMC,172013.000,A,0010.8119,S,07828.8012,W,2.29,196.81,150217,,,A*67

$GPVTG,196.81,T,,M,2.29,N,4.24,K,A*31

$GPVTG,193.11,T,,M,2.26,N,4.20,K,A*36

$GPGGA,172015.000,0010.8132,S,07828.8014,W,1,05,1.58,2786.6,M,13.7,M,,*53

$GPGSV,3,3,09,32,,,28*7B

$GPRMC,172015.000,A,0010.8132,S,07828.8014,W,2.13,194.72,150217,,,A*69

$GPRMC,172016.000,A,0010.8139,S,07828.8016,W,2.27,195.64,150217,,,A*62

$GPVTG,195.64,T,,M,2.27,N,4.20,K,A*33

$GPVTG,197.48,T,,M,2.24,N,4.16,K,A*39

$GPGGA,172018.000,0010.8151,S,07828.8018,W,1,05,1.58,2786.8,M,13.7,M,,*59

$GPGGA,172019.000,0010.8157,S,07828.8018,W,1,05,1.58,2786.9,M,13.7,M,,*5F

$GPGSA,A,3,26,31,18,16,10,,,,,,,,1.86,1.58,0.98*09

$GPGSA,A,3,26,31,18,16,10,,,,,,,,1.86,1.58,0.98*09

$GPGSV,3,1,09,10,71,046,24,18,55,116,39,26,50,192,39,31,48,320,22*7A

$GPVTG,194.67,T,,M,2.34,N,4.34,K,A*36

$GPGGA,172021.000,0010.8175,S,07828.8015,W,1,05,1.58,2787.1,M,13.7,M,,*50

$GPGGA,172022.000,0010.8191,S,07828.8006,W,1,05,1.58,2787.4,M,13.7,M,,*5E

$GPGSA,A,3,26,31,18,16,10,,,,,,,,1.86,1.58,0.98*09

$GPGSA,A,3,26,31,18,16,10,,,,,,,,1.86,1.58,0.98*09

$GPRMC,172023.000,A,0010.8201,S,07828.8004,W,2.37,187.10,150217,,,A*6E

$GPRMC,172024.000,A,0010.8209,S,07828.8002,W,2.37,185.09,150217,,,A*6D

$GPVTG,185.09,T,,M,2.37,N,4.39,K,A*30

$GPGSV,3,2,09,21,23,164,,16,21,202,20,33,18,090,,14,12,334,*74

$GPGSV,3,3,09,32,,,28*7B

$GPGSA,A,3,26,31,18,16,10,,,,,,,,1.86,1.58,0.98*09

$GPRMC,172026.000,A,0010.8223,S,07828.8003,W,2.49,184.18,150217,,,A*6E

$GPRMC,172027.000,A,0010.8229,S,07828.8003,W,2.36,185.48,150217,,,A*69

$GPVTG,185.48,T,,M,2.36,N,4.37,K,A*3A

$GPVTG,186.53,T,,M,2.31,N,4.28,K,A*3A

$GPGGA,172029.000,0010.8243,S,07828.8002,W,1,05,1.58,2788.2,M,13.7,M,,*54

$GPGGA,172030.000,0010.8250,S,07828.8002,W,1,05,1.58,2788.4,M,13.7,M,,*58

$GPGSA,A,3,26,31,18,16,10,,,,,,,,1.86,1.58,0.98*09

$GPRMC,172030.000,A,0010.8250,S,07828.8002,W,2.38,183.92,150217,,,A*6F

$GPVTG,183.92,T,,M,2.38,N,4.40,K,A*35

$GPVTG,181.62,T,,M,2.38,N,4.42,K,A*3A

$GPGGA,172032.000,0010.8264,S,07828.8001,W,1,05,1.58,2789.0,M,13.7,M,,*5B

$GPGGA,172033.000,0010.8271,S,07828.8002,W,1,05,1.58,2789.2,M,13.7,M,,*5F

$GPGSA,A,3,26,31,18,16,10,,,,,,,,1.86,1.58,0.98*09

$GPGSA,A,3,26,31,18,16,10,,,,,,,,1.86,1.58,0.98*09

$GPRMC,172034.000,A,0010.8279,S,07828.8001,W,2.23,190.11,150217,,,A*60

$GPGSV,3,1,09,10,71,046,31,51,56,270,24,18,55,116,37,26,51,192,38*7B

$GPGSV,3,2,09,31,48,320,24,21,23,164,20,16,21,202,22,14,12,334,*7D

$GPGGA,172036.000,0010.8297,S,07828.8003,W,1,05,1.58,2789.7,M,13.7,M,,*56

$GPGSA,A,3,26,31,18,16,10,,,,,,,,1.86,1.58,0.98*09

$GPGSA,A,3,26,31,18,16,10,,,,,,,,1.86,1.58,0.98*09

$GPRMC,172037.000,A,0010.8304,S,07828.8003,W,2.28,196.87,150217,,,A*68

$GPRMC,172038.000,A,0010.8312,S,07828.8004,W,2.37,195.72,150217,,,A*60

$GPVTG,195.72,T,,M,2.37,N,4.40,K,A*33

$GPVTG,198.16,T,,M,2.33,N,4.33,K,A*3C

$GPGGA,172040.000,0010.8327,S,07828.8007,W,1,05,1.58,2790.2,M,13.7,M,,*54

$GPGSV,3,3,09,32,,,26*75

$GPRMC,172040.000,A,0010.8327,S,07828.8007,W,2.33,197.01,150217,,,A*68

$GPRMC,172041.000,A,0010.8334,S,07828.8009,W,2.39,197.37,150217,,,A*6A

$GPVTG,197.37,T,,M,2.39,N,4.43,K,A*3D

$GPVTG,196.14,T,,M,2.39,N,4.42,K,A*3C

$GPGGA,172043.000,0010.8348,S,07828.8013,W,1,05,1.58,2790.5,M,13.7,M,,*5C

$GPGGA,172044.000,0010.8355,S,07828.8013,W,1,05,1.58,2790.6,M,13.7,M,,*54

$GPGSA,A,3,26,31,18,16,10,,,,,,,,1.86,1.58,0.98*09

$GPGSA,A,3,26,31,18,16,10,,,,,,,,1.86,1.58,0.98*09

$GPGSV,3,1,09,10,71,046,33,18,55,116,37,26,51,192,38,31,48,321,35*75

$GPVTG,205.02,T,,M,2.00,N,3.71,K,A*3F

$GPGGA,172046.000,0010.8368,S,07828.8015,W,1,05,1.58,2791.0,M,13.7,M,,*59

$GPGGA,172047.000,0010.8374,S,07828.8017,W,1,05,1.58,2791.0,M,13.7,M,,*57

$GPGSA,A,3,26,31,18,16,10,,,,,,,,1.86,1.58,0.98*09

$GPGSA,A,3,26,31,18,16,10,,,,,,,,1.86,1.58,0.98*09

$GPRMC,172048.000,A,0010.8380,S,07828.8017,W,1.80,210.85,150217,,,A*67

$GPRMC,172049.000,A,0010.8385,S,07828.8018,W,1.75,209.01,150217,,,A*62

$GPVTG,209.01,T,,M,1.75,N,3.25,K,A*30

$GPGSV,3,2,09,48,27,270,,21,23,164,20,16,21,202,22,14,12,334,*78

$GPGSV,3,3,09,32,,,29*7A

$GPGSA,A,3,26,31,18,16,10,,,,,,,,1.86,1.58,0.98*09

$GPRMC,172051.000,A,0010.8396,S,07828.8018,W,1.72,210.38,150217,,,A*6C

$GPRMC,172052.000,A,0010.8403,S,07828.8020,W,1.89,210.43,150217,,,A*67

$GPVTG,210.43,T,,M,1.89,N,3.51,K,A*3E

$GPVTG,207.74,T,,M,2.05,N,3.79,K,A*31

$GPGGA,172054.000,0010.8417,S,07828.8023,W,1,05,1.58,2792.0,M,13.7,M,,*53

$GPGGA,172055.000,0010.8423,S,07828.8026,W,1,05,1.58,2792.1,M,13.7,M,,*51

$GPGSA,A,3,26,31,18,16,10,,,,,,,,1.86,1.58,0.98*09

$GPRMC,172055.000,A,0010.8423,S,07828.8026,W,2.07,210.79,150217,,,A*68

$GPVTG,210.79,T,,M,2.07,N,3.83,K,A*3D

$GPVTG,207.49,T,,M,2.15,N,3.99,K,A*30

$GPGGA,172057.000,0010.8443,S,07828.8023,W,1,05,1.58,2792.4,M,13.7,M,,*55

$GPGGA,172058.000,0010.8456,S,07828.8021,W,1,05,1.58,2792.5,M,13.7,M,,*5D

$GPGSA,A,3,26,31,18,16,10,,,,,,,,1.86,1.58,0.98*09

$GPGSA,A,3,26,31,18,16,10,,,,,,,,1.86,1.58,0.98*09

$GPRMC,172059.000,A,0010.8465,S,07828.8022,W,2.32,199.06,150217,,,A*6E

$GPGSV,3,1,09,10,71,047,32,18,55,117,36,26,51,192,38,31,48,321,33*73

$GPGSV,3,2,09,21,23,164,25,16,21,202,22,33,18,090,,14,12,335,*70

$GPGGA,172101.000,0010.8479,S,07828.8023,W,1,05,1.58,2792.9,M,13.7,M,,*53

$GPGSA,A,3,26,31,18,16,10,,,,,,,,1.86,1.58,0.98*09

$GPGSA,A,3,26,31,18,16,10,,,,,,,,1.86,1.58,0.98*09

$GPRMC,172102.000,A,0010.8486,S,07828.8024,W,2.15,198.16,150217,,,A*6F

$GPRMC,172103.000,A,0010.8492,S,07828.8026,W,2.22,199.19,150217,,,A*63

$GPVTG,199.19,T,,M,2.22,N,4.12,K,A*31

$GPVTG,201.28,T,,M,2.43,N,4.49,K,A*38

$GPGGA,172105.000,0010.8507,S,07828.8031,W,1,05,1.58,2793.2,M,13.7,M,,*56

$GPGSV,3,3,09,32,,,27*74

$GPRMC,172105.000,A,0010.8507,S,07828.8031,W,2.36,203.91,150217,,,A*6B

$GPRMC,172106.000,A,0010.8514,S,07828.8034,W,2.32,208.31,150217,,,A*6A

$GPVTG,208.31,T,,M,2.32,N,4.30,K,A*31

$GPVTG,208.87,T,,M,2.50,N,4.63,K,A*3E

$GPGGA,172108.000,0010.8532,S,07828.8030,W,1,05,1.58,2793.7,M,13.7,M,,*59

$GPGGA,172109.000,0010.8538,S,07828.8032,W,1,05,1.58,2793.9,M,13.7,M,,*5E

$GPGSA,A,3,26,31,18,16,10,,,,,,,,1.86,1.58,0.98*09

$GPGSA,A,3,26,31,18,16,10,,,,,,,,1.86,1.58,0.98*09

$GPGSV,3,1,09,10,71,047,31,18,55,117,25,26,51,192,39,31,48,321,27*76

$GPVTG,203.52,T,,M,1.96,N,3.63,K,A*33

$GPGGA,172111.000,0010.8548,S,07828.8036,W,1,05,1.58,2794.2,M,13.7,M,,*58

$GPGGA,172112.000,0010.8555,S,07828.8039,W,1,05,1.58,2794.3,M,13.7,M,,*59

$GPGSA,A,3,26,31,18,16,10,,,,,,,,1.86,1.58,0.98*09

$GPGSA,A,3,26,31,18,16,10,,,,,,,,1.86,1.58,0.98*09

$GPRMC,172113.000,A,0010.8563,S,07828.8043,W,2.18,205.18,150217,,,A*60

$GPRMC,172114.000,A,0010.8569,S,07828.8047,W,2.17,201.22,150217,,,A*6B

$GPVTG,201.22,T,,M,2.17,N,4.02,K,A*3C

$GPGSV,3,2,09,21,23,164,24,16,21,202,20,14,12,335,,35,,,*45

$GPGSV,3,3,09,32,,,31*73

$GPGSA,A,3,26,31,18,16,10,,,,,,,,1.86,1.58,0.98*09

$GPRMC,172116.000,A,0010.8580,S,07828.8059,W,2.12,204.98,150217,,,A*60

$GPRMC,172117.000,A,0010.8585,S,07828.8062,W,2.09,203.23,150217,,,A*61

$GPVTG,203.23,T,,M,2.09,N,3.87,K,A*3A

$GPVTG,201.17,T,,M,2.14,N,3.97,K,A*32

$GPGGA,172119.000,0010.8599,S,07828.8062,W,1,05,1.58,2795.1,M,13.7,M,,*5F

$GPGGA,172120.000,0010.8605,S,07828.8064,W,1,05,1.58,2795.2,M,13.7,M,,*56

$GPGSA,A,3,26,31,18,16,10,,,,,,,,1.86,1.58,0.98*09

$GPRMC,172120.000,A,0010.8605,S,07828.8064,W,2.04,200.46,150217,,,A*65

$GPVTG,200.46,T,,M,2.04,N,3.78,K,A*37

$GPVTG,201.71,T,,M,2.21,N,4.10,K,A*3C

$GPGGA,172122.000,0010.8619,S,07828.8069,W,1,05,1.58,2795.3,M,13.7,M,,*55

$GPGGA,172123.000,0010.8625,S,07828.8072,W,1,05,1.58,2795.4,M,13.7,M,,*56

$GPGSA,A,3,26,31,18,16,10,,,,,,,,1.86,1.58,0.98*09

$GPGSA,A,3,26,31,18,16,10,,,,,,,,1.86,1.58,0.98*09

$GPRMC,172124.000,A,0010.8632,S,07828.8075,W,2.30,204.29,150217,,,A*6F

$GPGSV,3,1,09,10,71,047,35,18,55,117,36,26,51,192,37,31,48,321,24*7D

$GPGSV,3,2,09,21,23,164,27,16,21,202,18,14,12,335,,38,,,*40

$GPGGA,172126.000,0010.8647,S,07828.8079,W,1,05,1.58,2795.8,M,13.7,M,,*50

$GPGSA,A,3,26,31,18,16,10,,,,,,,,1.86,1.58,0.98*09

$GPGSA,A,3,26,31,18,16,10,,,,,,,,1.86,1.58,0.98*09

$GPRMC,172127.000,A,0010.8655,S,07828.8082,W,2.44,201.53,150217,,,A*6E

$GPRMC,172128.000,A,0010.8662,S,07828.8085,W,2.59,200.68,150217,,,A*67

$GPVTG,200.68,T,,M,2.59,N,4.80,K,A*33

$GPVTG,199.68,T,,M,2.59,N,4.81,K,A*31

$GPGGA,172130.000,0010.8675,S,07828.8089,W,1,05,1.58,2796.2,M,13.7,M,,*50

$GPGSV,3,3,09,32,,,27*74

$GPRMC,172130.000,A,0010.8675,S,07828.8089,W,2.39,198.70,150217,,,A*69

$GPRMC,172131.000,A,0010.8682,S,07828.8089,W,2.32,196.14,150217,,,A*67

$GPVTG,196.14,T,,M,2.32,N,4.29,K,A*3A

$GPVTG,193.63,T,,M,2.40,N,4.45,K,A*30

$GPGGA,172133.000,0010.8697,S,07828.8092,W,1,05,1.58,2796.6,M,13.7,M,,*51

$GPGGA,172134.000,0010.8703,S,07828.8093,W,1,05,1.58,2796.6,M,13.7,M,,*5B

$GPGSA,A,3,26,31,18,16,10,,,,,,,,1.86,1.58,0.98*09

$GPGSA,A,3,26,31,18,16,10,,,,,,,,1.86,1.58,0.98*09

$GPGSV,3,1,09,10,71,048,35,18,55,117,38,26,51,192,36,31,48,321,23*7A

$GPVTG,196.02,T,,M,2.33,N,4.32,K,A*36

$GPGGA,172136.000,0010.8716,S,07828.8098,W,1,05,1.58,2796.8,M,13.7,M,,*58

$GPGGA,172137.000,0010.8723,S,07828.8100,W,1,05,1.58,2796.9,M,13.7,M,,*5E

$GPGSA,A,3,26,31,18,16,10,,,,,,,,1.86,1.58,0.98*09

$GPGSA,A,3,26,31,18,16,10,,,,,,,,1.86,1.58,0.98*09

$GPRMC,172138.000,A,0010.8730,S,07828.8103,W,2.47,196.56,150217,,,A*61

$GPRMC,172139.000,A,0010.8737,S,07828.8104,W,2.48,195.29,150217,,,A*64

$GPVTG,195.29,T,,M,2.48,N,4.60,K,A*37

$GPGSV,3,2,09,16,22,202,19,21,22,163,40,14,12,335,,43,,,*49

$GPGSV,3,3,09,32,,,25*76

$GPGSA,A,3,26,31,18,16,10,,,,,,,,1.86,1.58,0.98*09

$GPRMC,172141.000,A,0010.8751,S,07828.8105,W,2.48,191.84,150217,,,A*69

$GPRMC,172142.000,A,0010.8758,S,07828.8109,W,2.61,195.91,150217,,,A*64

$GPVTG,195.91,T,,M,2.61,N,4.84,K,A*35

$GPVTG,200.08,T,,M,2.49,N,4.61,K,A*3B

$GPGGA,172144.000,0010.8769,S,07828.8115,W,1,05,1.58,2797.6,M,13.7,M,,*5E

$GPGGA,172145.000,0010.8775,S,07828.8118,W,1,05,1.58,2797.6,M,13.7,M,,*5F

$GPGSA,A,3,26,31,18,16,10,,,,,,,,1.86,1.58,0.98*09

$GPRMC,172145.000,A,0010.8775,S,07828.8118,W,2.22,203.63,150217,,,A*6A

$GPVTG,203.63,T,,M,2.22,N,4.12,K,A*3C

$GPVTG,201.00,T,,M,2.29,N,4.23,K,A*32

$GPGGA,172147.000,0010.8788,S,07828.8121,W,1,05,1.58,2797.8,M,13.7,M,,*5B

$GPGGA,172148.000,0010.8795,S,07828.8123,W,1,05,1.58,2797.9,M,13.7,M,,*5B

$GPGSA,A,3,26,31,18,16,10,,,,,,,,1.86,1.58,0.98*09

$GPGSA,A,3,26,31,18,16,10,,,,,,,,1.86,1.58,0.98*09

$GPRMC,172149.000,A,0010.8801,S,07828.8124,W,2.30,191.05,150217,,,A*6E

$GPGSV,3,1,09,10,71,048,34,18,55,117,42,26,51,192,34,31,48,321,21*76

$GPGSV,3,2,09,16,22,202,18,21,22,163,25,14,12,335,,46,,,*4E

$GPGGA,172151.000,0010.8814,S,07828.8127,W,1,05,1.58,2798.1,M,13.7,M,,*56

$GPGSA,A,3,26,31,18,16,10,,,,,,,,1.86,1.58,0.98*09

$GPGSA,A,3,26,31,18,16,10,,,,,,,,1.86,1.58,0.98*09

$GPRMC,172152.000,A,0010.8821,S,07828.8126,W,2.31,185.99,150217,,,A*65

$GPRMC,172153.000,A,0010.8830,S,07828.8127,W,2.57,187.63,150217,,,A*62

$GPVTG,187.63,T,,M,2.57,N,4.77,K,A*32

$GPVTG,185.28,T,,M,2.41,N,4.46,K,A*3A

$GPGGA,172155.000,0010.8844,S,07828.8127,W,1,05,1.58,2798.3,M,13.7,M,,*55

$GPGSV,3,3,09,32,,,27*74

$GPRMC,172155.000,A,0010.8844,S,07828.8127,W,2.43,184.48,150217,,,A*68

$GPRMC,172156.000,A,0010.8851,S,07828.8128,W,2.37,186.30,150217,,,A*6E

$GPVTG,186.30,T,,M,2.37,N,4.39,K,A*39

$GPVTG,191.69,T,,M,2.34,N,4.33,K,A*3A

$GPGGA,172158.000,0010.8865,S,07828.8131,W,1,05,1.58,2798.4,M,13.7,M,,*5B

$GPGGA,172159.000,0010.8874,S,07828.8131,W,1,05,1.58,2798.5,M,13.7,M,,*5B

$GPGSA,A,3,26,31,18,16,10,,,,,,,,1.86,1.58,0.98*09

$GPGSA,A,3,26,31,18,16,10,,,,,,,,1.86,1.58,0.98*09

$GPGSV,3,1,09,10,71,048,37,18,55,117,39,26,51,192,38,31,48,321,28*7C

$GPVTG,192.45,T,,M,2.30,N,4.26,K,A*37

$GPGGA,172201.000,0010.8888,S,07828.8133,W,1,05,1.58,2798.6,M,13.7,M,,*57

$GPGGA,172202.000,0010.8895,S,07828.8134,W,1,05,1.58,2798.7,M,13.7,M,,*5E

$GPGSA,A,3,26,31,18,16,10,,,,,,,,1.86,1.58,0.98*09

$GPGSA,A,3,26,31,18,16,10,,,,,,,,1.86,1.58,0.98*09

$GPRMC,172203.000,A,0010.8902,S,07828.8134,W,2.41,187.08,150217,,,A*6C

$GPRMC,172204.000,A,0010.8909,S,07828.8135,W,2.33,188.71,150217,,,A*65

$GPVTG,188.71,T,,M,2.33,N,4.32,K,A*3D

$GPGSV,3,2,09,16,22,202,16,21,22,163,38,14,12,335,,49,,,*43

$GPGSV,3,3,09,32,,,27*74

$GPGSA,A,3,26,31,18,16,10,,,,,,,,1.86,1.58,0.98*09

$GPRMC,172206.000,A,0010.8922,S,07828.8137,W,2.31,190.74,150217,,,A*62

$GPRMC,172207.000,A,0010.8930,S,07828.8141,W,2.47,195.48,150217,,,A*6A

$GPVTG,195.48,T,,M,2.47,N,4.57,K,A*3B

$GPVTG,196.70,T,,M,2.32,N,4.30,K,A*30

$GPGGA,172209.000,0010.8941,S,07828.8144,W,1,05,1.58,2799.1,M,13.7,M,,*5D

$GPGGA,172210.000,0010.8949,S,07828.8143,W,1,04,2.97,2799.2,M,13.7,M,,*58

$GPGSA,A,3,26,18,16,10,,,,,,,,,3.13,2.97,0.98*05

$GPRMC,172210.000,A,0010.8949,S,07828.8143,W,2.31,188.68,150217,,,A*6F

$GPVTG,188.68,T,,M,2.31,N,4.29,K,A*3D

$GPVTG,190.12,T,,M,2.34,N,4.34,K,A*30

$GPGGA,172212.000,0010.8966,S,07828.8143,W,1,05,1.58,2799.3,M,13.7,M,,*57

$GPGGA,172213.000,0010.8973,S,07828.8142,W,1,05,1.58,2799.5,M,13.7,M,,*55

$GPGSA,A,3,26,31,18,16,10,,,,,,,,1.86,1.58,0.98*09

$GPGSA,A,3,26,31,18,16,10,,,,,,,,1.86,1.58,0.98*09

$GPRMC,172214.000,A,0010.8980,S,07828.8143,W,2.55,185.92,150217,,,A*64

$GPGSV,3,1,09,10,71,049,27,51,56,270,37,18,55,118,41,26,51,192,38*7E

$GPGSV,3,2,09,31,48,321,21,16,22,202,16,21,22,163,38,14,12,335,*73

$GPGGA,172216.000,0010.8995,S,07828.8144,W,1,05,1.58,2799.9,M,13.7,M,,*52

$GPGSA,A,3,26,31,18,16,10,,,,,,,,1.86,1.58,0.98*09

$GPGSA,A,3,26,31,18,16,10,,,,,,,,1.86,1.58,0.98*09

$GPRMC,172217.000,A,0010.9000,S,07828.8145,W,2.27,196.61,150217,,,A*6A

$GPRMC,172218.000,A,0010.9004,S,07828.8149,W,2.08,209.53,150217,,,A*64

$GPVTG,209.53,T,,M,2.08,N,3.85,K,A*34

$GPVTG,218.22,T,,M,2.09,N,3.87,K,A*31

$GPGGA,172220.000,0010.9012,S,07828.8158,W,1,04,2.97,2800.3,M,13.7,M,,*59

$GPGSV,3,3,09,32,,,23*70

$GPRMC,172220.000,A,0010.9012,S,07828.8158,W,2.15,221.27,150217,,,A*6D

$GPRMC,172221.000,A,0010.9015,S,07828.8162,W,1.99,229.95,150217,,,A*64

$GPVTG,229.95,T,,M,1.99,N,3.69,K,A*35

$GPVTG,234.54,T,,M,1.95,N,3.62,K,A*33

$GPGGA,172223.000,0010.9017,S,07828.8171,W,1,05,1.58,2800.5,M,13.7,M,,*53

$GPGGA,172224.000,0010.9018,S,07828.8177,W,1,05,1.58,2800.6,M,13.7,M,,*5E

$GPGSA,A,3,26,31,18,16,10,,,,,,,,1.86,1.58,0.98*09

$GPGSA,A,3,26,31,18,16,10,,,,,,,,1.86,1.58,0.98*09

$GPGSV,3,1,09,10,71,049,20,51,56,270,37,18,55,118,33,26,52,192,33*74

$GPVTG,253.31,T,,M,1.85,N,3.43,K,A*33

$GPGGA,172226.000,0010.9019,S,07828.8189,W,1,05,1.58,2800.8,M,13.7,M,,*52

$GPGGA,172227.000,0010.9019,S,07828.8194,W,1,05,1.58,2800.8,M,13.7,M,,*5F

$GPGSA,A,3,26,31,18,16,10,,,,,,,,1.86,1.58,0.98*09

$GPGSA,A,3,26,31,18,16,10,,,,,,,,1.86,1.58,0.98*09

$GPRMC,172228.000,A,0010.9020,S,07828.8199,W,1.78,258.60,150217,,,A*6C

$GPRMC,172229.000,A,0010.9022,S,07828.8204,W,1.79,258.04,150217,,,A*6B

$GPVTG,258.04,T,,M,1.79,N,3.31,K,A*38

$GPGSV,3,2,09,31,48,322,19,16,22,202,14,21,22,163,30,14,12,335,*71

$GPGSV,3,3,09,32,,,19*79

$GPGSA,A,3,26,31,18,16,10,,,,,,,,1.86,1.58,0.98*09

$GPRMC,172231.000,A,0010.9028,S,07828.8213,W,1.78,255.55,150217,,,A*66

$GPRMC,172232.000,A,0010.9032,S,07828.8216,W,1.72,254.72,150217,,,A*65

$GPVTG,254.72,T,,M,1.72,N,3.18,K,A*35

$GPVTG,256.05,T,,M,1.75,N,3.24,K,A*3F

$GPGGA,172234.000,0010.9034,S,07828.8229,W,1,05,1.58,2801.2,M,13.7,M,,*5C

$GPGGA,172235.000,0010.9036,S,07828.8235,W,1,05,1.58,2801.2,M,13.7,M,,*52

$GPGSA,A,3,26,31,18,16,10,,,,,,,,1.86,1.58,0.98*09

$GPRMC,172235.000,A,0010.9036,S,07828.8235,W,1.84,257.32,150217,,,A*69

$GPVTG,257.32,T,,M,1.84,N,3.42,K,A*34

$GPVTG,259.26,T,,M,1.82,N,3.38,K,A*34

$GPGGA,172237.000,0010.9036,S,07828.8245,W,1,05,1.58,2801.3,M,13.7,M,,*56

$GPGGA,172238.000,0010.9037,S,07828.8249,W,1,05,1.58,2801.4,M,13.7,M,,*53

$GPGSA,A,3,26,31,18,16,10,,,,,,,,1.86,1.58,0.98*09

$GPGSA,A,3,26,31,18,16,10,,,,,,,,1.86,1.58,0.98*09

$GPRMC,172239.000,A,0010.9039,S,07828.8254,W,1.77,263.48,150217,,,A*6B

$GPGSV,3,1,09,10,72,050,21,51,56,270,38,18,55,118,25,26,52,192,39*7C

$GPGSV,3,2,09,31,48,322,20,16,22,202,20,21,22,163,20,14,12,335,*7D

$GPGGA,172241.000,0010.9038,S,07828.8265,W,1,05,1.58,2801.5,M,13.7,M,,*5D

$GPGSA,A,3,26,31,18,16,10,,,,,,,,1.86,1.58,0.98*09

$GPGSA,A,3,26,31,18,16,10,,,,,,,,1.86,1.58,0.98*09

$GPRMC,172242.000,A,0010.9041,S,07828.8272,W,1.77,268.66,150217,,,A*6B

$GPRMC,172243.000,A,0010.9041,S,07828.8290,W,2.47,272.35,150217,,,A*6B

$GPVTG,272.35,T,,M,2.47,N,4.58,K,A*34

$GPVTG,275.38,T,,M,2.46,N,4.57,K,A*30

$GPGGA,172245.000,0010.9045,S,07828.8310,W,1,05,1.59,2800.7,M,13.7,M,,*52

$GPGSV,3,3,09,32,,,24*77

$GPRMC,172245.000,A,0010.9045,S,07828.8310,W,2.67,275.28,150217,,,A*69

$GPRMC,172246.000,A,0010.9046,S,07828.8320,W,2.80,275.19,150217,,,A*61

$GPVTG,275.19,T,,M,2.80,N,5.18,K,A*33

$GPVTG,277.82,T,,M,2.69,N,4.98,K,A*3D

$GPGGA,172248.000,0010.9043,S,07828.8335,W,1,05,1.58,2800.2,M,13.7,M,,*5A

$GPGGA,172249.000,0010.9041,S,07828.8344,W,1,05,1.59,2800.2,M,13.7,M,,*5E

$GPGSA,A,3,26,31,18,16,10,,,,,,,,1.86,1.59,0.98*08

$GPGSA,A,3,26,31,18,16,10,,,,,,,,1.86,1.58,0.98*09

$GPGSV,3,1,09,10,72,050,30,51,56,270,34,18,55,118,29,26,52,192,27*73

$GPVTG,279.99,T,,M,2.75,N,5.10,K,A*35

$GPGGA,172251.000,0010.9033,S,07828.8360,W,1,05,1.59,2800.2,M,13.7,M,,*54

$GPGGA,172252.000,0010.9031,S,07828.8366,W,1,05,1.59,2800.2,M,13.7,M,,*53

$GPGSA,A,3,26,31,18,16,10,,,,,,,,1.86,1.59,0.98*08

$GPGSA,A,3,26,31,18,16,10,,,,,,,,1.86,1.58,0.98*09

$GPRMC,172253.000,A,0010.9028,S,07828.8376,W,2.82,283.26,150217,,,A*69

$GPRMC,172254.000,A,0010.9026,S,07828.8383,W,2.70,283.04,150217,,,A*67

$GPVTG,283.04,T,,M,2.70,N,5.00,K,A*30

$GPGSV,3,2,09,31,48,322,22,16,22,202,17,21,22,163,16,14,12,335,*7E

$GPGSV,3,3,09,32,,,20*73

$GPGSA,A,3,26,31,18,16,10,,,,,,,,1.86,1.59,0.98*08

$GPRMC,172256.000,A,0010.9022,S,07828.8395,W,2.44,283.45,150217,,,A*64

$GPRMC,172257.000,A,0010.9019,S,07828.8404,W,2.54,284.15,150217,,,A*61

$GPVTG,284.15,T,,M,2.54,N,4.71,K,A*36

$GPVTG,287.88,T,,M,2.39,N,4.42,K,A*3A

$GPGGA,172259.000,0010.9009,S,07828.8421,W,1,05,1.58,2800.3,M,13.7,M,,*57

$GPGGA,172300.000,0010.9002,S,07828.8430,W,1,05,1.59,2800.3,M,13.7,M,,*50

$GPGSA,A,3,26,31,18,16,10,,,,,,,,1.86,1.59,0.98*08

$GPRMC,172300.000,A,0010.9002,S,07828.8430,W,2.31,283.80,150217,,,A*67

$GPVTG,283.80,T,,M,2.31,N,4.29,K,A*33

$GPVTG,282.70,T,,M,3.38,N,6.27,K,A*39

$GPGGA,172302.000,0010.8980,S,07828.8466,W,1,05,1.59,2800.3,M,13.7,M,,*53

$GPGGA,172303.000,0010.8971,S,07828.8478,W,1,05,1.59,2800.3,M,13.7,M,,*53

$GPGSA,A,3,26,31,18,16,10,,,,,,,,1.86,1.59,0.98*08

$GPGSA,A,3,26,31,18,16,10,,,,,,,,1.86,1.58,0.98*09

$GPRMC,172304.000,A,0010.8962,S,07828.8487,W,2.44,294.31,150217,,,A*6F

$GPGSV,3,1,09,10,72,050,20,51,56,270,38,18,55,118,35,26,52,192,37*72

$GPGSV,3,2,09,31,47,322,36,16,22,202,25,21,22,163,26,14,12,335,*76

$GPGGA,172306.000,0010.8957,S,07828.8502,W,1,05,1.59,2800.6,M,13.7,M,,*5B

$GPGSA,A,3,26,31,18,16,10,,,,,,,,1.86,1.59,0.98*08

$GPGSA,A,3,26,31,18,16,10,,,,,,,,1.86,1.58,0.98*09

$GPRMC,172307.000,A,0010.8957,S,07828.8509,W,2.44,277.30,150217,,,A*61

$GPRMC,172308.000,A,0010.8955,S,07828.8516,W,2.09,278.02,150217,,,A*65

$GPVTG,278.02,T,,M,2.09,N,3.88,K,A*3A

$GPVTG,280.24,T,,M,2.29,N,4.24,K,A*3A

$GPGGA,172310.000,0010.8955,S,07828.8531,W,1,05,1.59,2800.2,M,13.7,M,,*5A

$GPGSV,3,3,10,14,12,335,,32,,,26*4E

$GPRMC,172310.000,A,0010.8955,S,07828.8531,W,2.95,269.18,150217,,,A*67

$GPRMC,172311.000,A,0010.8956,S,07828.8537,W,2.22,267.65,150217,,,A*6B

$GPVTG,267.65,T,,M,2.22,N,4.12,K,A*38

$GPVTG,265.57,T,,M,2.02,N,3.75,K,D*3A

$GPGGA,172313.000,0010.8960,S,07828.8550,W,2,05,1.59,2799.5,M,13.7,M,0000,0000*53

$GPGGA,172314.000,0010.8961,S,07828.8556,W,2,05,1.59,2799.3,M,13.7,M,0000,0000*55

$GPGSA,A,3,26,31,18,16,10,,,,,,,,1.86,1.59,0.98*08

$GPGSA,A,3,26,31,18,16,10,,,,,,,,1.86,1.59,0.98*08

$GPGSV,3,1,10,10,72,050,31,51,56,270,37,18,55,118,36,26,52,192,37*76

$GPVTG,287.10,T,,M,2.56,N,4.75,K,D*33

$GPGGA,172316.000,0010.8962,S,07828.8567,W,2,05,1.59,2799.2,M,13.7,M,0000,0000*57

$GPGGA,172317.000,0010.8963,S,07828.8572,W,2,05,1.59,2799.3,M,13.7,M,0000,0000*52

$GPGSA,A,3,26,31,18,16,10,,,,,,,,1.86,1.59,0.98*08

$GPGSA,A,3,26,31,18,16,10,,,,,,,,1.86,1.59,0.98*08

$GPRMC,172318.000,A,0010.8964,S,07828.8577,W,2.13,286.09,150217,,,D*65

$GPRMC,172319.000,A,0010.8964,S,07828.8584,W,3.03,284.32,150217,,,D*62

$GPVTG,284.32,T,,M,3.03,N,5.61,K,D*35

$GPGSV,3,2,10,31,47,322,32,25,29,048,21,16,22,202,21,21,22,163,18*73

$GPGSV,3,3,10,14,12,335,,32,,,18*43

$GPGSA,A,3,26,31,18,16,10,,,,,,,,1.86,1.59,0.98*08

$GPRMC,172321.000,A,0010.8964,S,07828.8597,W,2.62,275.58,150217,,,D*6F

$GPRMC,172322.000,A,0010.8964,S,07828.8602,W,2.16,281.03,150217,,,D*65

$GPVTG,281.03,T,,M,2.16,N,3.99,K,D*36

$GPVTG,280.64,T,,M,2.49,N,4.62,K,D*3F

$GPGGA,172324.000,0010.8965,S,07828.8613,W,2,05,1.59,2799.4,M,13.7,M,0000,0000*57

$GPGGA,172325.000,0010.8966,S,07828.8620,W,2,05,1.59,2799.5,M,13.7,M,0000,0000*54

$GPGSA,A,3,26,31,18,16,10,,,,,,,,1.86,1.59,0.98*08

$GPRMC,172325.000,A,0010.8966,S,07828.8620,W,2.55,269.37,150217,,,D*66

$GPVTG,269.37,T,,M,2.55,N,4.73,K,D*33

$GPVTG,271.23,T,,M,2.82,N,5.23,K,D*31

$GPGGA,172327.000,0010.8967,S,07828.8633,W,2,05,1.59,2799.6,M,13.7,M,0000,0000*56

$GPGGA,172328.000,0010.8964,S,07828.8640,W,2,05,1.59,2799.7,M,13.7,M,0000,0000*5F

$GPGSA,A,3,26,31,18,16,10,,,,,,,,1.86,1.59,0.98*08

$GPGSA,A,3,26,31,18,16,10,,,,,,,,1.86,1.59,0.98*08

$GPRMC,172329.000,A,0010.8963,S,07828.8650,W,2.91,268.65,150217,,,D*66

$GPGSV,3,1,10,10,72,050,29,51,56,270,36,18,54,119,35,26,52,192,19*71

$GPGSV,3,2,10,31,47,322,35,25,29,048,27,16,22,202,17,21,22,163,15*7A

$GPGGA,172331.000,0010.8953,S,07828.8670,W,2,05,1.59,2799.7,M,13.7,M,0000,0000*50

$GPGSA,A,3,26,31,18,16,10,,,,,,,,1.86,1.59,0.98*08

$GPGSA,A,3,26,31,18,16,10,,,,,,,,1.86,1.59,0.98*08

$GPRMC,172332.000,A,0010.8947,S,07828.8679,W,2.79,300.48,150217,,,D*67

$GPRMC,172333.000,A,0010.8940,S,07828.8689,W,2.11,324.48,150217,,,D*66

$GPVTG,324.48,T,,M,2.11,N,3.90,K,D*39

$GPVTG,338.70,T,,M,2.05,N,3.80,K,D*3B

$GPGGA,172335.000,0010.8926,S,07828.8701,W,2,04,1.66,2799.9,M,13.7,M,0000,0000*52

$GPGSV,3,3,10,14,13,335,,32,,,30*48

$GPRMC,172335.000,A,0010.8926,S,07828.8701,W,2.37,329.48,150217,,,D*68

$GPRMC,172336.000,A,0010.8919,S,07828.8706,W,2.49,336.72,150217,,,D*6E

$GPVTG,336.72,T,,M,2.49,N,4.62,K,D*34

$GPVTG,343.80,T,,M,2.05,N,3.80,K,D*38

$GPGGA,172338.000,0010.8907,S,07828.8718,W,2,05,1.59,2800.0,M,13.7,M,0000,0000*5F

$GPGGA,172339.000,0010.8903,S,07828.8729,W,2,05,1.59,2800.0,M,13.7,M,0000,0000*58

$GPGSA,A,3,26,31,18,16,10,,,,,,,,1.86,1.59,0.98*08

$GPGSA,A,3,31,18,16,10,,,,,,,,,1.94,1.66,1.00*03

$GPGSV,3,1,10,10,72,050,32,51,56,270,36,18,54,119,38,26,52,192,16*79

$GPVTG,305.11,T,,M,2.65,N,4.91,K,D*33

$GPGGA,172341.000,0010.8893,S,07828.8747,W,2,05,1.59,2800.0,M,13.7,M,0000,0000*57

$GPGGA,172342.000,0010.8885,S,07828.8751,W,2,05,1.59,2800.0,M,13.7,M,0000,0000*54

$GPGSA,A,3,26,31,18,16,10,,,,,,,,1.86,1.59,0.98*08

$GPGSA,A,3,26,31,18,16,10,,,,,,,,1.86,1.59,0.98*08

$GPRMC,172343.000,A,0010.8880,S,07828.8758,W,2.14,298.32,150217,,,D*6F

$GPRMC,172344.000,A,0010.8877,S,07828.8769,W,2.27,292.16,150217,,,D*6E

$GPVTG,292.16,T,,M,2.27,N,4.21,K,D*36

$GPGSV,3,2,10,31,47,322,37,25,29,048,25,16,22,202,16,21,22,163,14*7A

$GPGSV,3,3,10,14,13,335,,32,,,32*4A

$GPGSA,A,3,26,31,18,16,10,,,,,,,,1.86,1.59,0.98*08

$GPRMC,172346.000,A,0010.8865,S,07828.8788,W,2.34,300.68,150217,,,D*61

$GPRMC,172347.000,A,0010.8861,S,07828.8801,W,1.87,273.37,150217,,,D*6E

$GPVTG,273.37,T,,M,1.87,N,3.47,K,D*34

$GPVTG,283.03,T,,M,2.36,N,4.37,K,D*35

$GPGGA,172349.000,0010.8853,S,07828.8819,W,2,05,1.59,2800.1,M,13.7,M,0000,0000*56

$GPGGA,172350.000,0010.8854,S,07828.8833,W,2,05,1.59,2799.9,M,13.7,M,0000,0000*56

$GPGSA,A,3,26,31,18,16,10,,,,,,,,1.86,1.59,0.98*08

$GPRMC,172350.000,A,0010.8854,S,07828.8833,W,3.64,264.89,150217,,,D*63

$GPVTG,264.89,T,,M,3.64,N,6.75,K,D*3C

$GPVTG,272.58,T,,M,3.48,N,6.45,K,D*3A

$GPGGA,172352.000,0010.8858,S,07828.8865,W,2,04,1.66,2799.7,M,13.7,M,0000,0000*58

$GPGGA,172353.000,0010.8861,S,07828.8880,W,2,05,1.59,2799.5,M,13.7,M,0000,0000*57

$GPGSA,A,3,26,31,18,16,10,,,,,,,,1.86,1.59,0.98*08

$GPGSA,A,3,26,31,18,16,10,,,,,,,,1.86,1.59,0.98*08

$GPRMC,172354.000,A,0010.8864,S,07828.8891,W,3.33,256.15,150217,,,D*6A

$GPGSV,3,1,10,10,72,051,34,51,56,270,36,18,54,119,34,26,52,192,15*71

$GPGSV,3,2,10,31,47,322,31,25,29,048,26,16,22,202,19,21,22,163,13*77

$GPGGA,172356.000,0010.8876,S,07828.8916,W,2,05,1.59,2799.2,M,13.7,M,0000,0000*5D

$GPGSA,A,3,26,31,18,16,10,,,,,,,,1.86,1.59,0.98*08

$GPGSA,A,3,26,31,18,16,10,,,,,,,,1.86,1.59,0.98*08

$GPRMC,172357.000,A,0010.8882,S,07828.8929,W,2.71,256.75,150217,,,D*62

$GPRMC,172358.000,A,0010.8900,S,07828.8957,W,2.82,282.02,150217,,,D*6A

$GPVTG,282.02,T,,M,2.82,N,5.23,K,D*3E

$GPVTG,282.94,T,,M,2.79,N,5.18,K,D*3D

$GPGGA,172400.000,0010.8908,S,07828.8984,W,2,05,1.59,2799.0,M,13.7,M,0000,0000*58

$GPGSV,3,3,10,14,13,336,,32,,,25*4F

$GPRMC,172400.000,A,0010.8908,S,07828.8984,W,2.61,281.79,150217,,,D*64

$GPRMC,172401.000,A,0010.8904,S,07828.8992,W,2.77,293.08,150217,,,D*6C

$GPVTG,293.08,T,,M,2.77,N,5.13,K,D*3D

$GPVTG,296.17,T,,M,2.60,N,4.82,K,D*39

$GPGGA,172403.000,0010.8893,S,07828.9007,W,2,05,1.59,2798.8,M,13.7,M,0000,0000*52

$GPGGA,172404.000,0010.8878,S,07828.9005,W,2,05,1.59,2797.5,M,13.7,M,0000,0000*50

$GPGSA,A,3,26,31,18,16,10,,,,,,,,1.86,1.59,0.98*08

$GPGSA,A,3,26,31,18,16,10,,,,,,,,1.86,1.59,0.98*08

$GPGSV,3,1,11,10,72,051,31,51,56,270,37,18,54,119,30,26,52,192,31*76

$GPVTG,318.07,T,,M,2.92,N,5.42,K,D*3F

$GPGGA,172406.000,0010.8850,S,07828.9008,W,2,05,1.59,2795.5,M,13.7,M,0000,0000*57

$GPGGA,172407.000,0010.8841,S,07828.9012,W,2,05,1.59,2795.2,M,13.7,M,0000,0000*5A

$GPGSA,A,3,26,31,18,16,10,,,,,,,,1.86,1.59,0.98*08

$GPGSA,A,3,26,31,18,16,10,,,,,,,,5.00,2.31,4.44*0A

$GPRMC,172408.000,A,0010.8832,S,07828.9012,W,2.95,7.26,150217,,,D*6E

$GPRMC,172409.000,A,0010.8822,S,07828.9011,W,2.74,9.12,150217,,,D*6B

$GPVTG,9.12,T,,M,2.74,N,5.08,K,D*3E

$GPGSV,3,2,11,31,47,322,41,25,28,048,21,16,23,202,30,21,22,163,12*7C

$GPGSV,3,3,11,14,13,336,,27,07,221,27,32,,,41*7A

$GPGSA,A,3,26,31,18,16,10,,,,,,,,5.01,2.31,4.44*0B

$GPRMC,172411.000,A,0010.8801,S,07828.9010,W,2.75,5.88,150217,,,D*6C

$GPRMC,172412.000,A,0010.8792,S,07828.9007,W,2.53,14.69,150217,,,D*57

$GPVTG,14.69,T,,M,2.53,N,4.69,K,D*0D

$GPVTG,2.95,T,,M,1.83,N,3.39,K,D*35

$GPGGA,172414.000,0010.8775,S,07828.9005,W,2,05,2.31,2793.3,M,13.7,M,0000,0000*5C

$GPGGA,172415.000,0010.8765,S,07828.9002,W,2,05,1.59,2793.0,M,13.7,M,0000,0000*55

$GPGSA,A,3,26,31,18,16,10,,,,,,,,1.86,1.59,0.98*08

$GPRMC,172415.000,A,0010.8765,S,07828.9002,W,2.77,18.69,150217,,,D*57

$GPVTG,18.69,T,,M,2.77,N,5.13,K,D*0B

$GPVTG,7.25,T,,M,2.66,N,4.92,K,D*35

$GPGGA,172417.000,0010.8749,S,07828.9000,W,2,05,2.31,2792.4,M,13.7,M,0000,0000*53

$GPGGA,172418.000,0010.8742,S,07828.8998,W,2,05,2.31,2792.2,M,13.7,M,0000,0000*58

$GPGSA,A,3,26,31,18,16,10,,,,,,,,5.00,2.31,4.43*0D

$GPGSA,A,3,26,31,18,16,10,,,,,,,,1.86,1.59,0.98*08

$GPRMC,172419.000,A,0010.8734,S,07828.8997,W,2.47,16.73,150217,,,D*5D

$GPGSV,3,1,11,10,72,051,35,51,56,270,38,18,54,119,21,26,52,192,32*7E

$GPGSV,3,2,11,31,47,323,42,25,28,048,21,16,23,202,27,21,22,163,12*78

$GPGGA,172421.000,0010.8718,S,07828.8998,W,2,05,2.31,2791.2,M,13.7,M,0000,0000*5E

$GPGSA,A,3,26,31,18,16,10,,,,,,,,5.00,2.31,4.43*0D

$GPGSA,A,3,26,31,18,16,10,,,,,,,,5.00,2.31,4.43*0D

$GPRMC,172422.000,A,0010.8709,S,07828.8999,W,2.79,356.03,150217,,,D*68

$GPRMC,172423.000,A,0010.8701,S,07828.8998,W,2.36,6.16,150217,,,D*69

$GPVTG,6.16,T,,M,2.36,N,4.38,K,D*31

$GPVTG,15.22,T,,M,3.10,N,5.75,K,D*09

$GPGGA,172425.000,0010.8683,S,07828.8992,W,2,05,1.59,2790.3,M,13.7,M,0000,0000*5E

$GPGSV,3,3,11,14,13,336,,27,07,221,32,32,,,37*7F

$GPRMC,172425.000,A,0010.8683,S,07828.8992,W,2.86,14.14,150217,,,D*54

$GPRMC,172426.000,A,0010.8674,S,07828.8989,W,2.60,14.01,150217,,,D*59

$GPVTG,14.01,T,,M,2.60,N,4.81,K,D*05

$GPVTG,16.31,T,,M,2.77,N,5.14,K,D*0F

$GPGGA,172428.000,0010.8658,S,07828.8983,W,2,05,1.59,2789.9,M,13.7,M,0000,0000*57

$GPGGA,172429.000,0010.8650,S,07828.8981,W,2,05,1.59,2789.7,M,13.7,M,0000,0000*52

$GPGSA,A,3,26,31,18,16,10,,,,,,,,1.86,1.59,0.98*08

$GPGSA,A,3,26,31,18,16,10,,,,,,,,1.86,1.59,0.98*08

$GPGSV,3,1,11,10,72,052,27,51,56,270,37,18,54,119,18,26,52,192,33*7A

$GPVTG,29.28,T,,M,2.90,N,5.38,K,D*0C

$GPGGA,172431.000,0010.8636,S,07828.8979,W,2,05,1.59,2789.2,M,13.7,M,0000,0000*59

$GPGGA,172432.000,0010.8628,S,07828.8979,W,2,05,1.59,2789.0,M,13.7,M,0000,0000*57

$GPGSA,A,3,26,31,18,16,10,,,,,,,,1.86,1.59,0.98*08

$GPGSA,A,3,26,31,18,16,10,,,,,,,,4.99,2.30,4.42*0C

$GPRMC,172433.000,A,0010.8621,S,07828.8977,W,2.98,21.48,150217,,,D*50

$GPRMC,172434.000,A,0010.8614,S,07828.8977,W,2.49,31.49,150217,,,D*5D

$GPVTG,31.49,T,,M,2.49,N,4.61,K,D*0B

$GPGSV,3,2,11,31,47,323,40,25,28,048,20,16,23,202,31,21,22,163,*7F

$GPGSV,3,3,11,14,13,336,,27,07,221,30,32,,,33*79

$GPGSA,A,3,26,31,18,16,10,,,,,,,,4.99,2.30,4.42*0C

$GPRMC,172436.000,A,0010.8600,S,07828.8976,W,2.65,6.69,150217,,,D*63

$GPRMC,172437.000,A,0010.8592,S,07828.8973,W,2.71,23.24,150217,,,D*54

$GPVTG,23.24,T,,M,2.71,N,5.03,K,D*0D

$GPVTG,18.75,T,,M,2.40,N,4.45,K,D*00

$GPGGA,172439.000,0010.8578,S,07828.8972,W,2,05,1.59,2787.6,M,13.7,M,0000,0000*59

$GPGGA,172440.000,0010.8570,S,07828.8970,W,2,05,2.30,2787.5,M,13.7,M,0000,0000*52

$GPGSA,A,3,26,31,18,16,10,,,,,,,,4.99,2.30,4.42*0C

$GPRMC,172440.000,A,0010.8570,S,07828.8970,W,3.37,17.65,150217,,,D*5A

$GPVTG,17.65,T,,M,3.37,N,6.24,K,D*0A

$GPVTG,8.02,T,,M,3.16,N,5.85,K,D*3E

$GPGGA,172442.000,0010.8554,S,07828.8968,W,2,05,2.30,2787.4,M,13.7,M,0000,0000*5E

$GPGGA,172443.000,0010.8547,S,07828.8966,W,2,05,2.30,2787.3,M,13.7,M,0000,0000*54

$GPGSA,A,3,26,31,18,16,10,,,,,,,,4.98,2.30,4.42*0D

$GPGSA,A,3,26,31,18,16,10,,,,,,,,1.86,1.59,0.98*08

$GPRMC,172444.000,A,0010.8541,S,07828.8964,W,2.28,11.14,150217,,,D*56

$GPGSV,3,1,11,10,72,052,40,51,56,270,33,18,54,119,23,26,52,192,32*76

$GPGSV,3,2,11,31,47,323,40,25,28,047,35,16,23,202,28,21,21,163,27*7A

$GPGGA,172446.000,0010.8528,S,07828.8962,W,2,05,2.30,2786.9,M,13.7,M,0000,0000*57

$GPGSA,A,3,26,31,18,16,10,,,,,,,,4.98,2.30,4.42*0D

$GPGSA,A,3,26,31,18,16,10,,,,,,,,1.87,1.59,0.98*09

$GPRMC,172447.000,A,0010.8521,S,07828.8959,W,2.44,26.35,150217,,,D*50

$GPRMC,172448.000,A,0010.8515,S,07828.8958,W,1.59,12.24,150217,,,D*51

$GPVTG,12.24,T,,M,1.59,N,2.96,K,D*0D

$GPVTG,102.77,T,,M,0.66,N,1.23,K,D*3B

$GPGGA,172450.000,0010.8513,S,07828.8960,W,2,05,1.59,2786.5,M,13.7,M,0000,0000*5A

$GPGSV,3,3,11,14,13,336,,27,07,221,28,32,,,23*71

$GPRMC,172450.000,A,0010.8513,S,07828.8960,W,0.07,137.48,150217,,,D*63

$GPRMC,172451.000,A,0010.8510,S,07828.8963,W,0.43,327.23,150217,,,D*6C

$GPVTG,327.23,T,,M,0.43,N,0.79,K,D*36

$GPVTG,353.80,T,,M,0.56,N,1.04,K,D*33

$GPGGA,172453.000,0010.8504,S,07828.8962,W,2,05,2.30,2786.9,M,13.7,M,0000,0000*5D

$GPGGA,172454.000,0010.8499,S,07828.8962,W,2,05,2.30,2786.8,M,13.7,M,0000,0000*5E

$GPGSA,A,3,26,31,18,16,10,,,,,,,,4.97,2.30,4.41*01

$GPGSA,A,3,26,31,18,16,10,,,,,,,,4.97,2.30,4.41*01

$GPGSV,3,1,11,10,72,052,25,51,56,270,34,18,54,119,24,26,53,191,28*7C

