
$GPVTG,287.04,T,,M,0.63,N,1.17,K,A*36

$GPGGA,175721.000,0010.7006,S,07828.8138,W,1,04,2.47,2789.2,M,13.7,M,,*55

$GPGGA,175722.000,0010.7006,S,07828.8130,W,1,04,2.47,2788.3,M,13.7,M,,*5E

$GPGSA,A,3,16,26,31,10,,,,,,,,,2.66,2.47,0.99*01

$GPGSA,A,3,16,26,31,10,,,,,,,,,2.66,2.47,0.99*01

$GPGSV,2,1,07,10,73,114,33,26,69,192,37,51,56,270,37,31,38,340,45*70

$GPGGA,175724.000,0010.7006,S,07828.8111,W,1,04,2.47,2786.9,M,13.7,M,,*5F

$GPGSA,A,3,16,26,31,10,,,,,,,,,2.66,2.47,0.99*01

$GPGSA,A,3,16,26,31,10,,,,,,,,,2.66,2.47,0.99*01

$GPRMC,175725.000,A,0010.7006,S,07828.8103,W,0.16,130.11,150217,,,A*68

$GPRMC,175726.000,A,0010.7006,S,07828.8096,W,0.22,70.19,150217,,,A*5C

$GPVTG,70.19,T,,M,0.22,N,0.42,K,A*04

$GPVTG,335.88,T,,M,0.06,N,0.12,K,A*3D

$GPGGA,175728.000,0010.7007,S,07828.8092,W,1,04,2.47,2784.1,M,13.7,M,,*52

$GPRMC,175728.000,A,0010.7007,S,07828.8092,W,0.09,323.80,150217,,,A*6B

$GPVTG,323.80,T,,M,0.09,N,0.17,K,A*38

$GPVTG,53.25,T,,M,0.06,N,0.11,K,A*0A

$GPGGA,175730.000,0010.7007,S,07828.8088,W,1,04,2.47,2784.6,M,13.7,M,,*57

$GPGGA,175731.000,0010.7007,S,07828.8090,W,1,04,2.47,2785.9,M,13.7,M,,*51

$GPGSA,A,3,16,26,31,10,,,,,,,,,2.66,2.47,0.99*01

$GPGSA,A,3,16,26,31,10,,,,,,,,,2.66,2.47,0.99*01

$GPRMC,175732.000,A,0010.7006,S,07828.8096,W,0.04,94.85,150217,,,A*52

$GPGSV,2,1,07,10,73,114,32,26,69,192,36,51,56,270,39,31,38,340,45*7E

$GPGSV,2,2,07,16,37,202,41,04,,,30,14,,,37*4E

$GPGSA,A,3,16,26,31,10,,,,,,,,,2.66,2.47,0.99*01

$GPRMC,175734.000,A,0010.7007,S,07828.8095,W,0.22,128.28,150217,,,A*63

$GPRMC,175735.000,A,0010.7008,S,07828.8093,W,0.24,125.53,150217,,,A*6C

$GPVTG,125.53,T,,M,0.24,N,0.45,K,A*3A

$GPVTG,68.77,T,,M,0.32,N,0.59,K,A*0E

$GPGGA,175737.000,0010.7008,S,07828.8093,W,1,04,2.47,2787.4,M,13.7,M,,*54

$GPGGA,175738.000,0010.7007,S,07828.8094,W,1,04,2.47,2788.3,M,13.7,M,,*5B

$GPGSA,A,3,16,26,31,10,,,,,,,,,2.66,2.47,0.99*01

$GPVTG,83.71,T,,M,0.29,N,0.54,K,A*0A

$GPGGA,175739.000,0010.7007,S,07828.8096,W,1,04,2.47,2788.9,M,13.7,M,,*52

$GPGGA,175740.000,0010.7007,S,07828.8098,W,1,04,2.47,2789.6,M,13.7,M,,*5C

$GPGSA,A,3,16,26,31,10,,,,,,,,,2.66,2.47,0.99*01

$GPGSA,A,3,16,26,31,10,,,,,,,,,2.66,2.47,0.99*01

$GPRMC,175741.000,A,0010.7007,S,07828.8100,W,0.10,158.34,150217,,,A*67

$GPRMC,175742.000,A,0010.7006,S,07828.8104,W,0.06,8.67,150217,,,A*64

$GPVTG,8.67,T,,M,0.06,N,0.11,K,A*32

$GPGSV,2,2,08,16,37,202,41,21,12,153,,04,,,29,14,,,40*7E

$GPRMC,175743.000,A,0010.7006,S,07828.8108,W,0.20,297.10,150217,,,A*69

$GPRMC,175744.000,A,0010.7006,S,07828.8109,W,0.12,269.61,150217,,,A*69

$GPVTG,269.61,T,,M,0.12,N,0.23,K,A*35

$GPVTG,90.08,T,,M,0.11,N,0.20,K,A*0E

$GPGGA,175746.000,0010.7006,S,07828.8107,W,1,04,2.47,2790.6,M,13.7,M,,*54

$GPGGA,175747.000,0010.7007,S,07828.8107,W,1,04,2.47,2790.2,M,13.7,M,,*50

$GPGSA,A,3,16,26,31,10,,,,,,,,,2.66,2.47,0.99*01

$GPGSA,A,3,16,26,31,10,,,,,,,,,2.66,2.47,0.99*01

$GPGSV,2,1,08,10,73,114,37,26,70,192,40,51,56,270,42,31,38,340,44*70

$GPGGA,175749.000,0010.7007,S,07828.8115,W,1,05,2.34,2791.7,M,13.7,M,,*5C

$GPGSA,A,3,16,26,31,10,14,,,,,,,,2.52,2.34,0.95*0B

$GPGSA,A,3,16,26,31,10,14,,,,,,,,2.52,2.34,0.95*0B

$GPRMC,175750.000,A,0010.7008,S,07828.8121,W,0.32,164.78,150217,,,A*6C

$GPVTG,187.43,T,,M,1.91,N,3.55,K,A*3E

$GPGGA,175753.000,0010.7025,S,07828.8131,W,1,05,2.34,2792.1,M,13.7,M,,*54

$GPRMC,175753.000,A,0010.7025,S,07828.8131,W,2.07,189.04,150217,,,A*6D

$GPVTG,189.04,T,,M,2.07,N,3.84,K,A*33

$GPVTG,188.34,T,,M,2.24,N,4.15,K,A*3F

$GPGGA,175755.000,0010.7037,S,07828.8134,W,1,04,4.27,2791.7,M,13.7,M,,*54

$GPVTG,173.50,T,,M,1.62,N,2.99,K,A*3A

$GPGGA,175811.000,0010.7122,S,07828.8169,W,1,05,2.34,2792.2,M,13.7,M,,*55

$GPGGA,175812.000,0010.7127,S,07828.8170,W,1,05,2.34,2792.0,M,13.7,M,,*59

$GPGSA,A,3,16,26,31,10,14,,,,,,,,2.52,2.34,0.96*08

$GPVTG,185.89,T,,M,2.07,N,3.83,K,A*3D

$GPGGA,175814.000,0010.7139,S,07828.8168,W,1,04,4.27,2791.8,M,13.7,M,,*57

$GPGGA,175815.000,0010.7144,S,07828.8178,W,1,04,4.27,2791.7,M,13.7,M,,*52

$GPGSA,A,3,16,26,31,14,,,,,,,,,4.37,4.27,0.96*08

$GPGSA,A,3,16,26,31,10,14,,,,,,,,2.52,2.34,0.96*08

$GPRMC,175819.000,A,0010.7165,S,07828.8182,W,1.68,191.53,150217,,,A*60

$GPRMC,175820.000,A,0010.7170,S,07828.8183,W,1.49,192.65,150217,,,A*6A

$GPVTG,192.65,T,,M,1.49,N,2.75,K,A*38

$GPVTG,105.73,T,,M,0.58,N,1.07,K,A*36

$GPGGA,175904.000,0010.7372,S,07828.8230,W,1,05,2.34,2790.2,M,13.7,M,,*5A

$GPGGA,175905.000,0010.7370,S,07828.8231,W,1,05,2.34,2789.9,M,13.7,M,,*5B

$GPGSA,A,3,16,26,31,10,14,,,,,,,,2.53,2.34,0.96*09

$GPGSA,A,3,16,26,31,14,,,,,,,,,4.38,4.27,0.96*07

$GPRMC,175906.000,A,0010.7369,S,07828.8231,W,0.70,30.69,150217,,,A*51

$GPRMC,175907.000,A,0010.7368,S,07828.8230,W,0.87,22.65,150217,,,A*57

$GPVTG,22.65,T,,M,0.87,N,1.61,K,A*07

$GPGSV,3,2,09,31,37,341,27,14,24,001,23,21,11,152,,22,01,324,*76

$GPGSV,3,3,09,32,,,21*72

$GPGSA,A,3,16,26,31,10,14,,,,,,,,2.53,2.34,0.96*09

$GPRMC,175909.000,A,0010.7366,S,07828.8228,W,0.57,25.43,150217,,,A*50

$GPVTG,256.94,T,,M,1.34,N,2.48,K,A*39

$GPGGA,175915.000,0010.7376,S,07828.8227,W,1,05,2.34,2789.3,M,13.7,M,,*51

$GPGGA,175916.000,0010.7377,S,07828.8237,W,1,05,2.34,2789.2,M,13.7,M,,*53

$GPGSA,A,3,16,26,31,10,14,,,,,,,,2.53,2.34,0.96*09

$GPGSA,A,3,16,26,31,10,14,,,,,,,,2.53,2.34,0.96*09

$GPRMC,175917.000,A,0010.7378,S,07828.8239,W,1.04,259.79,150217,,,A*67

$GPGSV,3,1,09,10,72,116,20,26,70,192,39,51,56,270,27,16,38,202,41*7F

$GPGSV,3,2,09,31,37,341,26,14,24,001,28,21,11,152,,22,01,324,*7C

$GPGGA,175919.000,0010.7386,S,07828.8234,W,1,05,2.34,2789.2,M,13.7,M,,*51

$GPGSA,A,3,16,26,31,10,14,,,,,,,,2.53,2.34,0.96*09

$GPGSA,A,3,16,26,31,10,14,,,,,,,,2.53,2.34,0.96*09

$GPRMC,175920.000,A,0010.7388,S,07828.8237,W,0.73,179.16,150217,,,A*6B

$GPRMC,175921.000,A,0010.7391,S,07828.8238,W,1.61,194.33,150217,,,A*6B

$GPVTG,194.33,T,,M,1.61,N,2.99,K,A*35

$GPVTG,242.18,T,,M,0.57,N,1.06,K,A*35

$GPGGA,175923.000,0010.7394,S,07828.8244,W,1,05,2.34,2789.2,M,13.7,M,,*5C

$GPGSV,3,3,09,32,,,17*77

$GPRMC,175923.000,A,0010.7394,S,07828.8244,W,0.44,251.62,150217,,,A*6F

$GPRMC,175924.000,A,0010.7395,S,07828.8242,W,0.35,209.79,150217,,,A*6E

$GPVTG,209.79,T,,M,0.35,N,0.65,K,A*3D

$GPVTG,42.81,T,,M,1.45,N,2.68,K,A*0E

$GPGGA,175926.000,0010.7391,S,07828.8235,W,1,05,2.34,2789.1,M,13.7,M,,*59

$GPGGA,175927.000,0010.7393,S,07828.8235,W,1,05,2.34,2789.1,M,13.7,M,,*5A

$GPGSA,A,3,16,26,31,10,14,,,,,,,,2.53,2.34,0.96*09

$GPGSA,A,3,16,26,31,10,14,,,,,,,,2.53,2.34,0.96*09

$GPGSV,2,1,08,10,72,117,21,26,70,192,28,51,56,270,26,16,38,202,34*7C

$GPGGA,175929.000,0010.7397,S,07828.8206,W,1,04,2.49,2789.0,M,13.7,M,,*5A

$GPGSA,A,3,16,26,31,10,,,,,,,,,2.67,2.49,0.99*0E

$GPGSA,A,3,16,26,31,10,14,,,,,,,,2.53,2.34,0.96*09

$GPRMC,175930.000,A,0010.7400,S,07828.8195,W,2.08,93.70,150217,,,A*5D

$GPRMC,175931.000,A,0010.7406,S,07828.8182,W,1.70,90.55,150217,,,A*54

$GPVTG,90.55,T,,M,1.70,N,3.14,K,A*04

$GPVTG,123.86,T,,M,1.03,N,1.92,K,A*3B

$GPGGA,175933.000,0010.7412,S,07828.8173,W,1,05,2.34,2788.8,M,13.7,M,,*58

$GPRMC,175933.000,A,0010.7412,S,07828.8173,W,1.16,91.14,150217,,,A*59

$GPVTG,91.14,T,,M,1.16,N,2.15,K,A*00

$GPVTG,185.97,T,,M,0.27,N,0.50,K,A*3F

$GPGGA,175935.000,0010.7414,S,07828.8184,W,1,05,2.34,2788.8,M,13.7,M,,*50

$GPGGA,175936.000,0010.7415,S,07828.8190,W,1,05,2.34,2788.8,M,13.7,M,,*57

$GPGSA,A,3,16,26,31,10,14,,,,,,,,2.53,2.34,0.96*09

$GPGSA,A,3,16,26,31,10,14,,,,,,,,2.53,2.34,0.96*09

$GPRMC,175937.000,A,0010.7416,S,07828.8187,W,0.77,212.89,150217,,,A*69

$GPGSV,2,1,08,10,72,117,24,26,70,193,29,51,56,270,25,16,38,202,37*79

$GPGSV,2,2,08,31,37,341,18,14,24,002,20,21,11,152,,22,01,324,*7A

$GPRMC,175940.000,A,0010.7409,S,07828.8192,W,2.38,201.28,150217,,,A*63

$GPVTG,201.28,T,,M,2.38,N,4.41,K,A*3C

$GPVTG,194.43,T,,M,1.59,N,2.94,K,A*34

$GPGGA,175958.000,0010.7397,S,07828.8271,W,1,05,2.34,2790.2,M,13.7,M,,*5D

$GPRMC,175958.000,A,0010.7397,S,07828.8271,W,1.58,195.18,150217,,,A*6C

$GPVTG,195.18,T,,M,1.58,N,2.93,K,A*3D

$GPVTG,195.97,T,,M,1.49,N,2.76,K,A*31

$GPGGA,180000.000,0010.7407,S,07828.8275,W,1,05,2.34,2790.2,M,13.7,M,,*59

$GPGGA,180001.000,0010.7412,S,07828.8279,W,1,05,2.34,2790.2,M,13.7,M,,*50

$GPGSA,A,3,16,26,31,10,14,,,,,,,,2.53,2.34,0.96*09

$GPGSA,A,3,16,26,31,10,14,,,,,,,,2.53,2.34,0.96*09

$GPRMC,180002.000,A,0010.7416,S,07828.8289,W,1.90,201.34,150217,,,A*6D

$GPGSV,2,1,08,10,72,118,33,26,70,193,41,51,56,270,25,16,38,202,40*7E

$GPGSV,2,2,08,31,37,341,31,14,24,002,25,21,11,152,,22,01,324,*74

$GPGSA,A,3,16,26,31,10,14,,,,,,,,2.53,2.34,0.96*09

$GPRMC,180004.000,A,0010.7426,S,07828.8305,W,1.92,205.81,150217,,,A*65

$GPRMC,180005.000,A,0010.7433,S,07828.8311,W,2.24,205.51,150217,,,A*66

$GPVTG,205.51,T,,M,2.24,N,4.15,K,A*3A

$GPVTG,210.74,T,,M,2.17,N,4.02,K,A*3F

$GPGGA,180007.000,0010.7445,S,07828.8316,W,1,05,2.34,2790.2,M,13.7,M,,*5C

$GPGGA,180008.000,0010.7451,S,07828.8316,W,1,05,2.34,2790.0,M,13.7,M,,*54

$GPGSA,A,3,16,26,31,10,14,,,,,,,,2.53,2.34,0.96*09

$GPVTG,211.71,T,,M,2.05,N,3.79,K,A*33

$GPGGA,180009.000,0010.7454,S,07828.8318,W,1,05,2.34,2789.9,M,13.7,M,,*5F

$GPGGA,180010.000,0010.7459,S,07828.8317,W,1,05,2.34,2789.7,M,13.7,M,,*5B

$GPGSA,A,3,16,26,31,10,14,,,,,,,,2.53,2.34,0.96*09

$GPGSA,A,3,16,26,31,10,14,,,,,,,,2.53,2.34,0.96*09

$GPRMC,180011.000,A,0010.7462,S,07828.8319,W,1.59,216.66,150217,,,A*60

$GPRMC,180012.000,A,0010.7468,S,07828.8318,W,1.63,211.32,150217,,,D*62

$GPVTG,211.32,T,,M,1.63,N,3.02,K,D*3E

$GPGSV,3,2,09,31,37,341,26,14,24,002,27,21,11,152,,22,01,324,*70

$GPGSV,3,3,09,01,01,299,*42

$GPGSA,A,3,16,26,31,10,14,,,,,,,,2.53,2.35,0.96*08

$GPRMC,180014.000,A,0010.7476,S,07828.8324,W,1.79,221.85,150217,,,D*60

$GPRMC,180015.000,A,0010.7481,S,07828.8324,W,1.78,217.59,150217,,,D*6C

$GPVTG,217.59,T,,M,1.78,N,3.30,K,D*3E

$GPVTG,216.75,T,,M,1.77,N,3.28,K,D*37

$GPGGA,180017.000,0010.7494,S,07828.8322,W,2,05,2.34,2789.2,M,13.7,M,0000,0000*5D


$GPGSA,A,3,16,26,31,10,14,,,,,,,,2.53,2.35,0.96*08
