
$GPGGA,220251.000,0010.9427,S,07829.0238,W,1,05,2.33,2789.0,M,13.7,M,,*57

$GPGSA,A,3,17,23,11,09,01,,,,,,,,6.17,2.33,5.72*0F

$GPGSA,A,3,17,23,11,09,01,,,,,,,,6.17,2.33,5.72*0F

$GPGSV,3,1,12,01,64,104,29,11,63,039,33,51,56,270,,09,51,242,32*70

$GPVTG,357.69,T,,M,0.32,N,0.58,K,A*3F

$GPGGA,220253.000,0010.9412,S,07829.0227,W,1,05,2.33,2785.1,M,13.7,M,,*50

$GPGGA,220254.000,0010.9404,S,07829.0225,W,1,05,1.77,2783.6,M,13.7,M,,*50

$GPGSA,A,3,17,23,11,09,01,,,,,,,,2.02,1.77,0.99*0C

$GPGSA,A,3,17,23,11,09,01,,,,,,,,2.02,1.77,0.99*0C

$GPRMC,220255.000,A,0010.9400,S,07829.0223,W,0.42,2.31,300317,,,A*68

$GPRMC,220256.000,A,0010.9399,S,07829.0223,W,0.33,7.95,300317,,,A*61

$GPVTG,7.95,T,,M,0.33,N,0.62,K,A*32

$GPGSV,3,2,12,23,41,184,36,17,28,246,26,19,,,22,07,,,40*74

$GPGSV,3,3,12,22,,,37,08,,,19,28,,,26,30,,,36*76

$GPGSA,A,3,17,23,11,09,01,,,,,,,,6.17,2.32,5.72*0E

$GPRMC,220258.000,A,0010.9396,S,07829.0224,W,0.13,317.21,300317,,,A*68

$GPRMC,220259.000,A,0010.9395,S,07829.0224,W,0.26,227.86,300317,,,A*63

$GPVTG,227.86,T,,M,0.26,N,0.48,K,A*3C

$GPVTG,267.92,T,,M,0.11,N,0.21,K,A*36

$GPGGA,220301.000,0010.9391,S,07829.0223,W,1,06,1.39,2780.8,M,13.7,M,,*58

$GPGGA,220302.000,0010.9387,S,07829.0222,W,1,06,1.39,2779.5,M,13.7,M,,*56

$GPGSA,A,3,17,23,11,07,09,01,,,,,,,1.70,1.39,0.98*06

$GPRMC,220302.000,A,0010.9387,S,07829.0222,W,0.07,323.89,300317,,,A*60

$GPVTG,323.89,T,,M,0.07,N,0.13,K,A*3B

$GPVTG,270.81,T,,M,0.13,N,0.24,K,A*35

$GPGGA,220304.000,0010.9382,S,07829.0219,W,1,06,1.39,2777.5,M,13.7,M,,*53

$GPGGA,220305.000,0010.9382,S,07829.0218,W,1,06,1.39,2776.9,M,13.7,M,,*5E

$GPGSA,A,3,17,23,11,07,09,01,,,,,,,1.70,1.39,0.98*06

$GPGSA,A,3,17,23,11,07,09,01,,,,,,,1.70,1.39,0.98*06

$GPRMC,220306.000,A,0010.9381,S,07829.0217,W,0.12,338.60,300317,,,A*6D

$GPGSV,3,1,12,01,64,104,34,11,63,039,34,09,51,242,37,07,47,356,40*7C

$GPGSV,3,2,12,23,41,184,37,17,28,246,37,48,27,270,34,19,,,23*4C

$GPGGA,220308.000,0010.9379,S,07829.0213,W,1,06,1.39,2775.2,M,13.7,M,,*54

$GPGSA,A,3,17,23,11,07,09,01,,,,,,,1.70,1.39,0.98*06

$GPGSA,A,3,17,23,11,07,09,01,,,,,,,1.70,1.39,0.98*06

$GPRMC,220309.000,A,0010.9379,S,07829.0211,W,0.19,134.68,300317,,,A*6E

$GPRMC,220310.000,A,0010.9379,S,07829.0210,W,0.07,131.76,300317,,,A*62

$GPVTG,131.76,T,,M,0.07,N,0.12,K,A*3B

$GPVTG,288.09,T,,M,0.16,N,0.29,K,A*3A

$GPGGA,220312.000,0010.9378,S,07829.0211,W,1,06,1.39,2775.0,M,13.7,M,,*5E

$GPGSV,3,3,12,22,,,29,08,,,20,28,,,24,30,,,23*75

$GPRMC,220312.000,A,0010.9378,S,07829.0211,W,0.20,291.13,300317,,,A*6F

$GPRMC,220313.000,A,0010.9377,S,07829.0211,W,0.22,321.02,300317,,,A*69

$GPVTG,321.02,T,,M,0.22,N,0.41,K,A*3A

$GPVTG,3.36,T,,M,0.18,N,0.33,K,A*32

$GPGGA,220315.000,0010.9377,S,07829.0211,W,1,06,1.89,2775.4,M,13.7,M,,*59

$GPGGA,220316.000,0010.9378,S,07829.0212,W,1,06,1.89,2775.6,M,13.7,M,,*54

$GPGSA,A,3,17,23,11,07,09,01,,,,,,,5.39,1.89,5.05*05

$GPGSA,A,3,17,23,11,07,09,01,,,,,,,1.70,1.39,0.98*06

$GPGSV,3,1,11,01,64,104,29,11,63,039,32,09,51,242,28,07,47,356,36*7A

$GPVTG,243.08,T,,M,0.10,N,0.19,K,A*39

$GPGGA,220318.000,0010.9377,S,07829.0213,W,1,06,1.39,2775.3,M,13.7,M,,*5A

$GPGGA,220319.000,0010.9376,S,07829.0213,W,1,06,1.39,2775.2,M,13.7,M,,*5B

$GPGSA,A,3,17,23,11,07,09,01,,,,,,,1.70,1.39,0.98*06

$GPGSA,A,3,17,23,11,07,09,01,,,,,,,1.70,1.39,0.98*06

$GPRMC,220320.000,A,0010.9376,S,07829.0212,W,0.07,76.00,300317,,,A*5F

$GPRMC,220321.000,A,0010.9376,S,07829.0212,W,0.06,161.63,300317,,,A*6D

$GPVTG,161.63,T,,M,0.06,N,0.12,K,A*3B

$GPGSV,3,2,12,23,41,184,27,17,28,246,19,33,18,090,,19,,,14*4E

$GPGSV,3,3,12,22,,,28,08,,,26,28,,,23,30,,,20*76

$GPGSA,A,3,17,23,11,07,09,01,,,,,,,1.70,1.39,0.98*06

$GPRMC,220323.000,A,0010.9377,S,07829.0214,W,0.11,182.48,300317,,,A*6A

$GPRMC,220324.000,A,0010.9377,S,07829.0214,W,0.20,172.09,300317,,,A*65

$GPVTG,172.09,T,,M,0.20,N,0.37,K,A*36

$GPVTG,192.40,T,,M,0.15,N,0.28,K,A*3D

$GPGGA,220326.000,0010.9378,S,07829.0215,W,1,07,1.12,2775.7,M,13.7,M,,*52

$GPGGA,220327.000,0010.9378,S,07829.0215,W,1,07,1.12,2775.7,M,13.7,M,,*53

$GPGSA,A,3,17,23,11,07,09,01,22,,,,,,1.45,1.12,0.92*03

$GPRMC,220327.000,A,0010.9378,S,07829.0215,W,0.20,272.29,300317,,,A*69

$GPVTG,272.29,T,,M,0.20,N,0.37,K,A*37

$GPVTG,247.21,T,,M,0.15,N,0.27,K,A*3E

$GPGGA,220329.000,0010.9378,S,07829.0216,W,1,07,1.12,2775.8,M,13.7,M,,*51

$GPGGA,220330.000,0010.9378,S,07829.0217,W,1,07,1.12,2775.8,M,13.7,M,,*58

$GPGSA,A,3,17,23,11,07,09,01,22,,,,,,1.45,1.12,0.92*03

$GPGSA,A,3,17,23,11,07,09,01,22,,,,,,1.45,1.12,0.92*03

$GPRMC,220331.000,A,0010.9378,S,07829.0217,W,0.22,265.25,300317,,,A*64

$GPGSV,3,1,12,01,64,104,37,11,63,039,35,51,56,270,,09,51,242,25*7F

$GPGSV,3,2,12,07,47,356,38,23,41,184,21,17,28,246,21,22,20,132,33*73

$GPGGA,220333.000,0010.9378,S,07829.0218,W,1,07,1.12,2775.9,M,13.7,M,,*55

$GPGSA,A,3,17,23,11,07,09,01,22,,,,,,1.45,1.12,0.92*03

$GPGSA,A,3,17,23,11,07,09,01,22,,,,,,1.45,1.12,0.92*03

$GPRMC,220334.000,A,0010.9378,S,07829.0219,W,0.26,240.14,300317,,,A*6E

$GPRMC,220335.000,A,0010.9379,S,07829.0220,W,0.25,249.34,300317,,,A*6C

$GPVTG,249.34,T,,M,0.25,N,0.46,K,A*30

$GPVTG,285.37,T,,M,0.27,N,0.50,K,A*36

$GPGGA,220337.000,0010.9381,S,07829.0227,W,1,07,1.12,2775.7,M,13.7,M,,*55

$GPGSV,3,3,12,19,,,17,08,,,38,28,,,33,30,,,32*7F

$GPRMC,220337.000,A,0010.9381,S,07829.0227,W,0.48,271.28,300317,,,A*63

$GPRMC,220338.000,A,0010.9377,S,07829.0225,W,0.35,334.04,300317,,,A*63

$GPVTG,334.04,T,,M,0.35,N,0.65,K,A*38

$GPVTG,31.42,T,,M,0.27,N,0.50,K,A*09

$GPGGA,220340.000,0010.9376,S,07829.0225,W,1,07,1.12,2776.0,M,13.7,M,,*5B

$GPGGA,220341.000,0010.9376,S,07829.0225,W,1,07,1.12,2776.2,M,13.7,M,,*58

$GPGSA,A,3,17,23,11,07,09,01,22,,,,,,1.45,1.12,0.92*03

$GPGSA,A,3,17,23,11,07,09,01,22,,,,,,1.45,1.12,0.92*03

$GPGSV,3,1,12,01,64,104,24,11,63,038,27,51,56,270,35,09,51,241,33*7D

$GPVTG,58.54,T,,M,0.53,N,0.99,K,A*07

$GPGGA,220343.000,0010.9373,S,07829.0223,W,1,07,1.12,2776.5,M,13.7,M,,*5E

$GPGGA,220344.000,0010.9372,S,07829.0222,W,1,07,1.12,2776.7,M,13.7,M,,*5B

$GPGSA,A,3,17,23,11,07,09,01,22,,,,,,1.45,1.12,0.92*03

$GPGSA,A,3,17,23,11,07,09,01,22,,,,,,1.45,1.12,0.92*03

$GPRMC,220345.000,A,0010.9371,S,07829.0221,W,0.44,66.02,300317,,,A*5F

$GPRMC,220346.000,A,0010.9370,S,07829.0221,W,0.30,73.97,300317,,,A*56

$GPVTG,73.97,T,,M,0.30,N,0.55,K,A*04

$GPGSV,3,2,12,07,48,356,39,23,41,184,23,17,28,247,32,22,20,132,24*7A

$GPGSV,3,3,12,19,,,23,08,,,38,28,,,33,30,,,32*78

$GPGSA,A,3,17,23,11,07,09,01,22,,,,,,1.45,1.12,0.92*03

$GPRMC,220348.000,A,0010.9369,S,07829.0223,W,0.08,254.06,300317,,,A*66

$GPRMC,220349.000,A,0010.9368,S,07829.0224,W,0.13,325.92,300317,,,A*61

$GPVTG,325.92,T,,M,0.13,N,0.23,K,A*31

$GPVTG,350.11,T,,M,0.15,N,0.28,K,A*35

$GPGGA,220351.000,0010.9368,S,07829.0224,W,1,07,1.23,2777.3,M,13.7,M,,*55

$GPGGA,220352.000,0010.9368,S,07829.0224,W,1,07,1.12,2777.3,M,13.7,M,,*54

$GPGSA,A,3,17,23,11,07,09,01,22,,,,,,1.45,1.12,0.92*03

$GPRMC,220352.000,A,0010.9368,S,07829.0224,W,0.24,178.76,300317,,,A*6F

$GPVTG,178.76,T,,M,0.24,N,0.45,K,A*35

$GPVTG,104.22,T,,M,0.63,N,1.17,K,A*3A

$GPGGA,220354.000,0010.9368,S,07829.0219,W,1,07,1.12,2777.3,M,13.7,M,,*5C

$GPGGA,220355.000,0010.9367,S,07829.0211,W,1,07,1.12,2777.4,M,13.7,M,,*5D

$GPGSA,A,3,17,23,11,07,09,01,22,,,,,,1.45,1.12,0.92*03

$GPGSA,A,3,17,23,11,07,09,01,22,,,,,,1.45,1.12,0.92*03

$GPRMC,220356.000,A,0010.9365,S,07829.0204,W,2.05,74.27,300317,,,A*5C

$GPGSV,3,1,12,01,64,104,25,11,63,038,22,09,51,241,36,07,48,356,30*70

$GPGSV,3,2,12,23,41,184,36,17,28,247,38,48,27,270,,22,20,132,21*7C

$GPGGA,220358.000,0010.9360,S,07829.0196,W,1,07,1.12,2777.8,M,13.7,M,,*57

$GPGSA,A,3,17,23,11,07,09,01,22,,,,,,1.45,1.12,0.92*03

$GPGSA,A,3,17,23,11,07,09,01,22,,,,,,1.45,1.12,0.92*03

$GPRMC,220359.000,A,0010.9357,S,07829.0189,W,2.11,61.45,300317,,,A*51

$GPRMC,220400.000,A,0010.9353,S,07829.0183,W,2.30,61.25,300317,,,A*51

$GPVTG,61.25,T,,M,2.30,N,4.27,K,A*0D

$GPVTG,62.92,T,,M,2.24,N,4.14,K,A*07

$GPGGA,220402.000,0010.9350,S,07829.0172,W,1,09,0.92,2779.7,M,13.7,M,,*50

$GPGSV,4,3,13,19,10,231,34,28,08,311,33,08,,,19,30,,,20*72

$GPGSV,4,4,13,03,,,30*7B

$GPGSA,A,3,17,23,19,11,07,09,01,22,28,,,,1.23,0.92,0.81*0A

$GPRMC,220403.000,A,0010.9346,S,07829.0169,W,2.03,51.29,300317,,,A*5D

$GPRMC,220404.000,A,0010.9341,S,07829.0165,W,2.35,44.35,300317,,,A*5D

$GPVTG,44.35,T,,M,2.35,N,4.36,K,A*0E

$GPVTG,23.28,T,,M,2.55,N,4.72,K,A*05

$GPGGA,220406.000,0010.9322,S,07829.0162,W,1,09,0.92,2781.3,M,13.7,M,,*53

$GPGGA,220407.000,0010.9310,S,07829.0162,W,1,09,0.96,2781.9,M,13.7,M,,*5D

$GPGSA,A,3,17,23,19,07,09,01,22,28,11,,,,1.70,0.96,1.40*04

$GPGSV,4,4,13,30,,,20*7A

$GPRMC,220407.000,A,0010.9310,S,07829.0162,W,4.62,0.85,300317,,,A*62

$GPRMC,220408.000,A,0010.9295,S,07829.0164,W,5.18,356.54,300317,,,A*67

$GPVTG,356.54,T,,M,5.18,N,9.61,K,A*3E

$GPVTG,343.81,T,,M,4.57,N,8.47,K,A*3D

$GPGGA,220410.000,0010.9271,S,07829.0172,W,1,09,0.96,2783.1,M,13.7,M,,*56

$GPGGA,220411.000,0010.9257,S,07829.0180,W,1,09,0.96,2783.3,M,13.7,M,,*5C

$GPGSA,A,3,17,23,19,07,09,01,22,28,11,,,,1.70,0.96,1.40*04

$GPGSA,A,3,17,23,19,07,09,01,22,28,11,,,,1.70,0.96,1.40*04

$GPGSV,4,1,13,01,64,103,39,11,63,038,36,09,50,241,26,07,48,356,33*7A

$GPRMC,220412.000,A,0010.9244,S,07829.0187,W,4.66,334.01,300317,,,A*61

$GPVTG,334.01,T,,M,4.66,N,8.63,K,A*31

$GPVTG,327.45,T,,M,5.69,N,10.54,K,A*00

$GPGGA,220414.000,0010.9219,S,07829.0202,W,1,09,0.96,2783.9,M,13.7,M,,*50

$GPGGA,220415.000,0010.9206,S,07829.0210,W,1,09,0.96,2784.1,M,13.7,M,,*53

$GPGSA,A,3,17,23,19,07,09,01,22,28,11,,,,1.70,0.96,1.40*04

$GPGSA,A,3,17,23,07,09,01,22,28,11,,,,,1.80,1.01,1.48*04

$GPRMC,220416.000,A,0010.9194,S,07829.0217,W,4.68,332.15,300317,,,A*6C

$GPGSV,4,1,13,01,64,103,35,11,63,038,25,09,50,241,38,07,48,356,31*79

$GPGSV,4,2,13,23,41,184,39,17,28,247,41,22,20,132,33,19,10,231,35*7B

$GPVTG,316.46,T,,M,4.96,N,9.19,K,A*31

$GPGGA,220418.000,0010.9174,S,07829.0235,W,1,09,0.96,2785.2,M,13.7,M,,*5D

$GPGGA,220419.000,0010.9160,S,07829.0242,W,1,09,0.96,2785.4,M,13.7,M,,*5F

$GPGSA,A,3,17,23,19,07,09,01,22,28,11,,,,1.70,0.96,1.40*04

$GPGSA,A,3,17,23,19,07,09,01,22,28,11,,,,1.70,0.96,1.40*04

$GPRMC,220420.000,A,0010.9151,S,07829.0248,W,3.80,327.77,300317,,,A*6B

$GPRMC,220421.000,A,0010.9141,S,07829.0256,W,5.69,312.56,300317,,,A*60

$GPVTG,312.56,T,,M,5.69,N,10.55,K,A*05

$GPGSV,4,2,13,23,41,184,35,17,28,247,25,22,20,132,39,19,10,231,21*7A

$GPGSV,4,3,13,28,08,311,15,36,,,,03,,,35,08,,,24*47

$GPGGA,220423.000,0010.9114,S,07829.0277,W,1,09,0.96,2786.6,M,13.7,M,,*52

$GPGSA,A,3,17,23,19,07,09,01,22,28,11,,,,1.70,0.96,1.40*04

$GPGSA,A,3,17,23,19,07,09,01,22,28,11,,,,1.70,0.96,1.40*04

$GPRMC,220424.000,A,0010.9103,S,07829.0287,W,5.05,314.47,300317,,,A*63

$GPRMC,220425.000,A,0010.9095,S,07829.0297,W,4.51,304.85,300317,,,A*62

$GPVTG,304.85,T,,M,4.51,N,8.36,K,A*3A

$GPVTG,313.94,T,,M,5.49,N,10.18,K,A*01

$GPGGA,220427.000,0010.9073,S,07829.0318,W,1,09,0.96,2787.9,M,13.7,M,,*50

$GPGSV,4,3,13,28,08,311,11,38,,,,03,,,32,08,,,24*4A

$GPGSV,4,4,13,30,,,16*7F

$GPGSA,A,3,17,23,19,07,09,01,22,28,11,,,,1.70,0.96,1.40*04

$GPRMC,220428.000,A,0010.9065,S,07829.0328,W,4.68,306.12,300317,,,A*63

$GPRMC,220429.000,A,0010.9057,S,07829.0338,W,3.87,309.64,300317,,,A*6A

$GPVTG,309.64,T,,M,3.87,N,7.17,K,A*38

$GPVTG,308.60,T,,M,4.58,N,8.48,K,A*3D

$GPGGA,220431.000,0010.9040,S,07829.0358,W,1,10,0.91,2788.8,M,13.7,M,,*52

$GPGGA,220432.000,0010.9031,S,07829.0368,W,1,10,0.91,2789.1,M,13.7,M,,*5C

$GPGSA,A,3,17,23,19,03,07,09,01,22,28,11,,,1.62,0.91,1.35*01

$GPRMC,220432.000,A,0010.9031,S,07829.0368,W,4.97,307.12,300317,,,A*6C

$GPVTG,307.12,T,,M,4.97,N,9.22,K,A*39

$GPVTG,300.89,T,,M,4.91,N,9.09,K,A*33

$GPGGA,220434.000,0010.9019,S,07829.0392,W,1,10,0.91,2790.0,M,13.7,M,,*5C

$GPGGA,220435.000,0010.9015,S,07829.0404,W,1,10,0.91,2790.6,M,13.7,M,,*5F

$GPGSA,A,3,17,23,19,03,07,09,01,22,28,11,,,1.63,0.91,1.35*00

$GPGSA,A,3,17,23,19,03,07,09,01,22,28,11,,,1.62,0.91,1.35*01

$GPRMC,220436.000,A,0010.9010,S,07829.0415,W,4.56,294.72,300317,,,A*66

$GPGSV,3,1,12,01,64,103,37,11,63,038,33,09,50,241,28,07,48,356,33*79

$GPGSV,3,2,12,23,41,183,37,17,28,247,26,03,22,158,27,22,20,131,36*76

$GPGGA,220438.000,0010.9001,S,07829.0438,W,1,10,0.91,2791.8,M,13.7,M,,*57

$GPGSA,A,3,17,23,19,03,07,09,01,22,28,11,,,1.62,0.91,1.35*01

$GPGSA,A,3,17,23,19,03,07,09,01,22,28,11,,,1.18,0.87,0.80*04

$GPRMC,220439.000,A,0010.8998,S,07829.0448,W,3.47,283.59,300317,,,A*61

$GPRMC,220440.000,A,0010.8994,S,07829.0458,W,3.75,286.69,300317,,,A*65

$GPVTG,286.69,T,,M,3.75,N,6.96,K,A*36

$GPVTG,285.83,T,,M,4.03,N,7.47,K,A*3A

$GPGGA,220442.000,0010.8987,S,07829.0480,W,1,10,0.91,2793.1,M,13.7,M,,*54

$GPGSV,3,3,12,19,10,231,19,28,08,312,16,43,,,,08,,,23*70

$GPRMC,220442.000,A,0010.8987,S,07829.0480,W,3.83,281.04,300317,,,A*65

$GPRMC,220443.000,A,0010.8984,S,07829.0490,W,3.75,286.64,300317,,,A*6E

$GPVTG,286.64,T,,M,3.75,N,6.95,K,A*38

$GPVTG,287.89,T,,M,3.46,N,6.42,K,A*30

$GPGGA,220445.000,0010.8977,S,07829.0510,W,1,10,0.87,2794.1,M,13.7,M,,*54

$GPGGA,220446.000,0010.8974,S,07829.0523,W,1,10,0.87,2794.2,M,13.7,M,,*57

$GPGSA,A,3,17,23,19,03,07,09,01,22,28,11,,,1.18,0.87,0.80*04

$GPGSA,A,3,17,23,19,03,07,09,01,22,28,11,,,1.63,0.91,1.35*00

$GPGSV,3,1,12,01,64,102,38,11,63,038,35,09,50,241,27,07,48,356,35*78

$GPVTG,275.16,T,,M,4.26,N,7.90,K,A*34

$GPGGA,220448.000,0010.8970,S,07829.0548,W,1,10,0.91,2794.7,M,13.7,M,,*52

$GPGGA,220449.000,0010.8968,S,07829.0561,W,1,10,0.91,2794.9,M,13.7,M,,*5F

$GPGSA,A,3,17,23,19,03,07,09,01,22,28,11,,,1.62,0.91,1.35*01

$GPGSA,A,3,17,23,19,03,07,09,01,22,28,11,,,1.63,0.91,1.35*00

$GPRMC,220450.000,A,0010.8967,S,07829.0576,W,4.82,269.65,300317,,,A*67

$GPRMC,220451.000,A,0010.8968,S,07829.0590,W,4.78,265.00,300317,,,A*6B

$GPVTG,265.00,T,,M,4.78,N,8.86,K,A*31

$GPGSV,3,2,12,23,41,183,27,17,28,247,22,03,22,158,34,22,20,131,35*72

$GPGSV,3,3,12,19,10,231,17,28,08,312,15,46,,,,08,,,25*7E

$GPGSA,A,3,17,23,19,03,07,09,01,22,28,11,,,1.18,0.87,0.80*04

$GPRMC,220453.000,A,0010.8969,S,07829.0619,W,4.93,261.64,300317,,,A*69

$GPRMC,220454.000,A,0010.8971,S,07829.0634,W,4.59,266.49,300317,,,A*66

$GPVTG,266.49,T,,M,4.59,N,8.50,K,A*37

$GPVTG,260.55,T,,M,5.05,N,9.36,K,A*35

$GPGGA,220456.000,0010.8975,S,07829.0663,W,1,10,0.91,2796.6,M,13.7,M,,*51

$GPGGA,220457.000,0010.8978,S,07829.0677,W,1,10,0.91,2796.7,M,13.7,M,,*59

$GPGSA,A,3,17,23,19,03,07,09,01,22,28,11,,,1.62,0.91,1.35*01

$GPRMC,220457.000,A,0010.8978,S,07829.0677,W,4.32,263.09,300317,,,A*67

$GPVTG,263.09,T,,M,4.32,N,8.01,K,A*3F

$GPVTG,253.44,T,,M,3.70,N,6.86,K,A*35

$GPGGA,220459.000,0010.8984,S,07829.0700,W,1,10,0.87,2796.9,M,13.7,M,,*5C

$GPGGA,220500.000,0010.8990,S,07829.0713,W,1,10,0.91,2797.0,M,13.7,M,,*59

$GPGSA,A,3,17,23,19,03,07,09,01,22,28,11,,,1.63,0.91,1.35*00

$GPGSA,A,3,17,23,19,03,07,09,01,22,28,11,,,1.18,0.87,0.80*04

$GPRMC,220501.000,A,0010.8996,S,07829.0726,W,4.48,247.42,300317,,,A*64

$GPGSV,3,1,12,01,64,102,37,11,62,038,34,09,50,240,23,07,48,356,39*7E

$GPGSV,3,2,12,23,41,183,31,17,28,247,23,03,22,158,24,22,20,131,29*78

$GPGGA,220503.000,0010.9008,S,07829.0756,W,1,10,0.91,2797.5,M,13.7,M,,*57

$GPGSA,A,3,17,23,19,03,07,09,01,22,28,11,,,1.63,0.91,1.35*00

$GPGSA,A,3,17,23,19,03,07,09,01,22,28,11,,,1.62,0.91,1.35*01

$GPRMC,220504.000,A,0010.9013,S,07829.0770,W,4.85,247.81,300317,,,A*69

$GPRMC,220505.000,A,0010.9016,S,07829.0782,W,4.48,243.19,300317,,,A*64

$GPVTG,243.19,T,,M,4.48,N,8.29,K,A*3B

$GPVTG,244.38,T,,M,4.72,N,8.74,K,A*3E

$GPGGA,220507.000,0010.9027,S,07829.0807,W,1,10,0.91,2799.1,M,13.7,M,,*5F

$GPGSV,3,3,12,19,10,231,19,28,08,312,13,49,,,,08,,,39*74

$GPRMC,220507.000,A,0010.9027,S,07829.0807,W,4.97,237.90,300317,,,A*66

$GPRMC,220508.000,A,0010.9032,S,07829.0818,W,4.34,239.18,300317,,,A*64

$GPVTG,239.18,T,,M,4.34,N,8.04,K,A*33

$GPVTG,239.83,T,,M,4.44,N,8.23,K,A*33

$GPGGA,220510.000,0010.9044,S,07829.0841,W,1,10,0.91,2798.8,M,13.7,M,,*56

$GPGGA,220511.000,0010.9050,S,07829.0853,W,1,10,0.87,2798.6,M,13.7,M,,*58

$GPGSA,A,3,17,23,19,03,07,09,01,22,28,11,,,1.18,0.87,0.80*04

$GPGSA,A,3,17,23,19,03,07,09,01,22,28,11,,,1.63,0.91,1.35*00

$GPGSV,3,1,12,01,64,102,37,11,62,038,37,51,56,270,,09,50,240,22*7F

$GPVTG,232.98,T,,M,4.43,N,8.21,K,A*37

$GPGGA,220513.000,0010.9068,S,07829.0878,W,1,10,0.91,2798.8,M,13.7,M,,*51

$GPGGA,220514.000,0010.9076,S,07829.0888,W,1,09,1.14,2798.7,M,13.7,M,,*5D

$GPGSA,A,3,17,23,19,03,07,09,01,22,11,,,,2.23,1.14,1.91*0F

$GPGSA,A,3,17,23,19,03,07,09,01,22,28,11,,,1.63,0.91,1.35*00

$GPRMC,220515.000,A,0010.9085,S,07829.0898,W,4.80,222.95,300317,,,A*6C

$GPRMC,220516.000,A,0010.9096,S,07829.0908,W,4.67,217.94,300317,,,A*6B

$GPVTG,217.94,T,,M,4.67,N,8.66,K,A*39

$GPGSV,3,2,12,07,48,356,41,23,41,183,27,17,28,247,24,03,22,158,27*7F

$GPGSV,3,3,12,22,20,131,30,19,10,231,17,28,08,312,15,08,,,37*4D

$GPGSA,A,3,17,23,19,03,07,09,01,22,28,11,,,1.63,0.91,1.35*00

$GPRMC,220518.000,A,0010.9114,S,07829.0923,W,4.24,214.74,300317,,,A*6D

$GPRMC,220519.000,A,0010.9123,S,07829.0929,W,4.39,214.57,300317,,,A*6F

$GPVTG,214.57,T,,M,4.39,N,8.13,K,A*3C

$GPVTG,214.71,T,,M,4.29,N,7.95,K,A*38

$GPGGA,220521.000,0010.9143,S,07829.0944,W,1,10,0.91,2797.0,M,13.7,M,,*51

$GPGGA,220522.000,0010.9154,S,07829.0951,W,1,10,0.91,2796.4,M,13.7,M,,*55

$GPGSA,A,3,17,23,19,03,07,09,01,22,28,11,,,1.63,0.91,1.35*00

$GPRMC,220522.000,A,0010.9154,S,07829.0951,W,4.94,208.36,300317,,,A*65

$GPVTG,208.36,T,,M,4.94,N,9.16,K,A*35

$GPVTG,216.93,T,,M,4.58,N,8.48,K,A*3F

$GPGGA,220524.000,0010.9176,S,07829.0966,W,1,09,1.14,2795.6,M,13.7,M,,*52

$GPGGA,220525.000,0010.9188,S,07829.0975,W,1,10,0.91,2795.0,M,13.7,M,,*52

$GPGSA,A,3,17,23,19,03,07,09,01,22,28,11,,,1.63,0.91,1.35*00

$GPGSA,A,3,17,23,19,03,07,09,01,22,28,11,,,1.63,0.91,1.35*00

$GPRMC,220526.000,A,0010.9202,S,07829.0984,W,4.64,201.67,300317,,,A*6B

$GPGSV,3,1,12,01,64,101,35,11,62,038,37,09,50,240,27,07,48,356,41*77

$GPGSV,3,2,12,23,41,183,25,17,28,247,30,48,27,270,29,03,23,158,25*72

$GPGGA,220528.000,0010.9230,S,07829.1002,W,1,10,0.91,2794.1,M,13.7,M,,*57

$GPGSA,A,3,17,23,19,03,07,09,01,22,28,11,,,1.63,0.91,1.35*00

$GPGSA,A,3,17,23,19,03,07,09,01,22,28,11,,,1.63,0.91,1.35*00

$GPRMC,220529.000,A,0010.9245,S,07829.1009,W,5.35,204.09,300317,,,A*62

$GPRMC,220530.000,A,0010.9258,S,07829.1015,W,5.29,200.40,300317,,,A*6F

$GPVTG,200.40,T,,M,5.29,N,9.81,K,A*35

$GPVTG,195.85,T,,M,5.26,N,9.74,K,A*36

$GPGGA,220532.000,0010.9296,S,07829.1031,W,1,11,0.78,2797.4,M,13.7,M,,*50

$GPGSV,3,3,12,22,20,131,31,08,18,020,40,19,10,231,13,28,08,312,25*70

$GPRMC,220532.000,A,0010.9296,S,07829.1031,W,4.96,196.42,300317,,,A*62

$GPRMC,220533.000,A,0010.9311,S,07829.1035,W,4.59,188.38,300317,,,A*68

$GPVTG,188.38,T,,M,4.59,N,8.50,K,A*32

$GPVTG,182.64,T,,M,4.32,N,8.01,K,A*38

$GPGGA,220535.000,0010.9339,S,07829.1040,W,1,11,0.78,2799.2,M,13.7,M,,*5D

$GPGGA,220536.000,0010.9353,S,07829.1044,W,1,11,0.78,2799.6,M,13.7,M,,*52

$GPGSA,A,3,17,23,19,03,07,09,01,22,08,28,11,,1.43,0.78,1.19*03

$GPGSA,A,3,17,23,19,03,07,09,01,22,08,28,11,,1.43,0.78,1.19*03

$GPGSV,3,1,12,01,64,101,31,11,62,038,37,09,50,240,25,07,48,356,41*71

$GPVTG,186.09,T,,M,4.93,N,9.14,K,A*39

$GPGGA,220538.000,0010.9380,S,07829.1048,W,1,10,0.86,2799.9,M,13.7,M,,*51

$GPGGA,220539.000,0010.9391,S,07829.1049,W,1,11,0.78,2800.1,M,13.7,M,,*56

$GPGSA,A,3,17,23,19,03,07,09,01,22,08,28,11,,1.43,0.78,1.20*09

$GPGSA,A,3,17,23,19,03,07,09,01,22,08,11,,,1.60,0.86,1.35*07

$GPRMC,220540.000,A,0010.9405,S,07829.1052,W,4.69,191.11,300317,,,A*6F

$GPRMC,220541.000,A,0010.9418,S,07829.1054,W,4.64,187.81,300317,,,A*67

$GPVTG,187.81,T,,M,4.64,N,8.60,K,A*32

$GPGSV,3,2,12,23,40,183,21,17,29,247,21,03,23,158,22,22,20,131,28*7D

$GPGSV,3,3,12,08,18,020,37,33,18,090,,19,10,231,17,28,08,312,13*72

$GPGSA,A,3,17,23,19,03,07,09,01,22,08,11,,,1.60,0.86,1.35*07

$GPRMC,220543.000,A,0010.9444,S,07829.1057,W,4.47,188.29,300317,,,A*63

$GPRMC,220544.000,A,0010.9458,S,07829.1060,W,4.57,189.72,300317,,,A*63

$GPVTG,189.72,T,,M,4.57,N,8.47,K,A*35

$GPVTG,186.35,T,,M,4.19,N,7.77,K,A*3F

$GPGGA,220546.000,0010.9484,S,07829.1068,W,1,11,0.78,2801.8,M,13.7,M,,*56

$GPGGA,220547.000,0010.9498,S,07829.1072,W,1,11,0.78,2801.7,M,13.7,M,,*5E

$GPGSA,A,3,17,23,19,03,07,09,01,22,08,28,11,,1.43,0.78,1.20*09

$GPRMC,220547.000,A,0010.9498,S,07829.1072,W,4.82,190.57,300317,,,A*68

$GPVTG,190.57,T,,M,4.82,N,8.93,K,A*3B

$GPVTG,188.81,T,,M,4.82,N,8.93,K,A*39

$GPGGA,220549.000,0010.9527,S,07829.1077,W,1,11,0.78,2802.3,M,13.7,M,,*57

$GPGGA,220550.000,0010.9542,S,07829.1082,W,1,10,0.86,2802.1,M,13.7,M,,*54

$GPGSA,A,3,17,23,19,03,07,09,01,22,08,11,,,1.60,0.86,1.35*07

$GPGSA,A,3,17,23,19,03,07,09,01,22,08,28,11,,1.43,0.78,1.20*09

$GPRMC,220551.000,A,0010.9557,S,07829.1087,W,5.39,193.19,300317,,,A*6F

$GPGSV,3,1,12,01,64,101,34,11,62,038,38,09,50,240,28,07,48,356,42*75

$GPGSV,3,2,12,23,40,183,22,17,29,247,29,03,23,158,21,22,20,131,26*7B

$GPGGA,220553.000,0010.9587,S,07829.1097,W,1,11,0.78,2801.6,M,13.7,M,,*5E

$GPGSA,A,3,17,23,19,03,07,09,01,22,08,28,11,,1.43,0.78,1.20*09

$GPGSA,A,3,17,23,19,03,07,09,01,22,08,28,11,,1.43,0.78,1.20*09

$GPRMC,220554.000,A,0010.9602,S,07829.1102,W,5.19,194.09,300317,,,A*61

$GPRMC,220555.000,A,0010.9617,S,07829.1106,W,5.15,189.04,300317,,,A*6D

$GPVTG,189.04,T,,M,5.15,N,9.54,K,A*30

$GPVTG,189.63,T,,M,5.27,N,9.77,K,A*31

$GPGGA,220557.000,0010.9648,S,07829.1113,W,1,11,0.78,2801.6,M,13.7,M,,*57

$GPGSV,3,3,12,08,18,020,38,19,10,231,17,28,08,312,21,35,,,*4A

$GPRMC,220557.000,A,0010.9648,S,07829.1113,W,5.36,189.72,300317,,,A*61

$GPRMC,220558.000,A,0010.9664,S,07829.1116,W,5.63,185.61,300317,,,A*6B

$GPVTG,185.61,T,,M,5.63,N,10.44,K,A*07

$GPVTG,191.75,T,,M,4.77,N,8.84,K,A*36

$GPGGA,220600.000,0010.9693,S,07829.1124,W,1,11,0.78,2800.9,M,13.7,M,,*5A

$GPGGA,220601.000,0010.9708,S,07829.1127,W,1,11,0.78,2800.8,M,13.7,M,,*5A

$GPGSA,A,3,17,23,19,03,07,09,01,22,08,28,11,,1.43,0.78,1.20*09

$GPGSA,A,3,17,23,19,03,07,09,01,22,08,28,11,,1.43,0.78,1.20*09

$GPGSV,3,1,12,01,64,101,33,11,62,038,39,09,50,240,33,07,49,356,41*7B

$GPVTG,191.50,T,,M,5.17,N,9.58,K,A*36

$GPGGA,220603.000,0010.9737,S,07829.1132,W,1,11,0.78,2800.9,M,13.7,M,,*51

$GPGGA,220604.000,0010.9752,S,07829.1134,W,1,11,0.78,2801.0,M,13.7,M,,*5B

$GPGSA,A,3,17,23,19,03,07,09,01,22,08,28,11,,1.43,0.78,1.20*09

$GPGSA,A,3,17,23,19,03,07,09,01,22,08,28,11,,1.43,0.78,1.20*09

$GPRMC,220605.000,A,0010.9766,S,07829.1136,W,5.01,191.13,300317,,,A*65

$GPRMC,220606.000,A,0010.9782,S,07829.1138,W,5.16,185.36,300317,,,A*66

$GPVTG,185.36,T,,M,5.16,N,9.57,K,A*3D

$GPGSV,3,2,12,23,40,183,23,17,29,247,29,03,23,157,21,22,20,131,29*7A

$GPGSV,3,3,12,08,17,021,36,19,10,231,14,28,08,312,22,36,,,*49

$GPGSA,A,3,17,23,19,03,07,09,01,22,08,28,11,,1.43,0.78,1.20*09

$GPRMC,220608.000,A,0010.9810,S,07829.1142,W,5.00,187.06,300317,,,A*67

$GPRMC,220609.000,A,0010.9824,S,07829.1144,W,4.60,186.81,300317,,,A*6E

$GPVTG,186.81,T,,M,4.60,N,8.53,K,A*37

$GPVTG,188.84,T,,M,5.11,N,9.48,K,A*30

$GPGGA,220611.000,0010.9853,S,07829.1150,W,1,11,0.78,2801.1,M,13.7,M,,*52

$GPGGA,220612.000,0010.9868,S,07829.1153,W,1,11,0.78,2801.2,M,13.7,M,,*59

$GPGSA,A,3,17,23,19,03,07,09,01,22,08,28,11,,1.43,0.78,1.20*09

$GPRMC,220612.000,A,0010.9868,S,07829.1153,W,5.44,188.36,300317,,,A*6F

$GPVTG,188.36,T,,M,5.44,N,10.09,K,A*04

$GPVTG,188.14,T,,M,5.56,N,10.30,K,A*0D

$GPGGA,220614.000,0010.9899,S,07829.1159,W,1,11,0.78,2801.1,M,13.7,M,,*58

$GPGGA,220615.000,0010.9914,S,07829.1161,W,1,11,0.78,2800.9,M,13.7,M,,*5F

$GPGSA,A,3,17,23,19,03,07,09,01,22,08,28,11,,1.43,0.78,1.20*09

$GPGSA,A,3,17,23,19,03,07,09,01,22,08,28,11,,1.43,0.78,1.20*09

$GPRMC,220616.000,A,0010.9931,S,07829.1166,W,5.69,195.32,300317,,,A*67

$GPGSV,3,1,12,01,64,101,35,11,62,037,38,09,50,240,29,07,49,356,41*78

$GPGSV,3,2,12,23,40,183,24,17,29,248,28,03,23,157,25,22,20,131,28*76

$GPGGA,220618.000,0010.9963,S,07829.1172,W,1,11,0.78,2800.7,M,13.7,M,,*5E

$GPGSA,A,3,17,23,19,03,07,09,01,22,08,28,11,,1.43,0.78,1.20*09

$GPGSA,A,3,17,23,19,03,07,09,01,22,08,28,11,,1.43,0.78,1.20*09

$GPRMC,220619.000,A,0010.9980,S,07829.1175,W,5.82,187.34,300317,,,A*60

$GPRMC,220620.000,A,0010.9997,S,07829.1179,W,5.83,194.31,300317,,,A*66

$GPVTG,194.31,T,,M,5.83,N,10.79,K,A*02

$GPVTG,186.10,T,,M,5.63,N,10.43,K,A*05

$GPGGA,220622.000,0011.0030,S,07829.1185,W,1,11,0.78,2800.7,M,13.7,M,,*58

$GPGSV,3,3,12,08,17,021,35,19,11,232,17,28,08,312,18,43,,,*40

$GPRMC,220622.000,A,0011.0030,S,07829.1185,W,5.94,190.85,300317,,,A*66

$GPRMC,220623.000,A,0011.0047,S,07829.1189,W,6.05,189.37,300317,,,A*61

$GPVTG,189.37,T,,M,6.05,N,11.20,K,A*08

$GPVTG,183.09,T,,M,5.77,N,10.70,K,A*0D

$GPGGA,220625.000,0011.0081,S,07829.1193,W,1,11,0.78,2800.7,M,13.7,M,,*52

$GPGGA,220626.000,0011.0098,S,07829.1195,W,1,11,0.77,2800.8,M,13.7,M,,*5F

$GPGSA,A,3,17,23,19,03,07,09,01,22,08,28,11,,1.08,0.77,0.77*0A

$GPGSA,A,3,17,23,19,03,07,09,01,22,08,28,11,,1.43,0.78,1.20*09

$GPGSV,3,1,12,01,64,101,33,11,62,037,38,09,50,240,29,07,49,356,41*7E

$GPVTG,171.50,T,,M,5.75,N,10.66,K,A*09

$GPGGA,220628.000,0011.0129,S,07829.1193,W,1,11,0.78,2800.9,M,13.7,M,,*52

$GPGGA,220629.000,0011.0145,S,07829.1192,W,1,11,0.78,2801.1,M,13.7,M,,*51

$GPGSA,A,3,17,23,19,03,07,09,01,22,08,28,11,,1.43,0.78,1.20*09

$GPGSA,A,3,17,23,19,03,07,09,01,22,08,28,11,,1.43,0.78,1.20*09

$GPRMC,220630.000,A,0011.0160,S,07829.1190,W,5.32,170.13,300317,,,A*68

$GPRMC,220631.000,A,0011.0175,S,07829.1188,W,5.19,168.64,300317,,,A*64

$GPVTG,168.64,T,,M,5.19,N,9.62,K,A*30

$GPGSV,3,2,12,23,40,183,23,17,29,248,34,03,23,157,19,22,20,131,22*79

$GPGSV,3,3,12,08,17,021,36,19,11,232,16,28,08,312,16,45,,,*4A

$GPGSA,A,3,17,23,19,03,07,09,01,22,08,28,11,,1.43,0.78,1.20*09

$GPRMC,220633.000,A,0011.0203,S,07829.1182,W,5.23,163.23,300317,,,A*6F

$GPRMC,220634.000,A,0011.0218,S,07829.1178,W,5.56,158.39,300317,,,A*66

$GPVTG,158.39,T,,M,5.56,N,10.30,K,A*0F

$GPVTG,163.80,T,,M,5.45,N,10.10,K,A*05

$GPGGA,220636.000,0011.0247,S,07829.1169,W,1,11,0.78,2801.8,M,13.7,M,,*53

$GPGGA,220637.000,0011.0261,S,07829.1164,W,1,11,0.78,2802.1,M,13.7,M,,*51

$GPGSA,A,3,17,23,19,03,07,09,01,22,08,28,11,,1.43,0.78,1.20*09

$GPRMC,220637.000,A,0011.0261,S,07829.1164,W,5.14,160.89,300317,,,A*60

$GPVTG,160.89,T,,M,5.14,N,9.52,K,A*35

$GPVTG,154.71,T,,M,5.75,N,10.66,K,A*0D

$GPGGA,220639.000,0011.0290,S,07829.1152,W,1,11,0.78,2802.3,M,13.7,M,,*56

$GPGGA,220640.000,0011.0304,S,07829.1145,W,1,11,0.78,2802.3,M,13.7,M,,*52

$GPGSA,A,3,17,23,19,03,07,09,01,22,08,28,11,,1.43,0.78,1.20*09

$GPGSA,A,3,17,23,19,03,07,09,01,22,08,28,11,,1.43,0.78,1.20*09

$GPRMC,220641.000,A,0011.0318,S,07829.1137,W,5.46,147.63,300317,,,A*6E

$GPGSV,3,1,12,01,64,100,29,11,61,037,36,09,50,239,34,07,49,356,41*7B

$GPGSV,3,2,12,23,40,183,27,17,29,248,36,03,23,157,18,22,20,131,19*76

$GPGGA,220643.000,0011.0343,S,07829.1121,W,1,11,0.78,2802.6,M,13.7,M,,*55

$GPGSA,A,3,17,23,19,03,07,09,01,22,08,28,11,,1.43,0.78,1.20*09

$GPGSA,A,3,17,23,19,03,07,09,01,22,08,28,11,,1.43,0.78,1.20*09

$GPRMC,220644.000,A,0011.0355,S,07829.1112,W,5.42,142.89,300317,,,A*60

$GPRMC,220645.000,A,0011.0367,S,07829.1102,W,5.43,135.53,300317,,,A*67

$GPVTG,135.53,T,,M,5.43,N,10.06,K,A*09

$GPVTG,132.83,T,,M,5.01,N,9.28,K,A*31

$GPGGA,220647.000,0011.0388,S,07829.1079,W,1,11,0.78,2802.1,M,13.7,M,,*5D

$GPGSV,3,3,12,08,17,021,35,19,11,232,16,28,08,312,23,47,,,*4D

$GPRMC,220647.000,A,0011.0388,S,07829.1079,W,4.84,134.89,300317,,,A*65

$GPRMC,220648.000,A,0011.0399,S,07829.1068,W,5.34,133.34,300317,,,A*61

$GPVTG,133.34,T,,M,5.34,N,9.89,K,A*31

$GPVTG,131.66,T,,M,5.50,N,10.19,K,A*07

$GPGGA,220650.000,0011.0420,S,07829.1045,W,1,11,0.78,2801.2,M,13.7,M,,*51

$GPGGA,220651.000,0011.0431,S,07829.1032,W,1,11,0.78,2800.7,M,13.7,M,,*54

$GPGSA,A,3,17,23,19,03,07,09,01,22,08,28,11,,1.43,0.78,1.20*09

$GPGSA,A,3,17,23,19,03,07,09,01,22,08,28,11,,1.43,0.78,1.20*09

$GPGSV,3,1,12,01,64,100,28,11,61,037,35,09,50,239,36,07,49,356,40*7A

$GPVTG,123.81,T,,M,5.80,N,10.75,K,A*0A

$GPGGA,220653.000,0011.0450,S,07829.1006,W,1,11,0.78,2800.1,M,13.7,M,,*50

$GPGGA,220654.000,0011.0459,S,07829.0992,W,1,11,0.78,2799.8,M,13.7,M,,*5D

$GPGSA,A,3,17,23,19,03,07,09,01,22,08,28,11,,1.43,0.78,1.20*09

$GPGSA,A,3,17,23,19,03,07,09,01,22,08,28,11,,1.43,0.78,1.20*09

$GPRMC,220655.000,A,0011.0468,S,07829.0978,W,5.63,120.34,300317,,,A*6D

$GPRMC,220656.000,A,0011.0476,S,07829.0964,W,5.11,118.01,300317,,,A*64

$GPVTG,118.01,T,,M,5.11,N,9.48,K,A*34

$GPGSV,3,2,12,23,40,182,32,17,29,248,44,03,23,157,24,22,20,130,21*73

$GPGSV,3,3,12,08,17,021,34,19,11,232,32,28,08,312,24,37,,,*4A

$GPGSA,A,3,17,23,19,03,07,09,01,22,08,28,11,,1.43,0.78,1.20*09

$GPRMC,220658.000,A,0011.0490,S,07829.0936,W,5.22,110.83,300317,,,A*67

$GPRMC,220659.000,A,0011.0497,S,07829.0922,W,5.03,113.32,300317,,,A*6E

$GPVTG,113.32,T,,M,5.03,N,9.33,K,A*30

$GPVTG,109.75,T,,M,5.30,N,9.83,K,A*33

$GPGGA,220701.000,0011.0507,S,07829.0894,W,1,11,0.78,2798.4,M,13.7,M,,*5C

$GPGGA,220702.000,0011.0513,S,07829.0878,W,1,11,0.78,2797.3,M,13.7,M,,*50

$GPGSA,A,3,17,23,19,03,07,09,01,22,08,28,11,,1.43,0.78,1.20*09

$GPRMC,220702.000,A,0011.0513,S,07829.0878,W,5.42,111.84,300317,,,A*68

$GPVTG,111.84,T,,M,5.42,N,10.04,K,A*06

$GPVTG,107.54,T,,M,5.41,N,10.03,K,A*08

$GPGGA,220704.000,0011.0523,S,07829.0847,W,1,11,0.78,2796.3,M,13.7,M,,*58

$GPGGA,220705.000,0011.0527,S,07829.0832,W,1,11,0.78,2796.0,M,13.7,M,,*5C

$GPGSA,A,3,17,23,19,03,07,09,01,22,08,28,11,,1.43,0.78,1.20*09

$GPGSA,A,3,17,23,19,03,07,09,01,22,08,28,11,,1.43,0.78,1.20*09

$GPRMC,220706.000,A,0011.0530,S,07829.0818,W,5.28,99.55,300317,,,A*5A

$GPGSV,3,1,12,01,64,099,25,11,61,037,32,09,50,239,37,07,49,356,39*7E

$GPGSV,3,2,12,23,40,182,31,17,29,248,32,03,23,157,23,22,20,130,21*76

$GPGGA,220708.000,0011.0537,S,07829.0787,W,1,11,0.78,2795.8,M,13.7,M,,*5A

$GPGSA,A,3,17,23,19,03,07,09,01,22,08,28,11,,1.43,0.78,1.20*09

$GPGSA,A,3,17,23,19,03,07,09,01,22,08,28,11,,1.43,0.78,1.20*09

$GPRMC,220709.000,A,0011.0540,S,07829.0770,W,5.64,96.38,300317,,,A*5F

$GPRMC,220710.000,A,0011.0541,S,07829.0754,W,5.67,93.91,300317,,,A*55

$GPVTG,93.91,T,,M,5.67,N,10.51,K,A*3E

$GPVTG,92.64,T,,M,5.64,N,10.44,K,A*32

$GPGGA,220712.000,0011.0544,S,07829.0720,W,1,11,0.78,2794.4,M,13.7,M,,*55

$GPGSV,3,3,12,08,17,021,31,19,11,232,31,28,08,312,35,50,,,*4D

$GPRMC,220712.000,A,0011.0544,S,07829.0720,W,5.54,86.37,300317,,,A*59

$GPRMC,220713.000,A,0011.0543,S,07829.0703,W,5.68,85.49,300317,,,A*5B

$GPVTG,85.49,T,,M,5.68,N,10.52,K,A*30

$GPVTG,81.63,T,,M,5.48,N,10.15,K,A*3D

$GPGGA,220715.000,0011.0540,S,07829.0671,W,1,11,0.78,2793.6,M,13.7,M,,*56

$GPGGA,220716.000,0011.0538,S,07829.0655,W,1,11,0.78,2793.3,M,13.7,M,,*59

$GPGSA,A,3,17,23,19,03,07,09,01,22,08,28,11,,1.43,0.78,1.20*09

$GPGSA,A,3,17,23,19,03,07,09,01,22,08,28,11,,1.42,0.78,1.20*08

$GPGSV,3,1,12,01,64,099,27,11,61,037,28,09,50,239,39,07,49,356,36*76

$GPVTG,77.43,T,,M,5.16,N,9.55,K,A*01

$GPGGA,220718.000,0011.0532,S,07829.0626,W,1,11,0.78,2793.0,M,13.7,M,,*5A

$GPGGA,220719.000,0011.0528,S,07829.0612,W,1,11,0.78,2793.3,M,13.7,M,,*54

$GPGSA,A,3,17,23,19,03,07,09,01,22,08,28,11,,1.43,0.78,1.20*09

$GPGSA,A,3,17,23,19,03,07,09,01,22,08,28,11,,1.42,0.78,1.20*08

$GPRMC,220720.000,A,0011.0525,S,07829.0599,W,4.70,75.09,300317,,,A*59

$GPRMC,220721.000,A,0011.0521,S,07829.0586,W,4.78,71.10,300317,,,A*56

$GPVTG,71.10,T,,M,4.78,N,8.85,K,A*04

$GPGSV,3,2,12,23,40,182,37,17,29,248,43,03,23,157,24,22,20,130,24*74

$GPGSV,3,3,12,08,17,021,28,19,11,232,29,28,08,312,33,40,,,*4B

$GPGSA,A,3,17,23,19,03,07,09,01,22,08,28,11,,1.42,0.78,1.20*08

$GPRMC,220723.000,A,0011.0512,S,07829.0558,W,5.23,70.40,300317,,,A*5C

$GPRMC,220724.000,A,0011.0506,S,07829.0544,W,5.61,64.95,300317,,,A*58

$GPVTG,64.95,T,,M,5.61,N,10.39,K,A*3A

$GPVTG,65.00,T,,M,5.18,N,9.61,K,A*0C

$GPGGA,220726.000,0011.0493,S,07829.0516,W,1,11,0.78,2793.3,M,13.7,M,,*5E

$GPGGA,220727.000,0011.0487,S,07829.0503,W,1,11,0.78,2793.1,M,13.7,M,,*5C

$GPGSA,A,3,17,23,19,03,07,09,01,22,08,28,11,,1.42,0.78,1.20*08

$GPRMC,220727.000,A,0011.0487,S,07829.0503,W,4.98,62.95,300317,,,A*51

$GPVTG,62.95,T,,M,4.98,N,9.22,K,A*09

$GPVTG,62.38,T,,M,5.21,N,9.65,K,A*0E

$GPGGA,220729.000,0011.0473,S,07829.0477,W,1,11,0.78,2793.0,M,13.7,M,,*5A

$GPGGA,220730.000,0011.0466,S,07829.0466,W,1,11,0.78,2792.9,M,13.7,M,,*5E

$GPGSA,A,3,17,23,19,03,07,09,01,22,08,28,11,,1.42,0.78,1.20*08

$GPGSA,A,3,17,23,19,03,07,09,01,22,08,28,11,,1.42,0.78,1.20*08

$GPRMC,220731.000,A,0011.0458,S,07829.0454,W,4.94,50.58,300317,,,A*5B

$GPGSV,3,1,12,01,64,099,29,11,61,037,26,09,50,239,39,07,49,356,31*71

$GPGSV,3,2,12,23,40,182,39,17,29,248,43,03,23,157,29,22,20,130,24*77

$GPGGA,220733.000,0011.0441,S,07829.0432,W,1,10,0.90,2792.9,M,13.7,M,,*5E

$GPGSA,A,3,17,23,19,03,07,09,01,22,28,11,,,1.63,0.90,1.35*01

$GPGSA,A,3,17,23,19,03,07,09,01,22,28,11,,,1.63,0.90,1.35*01

$GPRMC,220734.000,A,0011.0432,S,07829.0421,W,5.22,48.79,300317,,,A*56

$GPRMC,220735.000,A,0011.0422,S,07829.0410,W,4.94,45.06,300317,,,A*5D

$GPVTG,45.06,T,,M,4.94,N,9.15,K,A*0E

$GPVTG,45.67,T,,M,4.98,N,9.22,K,A*01

$GPGGA,220737.000,0011.0404,S,07829.0390,W,1,10,0.90,2792.9,M,13.7,M,,*54

$GPGSV,3,3,12,22,20,130,23,08,17,021,18,19,11,232,42,28,08,313,33*71

$GPRMC,220737.000,A,0011.0404,S,07829.0390,W,5.17,45.01,300317,,,A*59

$GPRMC,220738.000,A,0011.0393,S,07829.0380,W,5.54,40.66,300317,,,A*5D

$GPVTG,40.66,T,,M,5.54,N,10.27,K,A*39

$GPVTG,39.56,T,,M,5.34,N,9.89,K,A*0E

$GPGGA,220740.000,0011.0371,S,07829.0359,W,1,10,0.90,2792.9,M,13.7,M,,*54

$GPGGA,220741.000,0011.0358,S,07829.0350,W,1,10,0.90,2792.7,M,13.7,M,,*59

$GPGSA,A,3,17,23,19,03,07,09,01,22,28,11,,,1.63,0.90,1.35*01

$GPGSA,A,3,17,23,19,03,07,09,01,22,08,28,11,,1.42,0.77,1.20*07

$GPGSV,3,1,12,01,64,099,31,11,61,037,25,51,56,270,,09,50,239,38*70

$GPVTG,32.00,T,,M,5.05,N,9.35,K,A*03

$GPGGA,220743.000,0011.0336,S,07829.0336,W,1,11,0.77,2793.2,M,13.7,M,,*5F

$GPGGA,220744.000,0011.0324,S,07829.0328,W,1,11,0.77,2793.2,M,13.7,M,,*54

$GPGSA,A,3,17,23,19,03,07,09,01,22,08,28,11,,1.42,0.77,1.20*07

$GPGSA,A,3,17,23,19,03,07,09,01,22,08,28,11,,1.42,0.77,1.20*07

$GPRMC,220745.000,A,0011.0313,S,07829.0322,W,4.58,32.14,300317,,,A*5A

$GPRMC,220746.000,A,0011.0302,S,07829.0315,W,4.59,27.36,300317,,,A*58

$GPVTG,27.36,T,,M,4.59,N,8.50,K,A*08

$GPGSV,3,2,12,23,40,182,40,17,29,248,37,48,27,270,,03,23,156,35*7C

$GPGSV,3,3,12,22,20,130,31,08,17,021,23,19,11,232,29,28,08,313,31*75

$GPGSA,A,3,17,23,19,03,07,09,01,22,08,28,11,,1.42,0.77,1.20*07

$GPRMC,220748.000,A,0011.0279,S,07829.0304,W,4.57,22.66,300317,,,A*55

$GPRMC,220749.000,A,0011.0267,S,07829.0300,W,4.52,19.35,300317,,,A*54

$GPVTG,19.35,T,,M,4.52,N,8.37,K,A*0C

$GPVTG,20.43,T,,M,4.31,N,7.99,K,A*09

$GPGGA,220751.000,0011.0243,S,07829.0290,W,1,11,0.77,2793.6,M,13.7,M,,*56

$GPGGA,220752.000,0011.0230,S,07829.0286,W,1,11,0.77,2793.6,M,13.7,M,,*56

$GPGSA,A,3,17,23,19,03,07,09,01,22,08,28,11,,1.42,0.77,1.20*07

$GPRMC,220752.000,A,0011.0230,S,07829.0286,W,5.14,14.07,300317,,,A*5C

$GPVTG,14.07,T,,M,5.14,N,9.52,K,A*01

$GPVTG,11.53,T,,M,4.67,N,8.66,K,A*06

$GPGGA,220754.000,0011.0203,S,07829.0280,W,1,11,0.77,2793.8,M,13.7,M,,*58

$GPGGA,220755.000,0011.0190,S,07829.0278,W,1,11,0.77,2793.8,M,13.7,M,,*57

$GPGSA,A,3,17,23,19,03,07,09,01,22,08,28,11,,1.42,0.77,1.20*07

$GPGSA,A,3,17,23,19,03,07,09,01,22,08,28,11,,1.42,0.77,1.20*07

$GPRMC,220756.000,A,0011.0177,S,07829.0276,W,4.65,7.46,300317,,,A*67

$GPGSV,3,1,12,01,64,099,35,11,61,036,25,09,50,238,39,07,49,356,29*76

$GPGSV,3,2,12,23,40,182,37,17,29,249,41,48,27,270,36,03,23,156,32*7E

$GPGGA,220758.000,0011.0150,S,07829.0272,W,1,11,0.77,2793.6,M,13.7,M,,*52

$GPGSA,A,3,17,23,19,03,07,09,01,22,08,28,11,,1.42,0.77,1.20*07

$GPGSA,A,3,17,23,19,03,07,09,01,22,08,28,11,,1.42,0.77,1.20*07

$GPRMC,220759.000,A,0011.0137,S,07829.0270,W,4.75,10.28,300317,,,A*55

$GPRMC,220800.000,A,0011.0124,S,07829.0267,W,4.53,12.92,300317,,,A*55

$GPVTG,12.92,T,,M,4.53,N,8.39,K,A*05

$GPVTG,9.14,T,,M,4.56,N,8.46,K,A*3C

$GPGGA,220802.000,0011.0099,S,07829.0264,W,1,11,0.77,2793.8,M,13.7,M,,*5F

$GPGSV,3,3,12,22,20,130,34,08,17,021,22,19,11,232,37,28,08,313,27*79

$GPRMC,220802.000,A,0011.0099,S,07829.0264,W,4.52,8.47,300317,,,A*61

$GPRMC,220803.000,A,0011.0087,S,07829.0261,W,4.59,12.39,300317,,,A*53

$GPVTG,12.39,T,,M,4.59,N,8.50,K,A*01

$GPVTG,10.13,T,,M,4.83,N,8.94,K,A*04

$GPGGA,220805.000,0011.0060,S,07829.0256,W,1,11,0.77,2793.9,M,13.7,M,,*5E

$GPGGA,220806.000,0011.0046,S,07829.0253,W,1,11,0.77,2793.9,M,13.7,M,,*5C

$GPGSA,A,3,17,23,19,03,07,09,01,22,08,28,11,,1.42,0.77,1.20*07

$GPGSA,A,3,17,23,19,03,07,09,01,22,08,28,11,,1.42,0.77,1.20*07

$GPGSV,3,1,12,01,64,099,34,11,61,036,26,09,50,238,39,07,49,356,26*7B

$GPVTG,9.82,T,,M,4.87,N,9.03,K,A*3F

$GPGGA,220808.000,0011.0018,S,07829.0248,W,1,11,0.77,2793.7,M,13.7,M,,*5D

$GPGGA,220809.000,0011.0006,S,07829.0245,W,1,11,0.77,2793.6,M,13.7,M,,*5F

$GPGSA,A,3,17,23,19,03,07,09,01,22,08,28,11,,1.42,0.77,1.20*07

$GPGSA,A,3,17,23,19,03,07,09,01,22,08,28,11,,1.42,0.77,1.20*07

$GPRMC,220810.000,A,0010.9992,S,07829.0242,W,5.14,11.32,300317,,,A*55

$GPRMC,220811.000,A,0010.9978,S,07829.0239,W,4.87,7.31,300317,,,A*63

$GPVTG,7.31,T,,M,4.87,N,9.02,K,A*38

$GPGSV,3,2,12,23,39,182,40,17,29,249,41,48,27,270,36,03,23,156,38*7A

$GPGSV,3,3,12,22,20,130,32,08,17,021,22,19,11,232,38,28,08,313,26*71

$GPGSA,A,3,17,23,19,03,07,09,01,22,08,28,11,,1.42,0.77,1.20*07

$GPRMC,220813.000,A,0010.9951,S,07829.0235,W,4.59,10.97,300317,,,A*5F

$GPRMC,220814.000,A,0010.9937,S,07829.0232,W,4.93,8.77,300317,,,A*6E

$GPVTG,8.77,T,,M,4.93,N,9.13,K,A*30

$GPVTG,8.75,T,,M,5.26,N,9.75,K,A*3D

$GPGGA,220816.000,0010.9908,S,07829.0227,W,1,11,0.77,2793.0,M,13.7,M,,*5C

$GPGGA,220817.000,0010.9894,S,07829.0225,W,1,11,0.77,2793.0,M,13.7,M,,*5B

$GPGSA,A,3,17,23,19,03,07,09,01,22,08,28,11,,1.42,0.77,1.20*07

$GPRMC,220817.000,A,0010.9894,S,07829.0225,W,5.42,9.04,300317,,,A*6B

$GPVTG,9.04,T,,M,5.42,N,10.05,K,A*07

$GPVTG,9.18,T,,M,4.52,N,8.37,K,A*32

$GPGGA,220819.000,0010.9867,S,07829.0220,W,1,11,0.77,2793.3,M,13.7,M,,*5F

$GPGGA,220820.000,0010.9854,S,07829.0218,W,1,11,0.77,2793.2,M,13.7,M,,*5F

$GPGSA,A,3,17,23,19,03,07,09,01,22,08,28,11,,1.42,0.77,1.20*07

$GPGSA,A,3,17,23,19,03,07,09,01,22,08,28,11,,1.42,0.77,1.20*07

$GPRMC,220821.000,A,0010.9840,S,07829.0216,W,4.34,12.13,300317,,,A*5B

$GPGSV,3,1,12,01,64,098,35,11,61,036,26,07,50,357,28,09,50,238,37*72

$GPGSV,3,2,12,23,39,182,39,17,29,249,41,48,27,270,36,03,23,156,38*74

$GPGGA,220823.000,0010.9816,S,07829.0212,W,1,11,0.77,2793.2,M,13.7,M,,*50

$GPGSA,A,3,17,23,19,03,07,09,01,22,08,28,11,,1.42,0.77,1.20*07

$GPGSA,A,3,17,23,19,03,07,09,01,22,08,28,11,,1.42,0.77,1.20*07

$GPRMC,220824.000,A,0010.9803,S,07829.0210,W,4.82,9.49,300317,,,A*67

$GPRMC,220825.000,A,0010.9789,S,07829.0207,W,4.67,13.93,300317,,,A*5A

$GPVTG,13.93,T,,M,4.67,N,8.66,K,A*08

$GPVTG,9.60,T,,M,4.58,N,8.49,K,A*3E

$GPGGA,220827.000,0010.9763,S,07829.0201,W,1,11,0.77,2793.4,M,13.7,M,,*5D

$GPGSV,3,3,12,22,20,130,33,08,17,021,18,19,11,232,35,28,08,313,27*75

$GPRMC,220827.000,A,0010.9763,S,07829.0201,W,4.97,15.43,300317,,,A*5E

$GPRMC,220828.000,A,0010.9750,S,07829.0197,W,4.74,15.72,300317,,,A*52

$GPVTG,15.72,T,,M,4.74,N,8.78,K,A*0C

$GPVTG,11.50,T,,M,5.36,N,9.93,K,A*0B

$GPGGA,220830.000,0010.9719,S,07829.0190,W,1,11,0.77,2792.9,M,13.7,M,,*51

$GPGGA,220831.000,0010.9706,S,07829.0187,W,1,11,0.77,2793.1,M,13.7,M,,*51

$GPGSA,A,3,17,23,19,03,07,09,01,22,08,28,11,,1.42,0.77,1.20*07

$GPGSA,A,3,17,23,19,03,07,09,01,22,08,28,11,,1.42,0.77,1.20*07

$GPGSV,3,1,12,01,64,098,35,11,61,036,25,07,50,357,26,09,50,238,37*7F

$GPVTG,10.58,T,,M,5.16,N,9.56,K,A*09

$GPGGA,220833.000,0010.9677,S,07829.0182,W,1,11,0.77,2793.2,M,13.7,M,,*52

$GPGGA,220834.000,0010.9662,S,07829.0178,W,1,11,0.77,2793.1,M,13.7,M,,*57

$GPGSA,A,3,17,23,19,03,07,09,01,22,08,28,11,,1.42,0.77,1.20*07

$GPGSA,A,3,17,23,19,03,07,09,01,22,08,28,11,,1.42,0.77,1.20*07

$GPRMC,220835.000,A,0010.9647,S,07829.0176,W,5.32,6.61,300317,,,A*65

$GPRMC,220836.000,A,0010.9632,S,07829.0174,W,5.23,11.66,300317,,,A*57

$GPVTG,11.66,T,,M,5.23,N,9.69,K,A*0F

$GPGSV,3,2,12,23,39,182,39,17,29,249,41,48,27,270,33,03,23,156,39*70

$GPGSV,3,3,12,22,20,130,36,08,17,021,20,19,11,233,38,28,08,313,23*73

$GPGSA,A,3,17,23,19,03,07,09,01,22,08,28,11,,1.42,0.77,1.20*07

$GPRMC,220838.000,A,0010.9603,S,07829.0169,W,5.70,6.96,300317,,,A*68

$GPRMC,220839.000,A,0010.9586,S,07829.0167,W,6.08,7.43,300317,,,A*6C

$GPVTG,7.43,T,,M,6.08,N,11.26,K,A*07

$GPVTG,10.33,T,,M,5.81,N,10.76,K,A*30

$GPGGA,220841.000,0010.9554,S,07829.0162,W,1,11,0.77,2793.2,M,13.7,M,,*5B

$GPGGA,220842.000,0010.9539,S,07829.0160,W,1,11,0.77,2793.1,M,13.7,M,,*52

$GPGSA,A,3,17,23,19,03,07,09,01,22,08,28,11,,1.42,0.77,1.20*07

$GPRMC,220842.000,A,0010.9539,S,07829.0160,W,5.29,5.92,300317,,,A*6D

$GPVTG,5.92,T,,M,5.29,N,9.80,K,A*3C

$GPVTG,6.71,T,,M,5.39,N,9.99,K,A*3B

$GPGGA,220844.000,0010.9510,S,07829.0157,W,1,11,0.77,2793.4,M,13.7,M,,*5E

$GPGGA,220845.000,0010.9494,S,07829.0156,W,1,11,0.77,2793.5,M,13.7,M,,*52

$GPGSA,A,3,17,23,19,03,07,09,01,22,08,28,11,,1.42,0.77,1.20*07

$GPGSA,A,3,17,23,19,03,07,09,01,22,08,28,11,,1.42,0.77,1.20*07

$GPRMC,220846.000,A,0010.9477,S,07829.0156,W,6.38,0.18,300317,,,A*63

$GPGSV,3,1,12,01,64,098,36,11,61,036,27,07,50,357,25,09,50,238,37*7D

$GPGSV,3,2,12,23,39,182,40,17,29,249,40,48,27,270,33,03,23,156,40*71

$GPGGA,220848.000,0010.9440,S,07829.0158,W,1,11,0.77,2793.6,M,13.7,M,,*5B

$GPGSA,A,3,17,23,19,03,07,09,01,22,08,28,11,,1.42,0.77,1.20*07

$GPGSA,A,3,17,23,19,03,07,09,01,22,08,28,11,,1.42,0.77,1.20*07

$GPRMC,220849.000,A,0010.9421,S,07829.0160,W,6.88,352.17,300317,,,A*6A

$GPRMC,220850.000,A,0010.9403,S,07829.0162,W,6.28,350.46,300317,,,A*6C

$GPVTG,350.46,T,,M,6.28,N,11.64,K,A*07

$GPVTG,347.23,T,,M,6.00,N,11.12,K,A*09

$GPGGA,220852.000,0010.9368,S,07829.0169,W,1,11,0.77,2793.7,M,13.7,M,,*5E

$GPGSV,3,3,12,22,20,129,41,08,17,021,24,19,11,233,33,28,08,313,17*73

$GPRMC,220852.000,A,0010.9368,S,07829.0169,W,6.24,346.29,300317,,,A*6D

$GPRMC,220853.000,A,0010.9351,S,07829.0173,W,5.77,343.13,300317,,,A*64

$GPVTG,343.13,T,,M,5.77,N,10.69,K,A*00

$GPVTG,346.05,T,,M,5.81,N,10.77,K,A*04

$GPGGA,220855.000,0010.9319,S,07829.0182,W,1,11,0.77,2794.0,M,13.7,M,,*5A

$GPGGA,220856.000,0010.9304,S,07829.0188,W,1,11,0.77,2793.9,M,13.7,M,,*51

$GPGSA,A,3,17,23,19,03,07,09,01,22,08,28,11,,1.42,0.77,1.20*07

$GPGSA,A,3,17,23,19,03,07,09,01,22,08,28,11,,1.42,0.77,1.20*07

$GPGSV,3,1,12,01,64,097,37,11,61,036,30,07,50,357,26,09,50,238,35*74

$GPVTG,337.48,T,,M,5.32,N,9.86,K,A*35

$GPGGA,220858.000,0010.9275,S,07829.0200,W,1,11,0.77,2794.1,M,13.7,M,,*54

$GPGGA,220859.000,0010.9260,S,07829.0208,W,1,11,0.77,2794.0,M,13.7,M,,*58

$GPGSA,A,3,17,23,19,03,07,09,01,22,08,28,11,,1.42,0.77,1.20*07

$GPGSA,A,3,17,23,19,03,07,09,01,22,08,28,11,,1.42,0.77,1.20*07

$GPRMC,220900.000,A,0010.9246,S,07829.0214,W,5.51,334.56,300317,,,A*63

$GPRMC,220901.000,A,0010.9231,S,07829.0222,W,5.48,326.21,300317,,,A*6C

$GPVTG,326.21,T,,M,5.48,N,10.16,K,A*06

$GPGSV,3,2,12,23,39,182,40,17,29,249,36,48,27,270,29,03,23,156,40*7B

$GPGSV,3,3,12,22,20,129,34,08,16,021,26,19,11,233,27,28,08,313,16*76

$GPGSA,A,3,17,23,19,03,07,09,01,22,08,28,11,,1.42,0.77,1.20*07

$GPRMC,220903.000,A,0010.9202,S,07829.0239,W,5.57,325.65,300317,,,A*69

$GPRMC,220904.000,A,0010.9189,S,07829.0249,W,5.64,320.28,300317,,,A*65

$GPVTG,320.28,T,,M,5.64,N,10.44,K,A*00

$GPVTG,320.04,T,,M,5.74,N,10.64,K,A*0D

$GPGGA,220906.000,0010.9161,S,07829.0269,W,1,11,0.77,2793.8,M,13.7,M,,*59

$GPGSA,A,3,17,23,19,03,07,09,01,22,08,28,11,,1.42,0.77,1.20*07

$GPGSV,3,1,12,01,64,097,38,11,60,036,32,07,50,357,29,09,50,237,34*79

$GPVTG,315.52,T,,M,5.94,N,11.01,K,A*04

$GPGGA,220908.000,0010.9138,S,07829.0291,W,1,11,0.77,2794.3,M,13.7,M,,*50

$GPGGA,220909.000,0010.9125,S,07829.0301,W,1,11,0.77,2794.4,M,13.7,M,,*52

$GPGSA,A,3,17,23,19,03,07,09,01,22,08,28,11,,1.42,0.77,1.20*07

$GPGSA,A,3,17,23,19,03,07,09,01,22,08,11,,,1.60,0.85,1.35*04

$GPRMC,220910.000,A,0010.9114,S,07829.0312,W,6.21,306.19,300317,,,A*6F

$GPRMC,220911.000,A,0010.9102,S,07829.0325,W,5.95,312.26,300317,,,A*68

$GPVTG,312.26,T,,M,5.95,N,11.03,K,A*03

$GPGSV,3,2,12,23,39,182,39,17,29,249,30,48,27,270,27,03,23,156,38*72

$GPGSV,3,3,12,22,20,129,38,08,16,021,31,19,11,233,24,28,08,313,15*7C

$GPGSA,A,3,17,23,19,03,07,09,01,22,08,28,11,,1.42,0.77,1.20*07

$GPRMC,220913.000,A,0010.9076,S,07829.0352,W,6.41,306.84,300317,,,A*6F

$GPRMC,220914.000,A,0010.9065,S,07829.0368,W,6.85,300.83,300317,,,A*6A

$GPVTG,300.83,T,,M,6.85,N,12.70,K,A*0A

$GPVTG,300.06,T,,M,7.48,N,13.86,K,A*0F

$GPGGA,220916.000,0010.9043,S,07829.0404,W,1,11,0.77,2795.7,M,13.7,M,,*5D

$GPGGA,220917.000,0010.9033,S,07829.0423,W,1,11,0.77,2795.8,M,13.7,M,,*51

$GPGSA,A,3,17,23,19,03,07,09,01,22,08,28,11,,1.42,0.77,1.20*07

$GPRMC,220917.000,A,0010.9033,S,07829.0423,W,7.46,295.46,300317,,,A*68

$GPVTG,295.46,T,,M,7.46,N,13.82,K,A*0C

$GPVTG,290.79,T,,M,7.79,N,14.44,K,A*04

$GPGGA,220919.000,0010.9017,S,07829.0463,W,1,11,0.77,2796.2,M,13.7,M,,*54

$GPGGA,220920.000,0010.9010,S,07829.0483,W,1,10,0.85,2796.5,M,13.7,M,,*5C

$GPGSA,A,3,17,23,19,03,07,09,01,22,08,11,,,1.60,0.85,1.35*04

$GPGSA,A,3,17,23,19,03,07,09,01,22,08,28,11,,1.42,0.77,1.20*07

$GPRMC,220921.000,A,0010.9004,S,07829.0504,W,7.55,280.56,300317,,,A*6A

$GPGSV,3,1,12,01,64,097,38,11,60,036,34,07,50,357,35,09,50,237,27*70

$GPGSV,3,2,12,23,39,182,38,17,29,249,26,03,23,156,30,22,20,129,38*76

$GPGGA,220923.000,0010.8995,S,07829.0547,W,1,11,0.77,2796.4,M,13.7,M,,*5E

$GPGSA,A,3,17,23,19,03,07,09,01,22,08,28,11,,1.42,0.77,1.20*07

$GPGSA,A,3,17,23,19,03,07,09,01,22,08,28,11,,1.42,0.77,1.20*07

$GPRMC,220924.000,A,0010.8992,S,07829.0569,W,7.67,272.87,300317,,,A*63

$GPRMC,220925.000,A,0010.8990,S,07829.0590,W,7.71,273.46,300317,,,A*6D

$GPVTG,273.46,T,,M,7.71,N,14.28,K,A*07

$GPVTG,268.19,T,,M,8.00,N,14.83,K,A*0F

$GPGGA,220927.000,0010.8990,S,07829.0635,W,1,11,0.77,2796.5,M,13.7,M,,*58

$GPGSV,3,3,12,22,20,129,36,08,16,021,24,19,11,233,20,28,08,313,17*70

$GPRMC,220927.000,A,0010.8990,S,07829.0635,W,8.26,264.00,300317,,,A*6A

$GPRMC,220928.000,A,0010.8991,S,07829.0659,W,8.28,263.78,300317,,,A*68

$GPVTG,263.78,T,,M,8.28,N,15.34,K,A*04

$GPVTG,260.05,T,,M,8.50,N,15.75,K,A*07

$GPGGA,220930.000,0010.8997,S,07829.0705,W,1,10,0.85,2795.8,M,13.7,M,,*59

$GPGGA,220931.000,0010.9002,S,07829.0728,W,1,11,0.77,2795.8,M,13.7,M,,*5F

$GPGSA,A,3,17,23,19,03,07,09,01,22,08,28,11,,1.42,0.77,1.20*07

$GPGSA,A,3,17,23,19,03,07,09,01,22,08,28,11,,1.42,0.77,1.20*07

$GPGSV,3,1,12,01,64,096,38,11,60,036,33,51,56,270,28,07,50,357,34*70

$GPVTG,251.83,T,,M,8.39,N,15.54,K,A*07

$GPGGA,220933.000,0010.9014,S,07829.0772,W,1,10,0.85,2795.4,M,13.7,M,,*55

$GPGGA,220934.000,0010.9023,S,07829.0795,W,1,10,0.85,2795.3,M,13.7,M,,*58

$GPGSA,A,3,17,23,19,03,07,09,01,22,08,11,,,1.60,0.85,1.35*04

$GPGSA,A,3,17,23,19,03,07,09,01,22,08,28,11,,1.42,0.77,1.20*07

$GPRMC,220935.000,A,0010.9032,S,07829.0815,W,7.56,239.53,300317,,,A*63

$GPRMC,220936.000,A,0010.9042,S,07829.0834,W,7.77,237.75,300317,,,A*6D

$GPVTG,237.75,T,,M,7.77,N,14.39,K,A*01

$GPGSV,3,2,12,09,50,237,22,23,39,182,28,17,29,249,22,03,23,156,24*7F

$GPGSV,3,3,12,22,20,129,27,08,16,021,37,19,11,233,18,28,08,313,14*7A

$GPGSA,A,3,17,23,19,03,07,09,01,22,08,28,11,,1.42,0.77,1.20*07

$GPRMC,220938.000,A,0010.9066,S,07829.0872,W,7.65,234.01,300317,,,A*64

$GPRMC,220939.000,A,0010.9079,S,07829.0890,W,8.18,229.96,300317,,,A*60

$GPVTG,229.96,T,,M,8.18,N,15.16,K,A*09

$GPVTG,228.26,T,,M,7.94,N,14.72,K,A*0B

$GPGGA,220941.000,0010.9109,S,07829.0921,W,1,10,0.85,2797.7,M,13.7,M,,*54

$GPGGA,220942.000,0010.9126,S,07829.0937,W,1,11,0.77,2798.2,M,13.7,M,,*5B

$GPGSA,A,3,17,23,19,03,07,09,01,22,08,28,11,,1.42,0.77,1.20*07

$GPRMC,220942.000,A,0010.9126,S,07829.0937,W,8.08,221.55,300317,,,A*6D

$GPVTG,221.55,T,,M,8.08,N,14.97,K,A*07

$GPVTG,216.21,T,,M,7.94,N,14.71,K,A*02

$GPGGA,220944.000,0010.9160,S,07829.0960,W,1,10,0.85,2799.5,M,13.7,M,,*57

$GPGGA,220945.000,0010.9179,S,07829.0970,W,1,10,0.85,2800.2,M,13.7,M,,*57

$GPGSA,A,3,17,23,19,03,07,09,01,22,08,11,,,1.60,0.85,1.35*04

$GPGSA,A,3,17,23,19,03,07,09,01,22,08,11,,,1.60,0.85,1.35*04

$GPRMC,220946.000,A,0010.9198,S,07829.0982,W,8.65,210.68,300317,,,A*65

$GPGSV,3,1,12,01,64,096,36,11,60,036,37,07,50,357,40,09,50,237,23*7A

$GPGSV,3,2,12,23,39,182,24,17,29,250,28,48,27,270,,03,23,156,27*74

$GPGGA,220948.000,0010.9243,S,07829.1004,W,1,10,0.85,2801.2,M,13.7,M,,*5A

$GPGSA,A,3,17,23,19,03,07,09,01,22,08,11,,,1.60,0.85,1.35*04

$GPGSA,A,3,17,23,19,03,07,09,01,22,08,28,11,,1.42,0.77,1.20*07

$GPRMC,220949.000,A,0010.9267,S,07829.1014,W,9.06,199.97,300317,,,A*68

$GPRMC,220950.000,A,0010.9290,S,07829.1022,W,8.72,197.29,300317,,,A*64

$GPVTG,197.29,T,,M,8.72,N,16.16,K,A*04

$GPVTG,193.66,T,,M,8.94,N,16.57,K,A*06

$GPGGA,220952.000,0010.9339,S,07829.1038,W,1,11,0.77,2802.2,M,13.7,M,,*5D

$GPGSV,3,3,12,22,20,129,29,08,16,021,39,19,12,233,13,28,08,313,22*77

$GPRMC,220952.000,A,0010.9339,S,07829.1038,W,8.95,192.75,300317,,,A*6A

$GPRMC,220953.000,A,0010.9363,S,07829.1043,W,8.73,189.41,300317,,,A*6D

$GPVTG,189.41,T,,M,8.73,N,16.18,K,A*0A

$GPVTG,186.56,T,,M,8.56,N,15.86,K,A*00

$GPGGA,220955.000,0010.9411,S,07829.1050,W,1,10,0.85,2802.9,M,13.7,M,,*5E

$GPGGA,220956.000,0010.9435,S,07829.1054,W,1,10,0.85,2803.2,M,13.7,M,,*55

$GPGSA,A,3,17,23,19,03,07,09,01,22,08,11,,,1.60,0.85,1.35*04

$GPGSA,A,3,17,23,19,03,07,09,01,22,08,11,,,1.60,0.85,1.35*04

$GPGSV,3,1,12,01,64,096,36,11,60,036,38,07,50,357,40,09,50,237,25*73

$GPVTG,188.70,T,,M,8.57,N,15.88,K,A*05

$GPGGA,220958.000,0010.9484,S,07829.1064,W,1,10,0.85,2802.8,M,13.7,M,,*59

$GPGGA,220959.000,0010.9509,S,07829.1069,W,1,10,0.85,2802.9,M,13.7,M,,*50

$GPGSA,A,3,17,23,19,03,07,09,01,22,08,11,,,1.60,0.85,1.35*04

$GPGSA,A,3,17,23,19,03,07,09,01,22,08,11,,,1.60,0.85,1.35*04

$GPRMC,221000.000,A,0010.9534,S,07829.1076,W,8.74,191.56,300317,,,A*69

$GPRMC,221001.000,A,0010.9559,S,07829.1081,W,8.58,188.05,300317,,,A*6B

$GPVTG,188.05,T,,M,8.58,N,15.90,K,A*01

$GPGSV,3,2,12,23,39,181,22,17,29,250,32,03,23,156,24,22,20,129,30*7E

$GPGSV,3,3,12,33,18,090,31,08,16,021,40,19,12,233,13,28,08,314,18*76

$GPGSA,A,3,17,23,19,03,07,09,01,22,08,28,11,,1.42,0.77,1.20*07

$GPRMC,221003.000,A,0010.9606,S,07829.1093,W,8.33,190.73,300317,,,A*66

$GPRMC,221004.000,A,0010.9630,S,07829.1097,W,8.21,187.68,300317,,,A*6F

$GPVTG,187.68,T,,M,8.21,N,15.21,K,A*01

$GPVTG,188.78,T,,M,8.16,N,15.11,K,A*08

$GPGGA,221006.000,0010.9677,S,07829.1107,W,1,11,0.77,2801.9,M,13.7,M,,*5E

$GPGGA,221007.000,0010.9699,S,07829.1114,W,1,11,0.77,2801.8,M,13.7,M,,*5C

$GPGSA,A,3,17,23,19,03,07,09,01,22,08,28,11,,1.42,0.77,1.20*07

$GPRMC,221007.000,A,0010.9699,S,07829.1114,W,7.99,194.64,300317,,,A*67

$GPVTG,194.64,T,,M,7.99,N,14.80,K,A*09

$GPVTG,189.45,T,,M,8.09,N,14.99,K,A*08

$GPGGA,221009.000,0010.9746,S,07829.1124,W,1,10,0.85,2801.4,M,13.7,M,,*52

$GPGGA,221010.000,0010.9768,S,07829.1130,W,1,11,0.77,2801.3,M,13.7,M,,*58

$GPGSA,A,3,17,23,19,03,07,09,01,22,08,28,11,,1.42,0.77,1.20*07

$GPGSA,A,3,17,23,19,03,07,09,01,22,08,28,11,,1.42,0.77,1.20*07

$GPRMC,221011.000,A,0010.9790,S,07829.1134,W,7.28,188.36,300317,,,A*6A

$GPGSV,3,1,12,01,64,096,34,11,60,036,38,07,51,357,41,09,50,236,25*70

$GPGSV,3,2,12,23,39,181,23,17,29,250,32,03,23,155,24,22,20,129,30*7C

$GPGGA,221013.000,0010.9831,S,07829.1143,W,1,11,0.77,2800.7,M,13.7,M,,*59

$GPGSA,A,3,17,23,19,03,07,09,01,22,08,28,11,,1.42,0.77,1.20*07

$GPGSA,A,3,17,23,19,03,07,09,01,22,08,28,11,,1.42,0.77,1.20*07

$GPRMC,221014.000,A,0010.9849,S,07829.1146,W,5.98,187.86,300317,,,A*6C

$GPRMC,221015.000,A,0010.9866,S,07829.1151,W,5.93,191.69,300317,,,A*6B

$GPVTG,191.69,T,,M,5.93,N,10.99,K,A*05

$GPVTG,192.37,T,,M,5.61,N,10.39,K,A*0A

$GPGGA,221017.000,0010.9897,S,07829.1160,W,1,11,0.77,2799.7,M,13.7,M,,*5F

$GPGSV,3,3,12,08,16,021,40,19,12,233,16,28,08,314,27,34,,,*4A

$GPRMC,221017.000,A,0010.9897,S,07829.1160,W,5.77,189.08,300317,,,A*61

$GPRMC,221018.000,A,0010.9913,S,07829.1164,W,5.74,192.58,300317,,,A*6B

$GPVTG,192.58,T,,M,5.74,N,10.63,K,A*08

$GPVTG,192.85,T,,M,5.58,N,10.34,K,A*04

$GPGGA,221020.000,0010.9943,S,07829.1172,W,1,10,0.85,2799.8,M,13.7,M,,*53

$GPGGA,221021.000,0010.9957,S,07829.1176,W,1,11,0.77,2799.7,M,13.7,M,,*50

$GPGSA,A,3,17,23,19,03,07,09,01,22,08,28,11,,1.42,0.77,1.20*07

$GPGSV,3,1,12,01,64,096,36,11,60,035,38,07,51,357,41,09,50,236,29*7D

$GPGSV,3,2,12,23,39,181,23,17,29,250,33,03,23,155,23,22,20,129,27*7C

$GPGGA,221023.000,0010.9983,S,07829.1183,W,1,10,0.85,2799.5,M,13.7,M,,*5F

$GPGSA,A,3,17,23,19,03,07,09,01,22,08,11,,,1.60,0.85,1.35*04

$GPGSA,A,3,17,23,19,03,07,09,01,22,08,11,,,1.60,0.85,1.35*04

$GPRMC,221024.000,A,0010.9995,S,07829.1186,W,4.46,194.38,300317,,,A*66

$GPRMC,221025.000,A,0011.0006,S,07829.1188,W,4.17,180.36,300317,,,A*6D

$GPVTG,180.36,T,,M,4.17,N,7.73,K,A*30

$GPVTG,185.03,T,,M,4.14,N,7.68,K,A*3A

$GPGGA,221027.000,0011.0028,S,07829.1192,W,1,10,0.85,2799.8,M,13.7,M,,*56

$GPGSV,3,3,12,08,16,021,41,19,12,233,18,28,08,314,20,36,,,*40

$GPRMC,221027.000,A,0011.0028,S,07829.1192,W,3.82,187.22,300317,,,A*61

$GPRMC,221028.000,A,0011.0039,S,07829.1193,W,4.17,179.41,300317,,,A*60

$GPVTG,179.41,T,,M,4.17,N,7.73,K,A*36

$GPVTG,185.05,T,,M,4.16,N,7.72,K,A*35

$GPGGA,221030.000,0011.0062,S,07829.1196,W,1,10,0.85,2799.8,M,13.7,M,,*5A

$GPGGA,221031.000,0011.0072,S,07829.1196,W,1,10,0.83,2799.9,M,13.7,M,,*5D

$GPGSA,A,3,17,23,19,07,09,01,22,08,28,11,,,1.49,0.83,1.24*00

$GPGSA,A,3,17,23,19,07,09,01,22,08,28,11,03,,1.42,0.77,1.20*07

$GPGSV,4,1,13,01,64,096,33,11,60,035,38,07,51,357,42,09,50,236,32*77

$GPRMC,221032.000,A,0011.0083,S,07829.1197,W,3.82,181.63,300317,,,A*62

$GPVTG,181.63,T,,M,3.82,N,7.09,K,A*37

$GPVTG,180.28,T,,M,3.73,N,6.91,K,A*37

$GPGGA,221034.000,0011.0104,S,07829.1198,W,1,10,0.84,2800.0,M,13.7,M,,*57

$GPGGA,221035.000,0011.0115,S,07829.1198,W,1,10,0.85,2800.1,M,13.7,M,,*56

$GPGSA,A,3,17,23,19,07,09,01,22,08,11,03,,,1.60,0.85,1.35*04

$GPGSA,A,3,17,23,19,07,09,01,22,08,11,03,,,1.60,0.85,1.35*04

$GPRMC,221036.000,A,0011.0125,S,07829.1197,W,3.92,166.56,300317,,,A*65

$GPGSV,4,1,13,01,64,096,34,11,60,035,38,07,51,357,42,09,50,236,33*71

$GPGSV,4,2,13,23,39,181,24,17,29,250,32,03,23,155,18,22,20,129,24*77

$GPVTG,170.59,T,,M,3.98,N,7.37,K,A*36

$GPGGA,221038.000,0011.0147,S,07829.1193,W,1,10,0.85,2800.3,M,13.7,M,,*55

$GPGGA,221039.000,0011.0157,S,07829.1191,W,1,10,0.85,2800.4,M,13.7,M,,*50

$GPGSA,A,3,17,23,19,07,09,01,22,08,11,03,,,1.60,0.85,1.35*04

$GPGSA,A,3,17,23,19,07,09,01,22,08,11,03,,,1.16,0.84,0.80*0B

$GPRMC,221040.000,A,0011.0168,S,07829.1189,W,3.90,164.38,300317,,,A*6A

$GPRMC,221041.000,A,0011.0179,S,07829.1187,W,3.90,173.42,300317,,,A*6E

$GPVTG,173.42,T,,M,3.90,N,7.23,K,A*32

$GPGSV,4,2,13,23,39,181,24,17,29,250,37,03,23,155,19,22,20,129,23*74

$GPGSV,4,3,13,08,16,021,42,19,12,233,18,28,08,314,17,41,,,*41

$GPGGA,221043.000,0011.0201,S,07829.1184,W,1,10,0.85,2801.1,M,13.7,M,,*5D

$GPGSA,A,3,17,23,19,07,09,01,22,08,11,03,,,1.60,0.85,1.35*04

$GPGSA,A,3,17,23,19,07,09,01,22,08,11,03,,,1.60,0.85,1.35*04

$GPRMC,221044.000,A,0011.0213,S,07829.1181,W,4.23,163.71,300317,,,A*6C

$GPRMC,221045.000,A,0011.0225,S,07829.1176,W,4.97,153.86,300317,,,A*64

$GPVTG,153.86,T,,M,4.97,N,9.21,K,A*34

$GPVTG,157.91,T,,M,4.49,N,8.32,K,A*36

$GPGGA,221047.000,0011.0249,S,07829.1167,W,1,10,0.85,2801.5,M,13.7,M,,*5C

$GPGSV,4,3,13,08,16,021,41,19,12,233,19,28,08,314,18,43,,,*4E

$GPGSV,4,4,13,30,,,37*7C

$GPGSA,A,3,17,23,19,07,09,01,22,08,28,11,03,,1.42,0.77,1.20*07

$GPRMC,221048.000,A,0011.0260,S,07829.1162,W,4.55,151.58,300317,,,A*62

$GPRMC,221049.000,A,0011.0272,S,07829.1156,W,4.30,154.33,300317,,,A*6C

$GPVTG,154.33,T,,M,4.30,N,7.96,K,A*32

$GPVTG,149.81,T,,M,4.91,N,9.09,K,A*34

$GPGGA,221051.000,0011.0295,S,07829.1144,W,1,11,0.77,2801.6,M,13.7,M,,*54

$GPGGA,221052.000,0011.0307,S,07829.1138,W,1,10,0.89,2801.4,M,13.7,M,,*54

$GPGSA,A,3,17,23,19,07,09,01,08,28,11,03,,,1.59,0.89,1.32*0F

$GPGSV,4,4,13,30,,,30*7B

$GPRMC,221052.000,A,0011.0307,S,07829.1138,W,4.58,151.30,300317,,,A*65

$GPRMC,221053.000,A,0011.0319,S,07829.1132,W,4.22,147.90,300317,,,A*61

$GPVTG,147.90,T,,M,4.22,N,7.83,K,A*3E

$GPVTG,150.62,T,,M,3.88,N,7.18,K,A*30

$GPGGA,221055.000,0011.0340,S,07829.1118,W,1,10,0.86,2800.6,M,13.7,M,,*5E

$GPGGA,221056.000,0011.0349,S,07829.1111,W,1,10,0.89,2800.6,M,13.7,M,,*52

$GPGSA,A,3,17,23,19,07,09,01,08,28,11,03,,,1.59,0.89,1.32*0F

$GPGSA,A,3,17,23,19,07,09,01,08,28,11,03,,,1.59,0.89,1.32*0F

$GPGSV,4,1,13,01,64,095,29,11,60,035,35,07,51,357,41,09,49,236,36*7D

$GPRMC,221057.000,A,0011.0357,S,07829.1104,W,4.35,141.14,300317,,,A*66

$GPVTG,141.14,T,,M,4.35,N,8.06,K,A*30

$GPVTG,138.23,T,,M,4.69,N,8.69,K,A*3A

$GPGGA,221059.000,0011.0376,S,07829.1087,W,1,11,0.77,2800.1,M,13.7,M,,*58

$GPGGA,221100.000,0011.0387,S,07829.1077,W,1,10,0.89,2799.7,M,13.7,M,,*5D

$GPGSA,A,3,17,23,19,07,09,01,08,28,11,03,,,1.59,0.89,1.32*0F

$GPGSA,A,3,17,23,19,07,09,01,08,28,11,03,,,1.59,0.89,1.32*0F

$GPRMC,221101.000,A,0011.0398,S,07829.1066,W,4.58,134.10,300317,,,A*6F

$GPGSV,4,1,13,01,64,095,29,11,60,035,36,07,51,357,41,09,49,236,36*7E

$GPGSV,4,2,13,23,39,181,29,17,30,250,42,03,23,155,22,22,20,128,20*79

$GPVTG,127.41,T,,M,4.81,N,8.91,K,A*31

$GPGGA,221103.000,0011.0416,S,07829.1044,W,1,10,0.89,2799.5,M,13.7,M,,*53

$GPGGA,221104.000,0011.0425,S,07829.1032,W,1,10,0.89,2799.3,M,13.7,M,,*53

$GPGSA,A,3,17,23,19,07,09,01,08,28,11,03,,,1.59,0.89,1.32*0F

$GPGSA,A,3,17,23,19,07,09,01,22,08,28,11,03,,1.42,0.77,1.20*07

$GPRMC,221105.000,A,0011.0434,S,07829.1022,W,4.82,128.73,300317,,,A*65

$GPRMC,221106.000,A,0011.0446,S,07829.1010,W,4.52,129.74,300317,,,A*69

$GPVTG,129.74,T,,M,4.52,N,8.37,K,A*3B

$GPGSV,4,2,13,23,38,181,32,17,30,250,44,03,23,155,25,22,20,128,20*73

$GPGSV,4,3,13,30,17,334,37,08,16,022,31,19,12,233,38,28,08,314,32*73

$GPGGA,221108.000,0011.0464,S,07829.0985,W,1,10,0.89,2798.5,M,13.7,M,,*59

$GPGSA,A,3,17,23,19,07,09,01,08,28,11,03,,,1.59,0.89,1.32*0F

$GPGSA,A,3,17,23,19,07,09,01,22,08,28,11,03,,1.42,0.77,1.20*07

$GPRMC,221109.000,A,0011.0473,S,07829.0971,W,4.78,121.49,300317,,,A*61

$GPRMC,221110.000,A,0011.0481,S,07829.0957,W,5.08,115.29,300317,,,A*67

$GPVTG,115.29,T,,M,5.08,N,9.42,K,A*31

$GPVTG,115.81,T,,M,4.92,N,9.11,K,A*37

$GPGGA,221112.000,0011.0495,S,07829.0930,W,1,11,0.77,2798.1,M,13.7,M,,*56

$GPGSV,4,3,13,30,17,334,35,08,16,022,30,19,12,233,41,28,08,314,33*7F

$GPGSV,4,4,13,49,,,*76

$GPGSA,A,3,17,23,19,07,09,01,08,28,11,03,,,1.59,0.89,1.32*0F

