
$GPRMC,163201.093,A,0010.6987,S,07828.8147,W,0.21,24.12,220217,,,A*50

$GPVTG,24.12,T,,M,0.21,N,0.38,K,A*00

$GPGSV,2,2,08,26,41,193,39,14,19,338,28,04,,,31,32,,,35*7F

$GPRMC,163203.000,A,0010.6986,S,07828.8145,W,0.14,59.46,220217,,,A*56

$GPRMC,163204.000,A,0010.6988,S,07828.8144,W,0.11,253.33,220217,,,A*61

$GPVTG,253.33,T,,M,0.11,N,0.20,K,A*3B

$GPVTG,91.45,T,,M,0.43,N,0.80,K,A*0B

$GPGGA,163206.000,0010.6992,S,07828.8139,W,1,05,1.57,2794.4,M,13.7,M,,*5F

$GPGGA,163207.000,0010.6993,S,07828.8137,W,1,05,1.57,2794.7,M,13.7,M,,*52

$GPGSA,A,3,10,18,26,31,14,,,,,,,,1.83,1.57,0.94*0D

$GPGSA,A,3,10,18,26,31,14,,,,,,,,1.83,1.57,0.94*0D

$GPGSV,2,1,08,10,64,027,40,18,60,099,43,51,56,270,43,31,53,307,42*7B

$GPGGA,163209.000,0010.6995,S,07828.8138,W,1,05,1.57,2795.4,M,13.7,M,,*57

$GPGSA,A,3,10,18,26,31,14,,,,,,,,1.83,1.57,0.94*0D

$GPGSA,A,3,10,18,26,31,14,,,,,,,,1.83,1.57,0.94*0D

$GPRMC,163210.000,A,0010.6995,S,07828.8138,W,0.28,357.30,220217,,,A*6F

$GPRMC,163211.000,A,0010.6996,S,07828.8137,W,0.11,177.68,220217,,,A*65

$GPVTG,177.68,T,,M,0.11,N,0.21,K,A*31

$GPVTG,17.96,T,,M,0.26,N,0.48,K,A*0C

$GPGGA,163213.000,0010.6997,S,07828.8136,W,1,05,1.57,2796.2,M,13.7,M,,*55

$GPRMC,163213.000,A,0010.6997,S,07828.8136,W,0.10,347.54,220217,,,A*68

$GPVTG,347.54,T,,M,0.10,N,0.19,K,A*35

$GPVTG,358.27,T,,M,0.50,N,0.92,K,A*38

$GPGGA,163215.000,0010.6997,S,07828.8136,W,1,05,1.76,2796.1,M,13.7,M,,*53

$GPGGA,163216.000,0010.6997,S,07828.8135,W,1,05,1.76,2796.1,M,13.7,M,,*53

$GPGSA,A,3,10,18,26,31,14,,,,,,,,3.24,1.76,2.72*0B

$GPGSA,A,3,10,18,26,31,14,,,,,,,,1.83,1.57,0.94*0D

$GPRMC,163217.000,A,0010.6998,S,07828.8135,W,0.18,129.71,220217,,,A*65

$GPGSV,2,1,07,10,64,027,33,18,60,099,25,51,56,270,38,31,53,307,34*7D

$GPGSV,2,2,07,26,41,193,36,14,19,338,20,32,,,28*7D

$GPGSA,A,3,10,18,26,31,14,,,,,,,,1.83,1.57,0.94*0D

$GPRMC,163219.000,A,0010.7001,S,07828.8135,W,0.33,150.44,220217,,,A*62

$GPRMC,163220.000,A,0010.7001,S,07828.8134,W,0.15,151.37,220217,,,A*68

$GPVTG,151.37,T,,M,0.15,N,0.27,K,A*3D

$GPVTG,183.88,T,,M,0.23,N,0.42,K,A*30

$GPGGA,163222.000,0010.7005,S,07828.8134,W,1,05,1.57,2796.1,M,13.7,M,,*55

$GPGGA,163223.000,0010.7005,S,07828.8133,W,1,05,1.57,2796.3,M,13.7,M,,*51

$GPGSA,A,3,10,18,26,31,14,,,,,,,,1.83,1.57,0.94*0D

$GPVTG,181.26,T,,M,0.41,N,0.75,K,A*36

$GPGGA,163224.000,0010.7005,S,07828.8134,W,1,05,1.57,2796.4,M,13.7,M,,*56

$GPGGA,163225.000,0010.7004,S,07828.8134,W,1,05,1.57,2796.3,M,13.7,M,,*51

$GPGSA,A,3,10,18,26,31,14,,,,,,,,1.83,1.57,0.94*0D

$GPGSA,A,3,10,18,26,31,14,,,,,,,,1.83,1.57,0.94*0D

$GPRMC,163226.000,A,0010.7004,S,07828.8134,W,0.10,246.85,220217,,,A*62

$GPRMC,163227.000,A,0010.7002,S,07828.8133,W,0.18,8.16,220217,,,A*68

$GPVTG,8.16,T,,M,0.18,N,0.34,K,A*3C

$GPGSV,2,2,07,26,42,193,37,14,19,338,20,32,,,23*74

$GPRMC,163228.000,A,0010.7001,S,07828.8133,W,0.17,3.68,220217,,,A*69

$GPRMC,163229.000,A,0010.7000,S,07828.8133,W,0.33,350.97,220217,,,A*6A

$GPVTG,350.97,T,,M,0.33,N,0.60,K,A*33

$GPVTG,328.34,T,,M,0.32,N,0.60,K,A*34

$GPGGA,163231.000,0010.7000,S,07828.8133,W,1,05,1.57,2796.0,M,13.7,M,,*54

$GPGGA,163232.000,0010.7003,S,07828.8133,W,1,05,1.57,2795.9,M,13.7,M,,*5E

$GPGSA,A,3,10,18,26,31,14,,,,,,,,1.83,1.57,0.94*0D

$GPGSA,A,3,10,18,26,31,14,,,,,,,,1.83,1.57,0.94*0D

$GPGSV,2,1,07,10,64,027,36,18,60,099,17,51,56,270,40,31,53,307,41*74

$GPGGA,163234.000,0010.7018,S,07828.8135,W,1,05,1.57,2795.7,M,13.7,M,,*5A

$GPGSA,A,3,10,18,26,31,14,,,,,,,,1.83,1.57,0.94*0D

$GPGSA,A,3,10,18,26,31,14,,,,,,,,1.83,1.57,0.94*0D

$GPRMC,163235.000,A,0010.7025,S,07828.8135,W,2.17,179.82,220217,,,A*6F

$GPRMC,163236.000,A,0010.7031,S,07828.8136,W,2.17,184.89,220217,,,A*63

$GPVTG,184.89,T,,M,2.17,N,4.02,K,A*33

$GPVTG,187.42,T,,M,2.32,N,4.29,K,A*39

$GPGGA,163238.000,0010.7045,S,07828.8139,W,1,05,1.57,2795.4,M,13.7,M,,*51

$GPRMC,163238.000,A,0010.7045,S,07828.8139,W,2.33,186.18,220217,,,A*6D

$GPVTG,186.18,T,,M,2.33,N,4.32,K,A*3C

$GPVTG,190.96,T,,M,2.27,N,4.20,K,A*3B

$GPGGA,163240.000,0010.7059,S,07828.8145,W,1,05,1.57,2795.5,M,13.7,M,,*59

$GPGGA,163241.000,0010.7066,S,07828.8146,W,1,05,1.57,2795.4,M,13.7,M,,*56

$GPGSA,A,3,10,18,26,31,14,,,,,,,,1.83,1.57,0.94*0D

$GPGSA,A,3,10,18,26,31,14,,,,,,,,1.83,1.57,0.94*0D

$GPRMC,163242.000,A,0010.7075,S,07828.8148,W,2.63,187.35,220217,,,A*6E

$GPGSV,2,1,07,10,64,027,40,18,60,099,17,51,56,270,39,31,53,307,45*7F

$GPGSV,2,2,07,26,42,193,36,14,19,338,19,32,,,30*7D

$GPGSA,A,3,10,18,26,31,14,,,,,,,,1.83,1.57,0.94*0D

$GPRMC,163244.000,A,0010.7091,S,07828.8152,W,2.67,187.46,220217,,,A*69

$GPRMC,163245.000,A,0010.7099,S,07828.8154,W,2.61,188.40,220217,,,A*69

$GPVTG,188.40,T,,M,2.61,N,4.84,K,A*35

$GPVTG,193.08,T,,M,3.02,N,5.60,K,A*3C

$GPGGA,163247.000,0010.7116,S,07828.8160,W,1,05,1.57,2798.7,M,13.7,M,,*5C

$GPGGA,163248.000,0010.7123,S,07828.8165,W,1,05,1.58,2799.4,M,13.7,M,,*5D

$GPGSA,A,3,10,18,26,31,14,,,,,,,,1.83,1.58,0.94*02

$GPVTG,212.55,T,,M,2.65,N,4.91,K,A*31

$GPGGA,163249.000,0010.7131,S,07828.8170,W,1,05,1.57,2800.2,M,13.7,M,,*5D

$GPGGA,163250.000,0010.7139,S,07828.8173,W,1,05,1.58,2800.8,M,13.7,M,,*5B

$GPGSA,A,3,10,18,26,31,14,,,,,,,,1.83,1.58,0.94*02

$GPGSA,A,3,10,18,26,31,14,,,,,,,,1.83,1.58,0.94*02

$GPRMC,163251.000,A,0010.7146,S,07828.8176,W,2.01,194.25,220217,,,A*67

$GPRMC,163252.000,A,0010.7154,S,07828.8181,W,2.84,213.56,220217,,,A*6A

$GPVTG,213.56,T,,M,2.84,N,5.26,K,A*31

$GPGSV,2,2,07,26,42,193,35,14,19,338,17,32,,,30*70

$GPRMC,163253.000,A,0010.7163,S,07828.8185,W,2.73,189.50,220217,,,A*65

$GPRMC,163254.000,A,0010.7172,S,07828.8189,W,2.92,199.18,220217,,,A*6C

$GPVTG,199.18,T,,M,2.92,N,5.42,K,A*3F

$GPVTG,203.79,T,,M,3.01,N,5.59,K,A*39

$GPGGA,163256.000,0010.7188,S,07828.8203,W,1,05,1.58,2805.5,M,13.7,M,,*5B

$GPGGA,163257.000,0010.7196,S,07828.8203,W,1,05,1.58,2805.5,M,13.7,M,,*55

$GPGSA,A,3,10,18,26,31,14,,,,,,,,1.84,1.58,0.94*05

$GPGSA,A,3,10,18,26,31,14,,,,,,,,1.84,1.58,0.94*05

$GPGSV,2,1,07,10,64,028,39,18,60,100,41,51,56,270,38,31,53,307,45*7D

$GPGGA,163259.000,0010.7210,S,07828.8206,W,1,05,1.58,2805.8,M,13.7,M,,*5E

$GPGSA,A,3,10,18,26,31,14,,,,,,,,1.84,1.58,0.94*05

$GPGSA,A,3,10,18,26,31,,,,,,,,,2.02,1.76,1.00*0D

$GPRMC,163300.000,A,0010.7217,S,07828.8206,W,2.44,181.23,220217,,,D*67

$GPRMC,163301.000,A,0010.7223,S,07828.8207,W,2.36,187.36,220217,,,D*67

$GPVTG,187.36,T,,M,2.36,N,4.38,K,D*3B

$GPVTG,179.82,T,,M,2.91,N,5.39,K,D*38

$GPGGA,163303.000,0010.7237,S,07828.8208,W,2,04,1.76,2805.7,M,13.7,M,0000,0000*5A

$GPRMC,163303.000,A,0010.7237,S,07828.8208,W,2.51,184.05,220217,,,D*6D

$GPVTG,184.05,T,,M,2.51,N,4.65,K,D*31

$GPVTG,181.80,T,,M,2.33,N,4.33,K,D*3E

$GPGGA,163305.000,0010.7248,S,07828.8211,W,2,04,1.76,2805.6,M,13.7,M,0000,0000*5D

$GPGGA,163306.000,0010.7254,S,07828.8215,W,2,04,1.76,2805.5,M,13.7,M,0000,0000*54

$GPGSA,A,3,10,18,26,31,,,,,,,,,2.02,1.76,1.00*0D

$GPGSA,A,3,10,18,26,31,,,,,,,,,2.02,1.76,1.00*0D

$GPRMC,163307.000,A,0010.7260,S,07828.8217,W,2.37,188.73,220217,,,D*68

$GPGSV,2,1,08,10,64,028,39,18,60,100,42,51,56,270,28,31,53,307,37*75

$GPGSV,2,2,08,26,42,193,35,25,35,057,29,14,19,338,,32,,,31*40

$GPGSA,A,3,10,18,26,31,,,,,,,,,2.02,1.76,1.00*0D

$GPRMC,163309.000,A,0010.7274,S,07828.8219,W,1.94,185.82,220217,,,D*64

$GPRMC,163310.000,A,0010.7281,S,07828.8220,W,3.03,191.51,220217,,,D*6B

$GPVTG,191.51,T,,M,3.03,N,5.61,K,D*37

$GPVTG,198.20,T,,M,2.52,N,4.68,K,D*35

$GPGGA,163312.000,0010.7295,S,07828.8224,W,2,05,1.58,2804.9,M,13.7,M,0000,0000*5E

$GPGGA,163313.000,0010.7302,S,07828.8225,W,2,05,1.58,2804.9,M,13.7,M,0000,0000*51

$GPGSA,A,3,10,18,26,31,14,,,,,,,,1.84,1.58,0.94*05

$GPVTG,188.47,T,,M,2.48,N,4.60,K,D*36

$GPGGA,163314.000,0010.7309,S,07828.8226,W,2,05,1.58,2804.9,M,13.7,M,0000,0000*5E

$GPGGA,163315.000,0010.7315,S,07828.8231,W,2,05,1.58,2805.0,M,13.7,M,0000,0000*5C

$GPGSA,A,3,10,18,26,31,14,,,,,,,,1.84,1.58,0.94*05

$GPGSA,A,3,10,18,26,31,14,,,,,,,,1.84,1.58,0.94*05

$GPRMC,163316.000,A,0010.7322,S,07828.8234,W,2.33,202.46,220217,,,D*6D

$GPRMC,163317.000,A,0010.7329,S,07828.8238,W,2.54,210.79,220217,,,D*65

$GPVTG,210.79,T,,M,2.54,N,4.70,K,D*35

$GPGSV,2,2,08,25,35,057,33,48,27,270,,14,19,338,17,32,,,30*4F

$GPRMC,163318.000,A,0010.7336,S,07828.8242,W,2.82,222.43,220217,,,D*6A

$GPRMC,163319.000,A,0010.7343,S,07828.8247,W,3.09,223.72,220217,,,D*6D

$GPVTG,223.72,T,,M,3.09,N,5.72,K,D*34

$GPVTG,224.98,T,,M,2.83,N,5.25,K,D*36

$GPGGA,163321.000,0010.7355,S,07828.8259,W,2,05,1.58,2806.4,M,13.7,M,0000,0000*56

$GPGGA,163322.000,0010.7361,S,07828.8264,W,2,05,1.58,2806.7,M,13.7,M,0000,0000*5F

$GPGSA,A,3,10,18,26,31,14,,,,,,,,1.84,1.58,0.94*05

$GPGSA,A,3,10,18,26,31,14,,,,,,,,1.84,1.58,0.94*05

$GPGSV,2,1,08,10,64,028,39,18,60,100,23,31,53,307,29,26,42,193,40*78

$GPGGA,163324.000,0010.7373,S,07828.8272,W,2,05,1.58,2807.5,M,13.7,M,0000,0000*5E

$GPGSA,A,3,10,18,26,31,14,,,,,,,,1.84,1.58,0.94*05

$GPGSA,A,3,10,18,26,31,14,,,,,,,,1.84,1.58,0.94*05

$GPRMC,163325.000,A,0010.7379,S,07828.8278,W,2.55,222.15,220217,,,D*6F

$GPRMC,163326.000,A,0010.7384,S,07828.8285,W,3.19,237.87,220217,,,D*6A

$GPVTG,237.87,T,,M,3.19,N,5.91,K,D*37

$GPVTG,197.35,T,,M,1.94,N,3.60,K,D*38

$GPGGA,163328.000,0010.7397,S,07828.8286,W,2,05,1.58,2807.5,M,13.7,M,0000,0000*53

$GPRMC,163328.000,A,0010.7397,S,07828.8286,W,2.87,187.67,220217,,,D*65

$GPVTG,187.67,T,,M,2.87,N,5.33,K,D*3F

$GPVTG,197.63,T,,M,2.77,N,5.14,K,D*30

$GPGGA,163330.000,0010.7413,S,07828.8288,W,2,05,1.58,2808.0,M,13.7,M,0000,0000*55

$GPGGA,163331.000,0010.7421,S,07828.8290,W,2,05,1.58,2808.2,M,13.7,M,0000,0000*5E

$GPGSA,A,3,10,18,26,31,14,,,,,,,,1.84,1.58,0.94*05

$GPGSA,A,3,10,18,26,31,14,,,,,,,,1.84,1.58,0.94*05

$GPRMC,163332.000,A,0010.7427,S,07828.8293,W,2.33,204.54,220217,,,D*61

$GPGSV,2,1,08,10,64,028,41,18,60,100,36,51,56,270,,31,53,307,29*7C

$GPGSV,2,2,08,26,42,193,41,25,35,057,22,14,19,338,16,32,,,26*49

$GPGSA,A,3,10,18,26,31,14,,,,,,,,1.84,1.58,0.94*05

$GPRMC,163334.000,A,0010.7441,S,07828.8299,W,2.80,202.41,220217,,,D*67

$GPRMC,163335.000,A,0010.7449,S,07828.8301,W,2.97,202.19,220217,,,D*65

$GPVTG,202.19,T,,M,2.97,N,5.50,K,D*3C

$GPVTG,188.51,T,,M,2.88,N,5.34,K,D*3D

$GPGGA,163337.000,0010.7466,S,07828.8301,W,2,05,1.58,2809.7,M,13.7,M,0000,0000*56

$GPGGA,163338.000,0010.7474,S,07828.8302,W,2,05,1.58,2810.1,M,13.7,M,0000,0000*57

$GPGSA,A,3,10,18,26,31,14,,,,,,,,1.84,1.58,0.94*05

$GPVTG,201.22,T,,M,2.20,N,4.08,K,D*37

$GPGGA,163339.000,0010.7480,S,07828.8306,W,2,05,1.58,2810.1,M,13.7,M,0000,0000*59

$GPGGA,163340.000,0010.7486,S,07828.8310,W,2,05,1.58,2810.4,M,13.7,M,0000,0000*53

$GPGSA,A,3,10,18,26,31,14,,,,,,,,1.84,1.58,0.94*05

$GPGSA,A,3,10,18,26,31,14,,,,,,,,1.84,1.58,0.94*05

$GPRMC,163341.000,A,0010.7491,S,07828.8315,W,2.71,228.06,220217,,,D*68

$GPRMC,163342.000,A,0010.7496,S,07828.8325,W,3.73,248.27,220217,,,D*69

$GPVTG,248.27,T,,M,3.73,N,6.92,K,D*39

$GPGSV,2,2,08,26,42,193,42,25,35,057,28,14,19,338,18,32,,,29*41

$GPRMC,163343.000,A,0010.7502,S,07828.8327,W,2.51,226.91,220217,,,D*62

$GPRMC,163344.000,A,0010.7509,S,07828.8328,W,2.58,221.10,220217,,,D*66

$GPVTG,221.10,T,,M,2.58,N,4.77,K,D*33

$GPVTG,210.91,T,,M,2.74,N,5.09,K,D*3E

$GPGGA,163346.000,0010.7525,S,07828.8326,W,2,05,1.58,2810.8,M,13.7,M,0000,0000*54

$GPGGA,163347.000,0010.7534,S,07828.8326,W,2,05,1.58,2811.8,M,13.7,M,0000,0000*54

$GPGSA,A,3,10,18,26,31,14,,,,,,,,1.84,1.58,0.94*05

$GPGSA,A,3,10,18,26,31,14,,,,,,,,1.84,1.58,0.94*05

$GPGSV,2,1,08,10,64,028,37,18,60,100,20,51,56,270,41,31,53,308,45*7A

$GPGGA,163349.000,0010.7547,S,07828.8326,W,2,05,1.58,2811.9,M,13.7,M,0000,0000*5F

$GPGSA,A,3,10,18,26,31,14,,,,,,,,1.84,1.58,0.94*05

$GPGSA,A,3,10,18,26,31,14,,,,,,,,1.84,1.58,0.94*05

$GPRMC,163350.000,A,0010.7554,S,07828.8325,W,2.35,184.19,220217,,,D*68

$GPRMC,163351.000,A,0010.7561,S,07828.8325,W,2.00,198.54,220217,,,D*6D

$GPVTG,198.54,T,,M,2.00,N,3.71,K,D*3E

$GPVTG,203.92,T,,M,2.92,N,5.41,K,D*3B

$GPGGA,163353.000,0010.7577,S,07828.8328,W,2,05,1.59,2811.9,M,13.7,M,0000,0000*58

$GPRMC,163353.000,A,0010.7577,S,07828.8328,W,3.14,200.84,220217,,,D*6E

$GPVTG,200.84,T,,M,3.14,N,5.82,K,D*3F

$GPVTG,194.71,T,,M,3.09,N,5.72,K,D*38

$GPGGA,163355.000,0010.7594,S,07828.8333,W,2,05,1.58,2811.9,M,13.7,M,0000,0000*58

$GPGGA,163356.000,0010.7601,S,07828.8334,W,2,05,1.58,2811.9,M,13.7,M,0000,0000*53

$GPGSA,A,3,10,18,26,31,14,,,,,,,,1.84,1.58,0.94*05

$GPGSA,A,3,10,18,26,31,14,,,,,,,,1.84,1.58,0.94*05

$GPRMC,163357.000,A,0010.7608,S,07828.8336,W,3.03,188.76,220217,,,D*66

$GPGSV,2,1,08,10,64,028,37,18,60,100,35,51,56,270,28,31,53,308,42*76

$GPGSV,2,2,08,26,42,193,42,25,35,057,21,14,19,338,21,32,,,31*4B

$GPGSA,A,3,10,18,26,31,14,,,,,,,,1.84,1.59,0.94*04

$GPRMC,163359.000,A,0010.7624,S,07828.8343,W,2.88,197.50,220217,,,D*6C

$GPRMC,163400.000,A,0010.7631,S,07828.8346,W,2.73,201.53,220217,,,D*6D

$GPVTG,201.53,T,,M,2.73,N,5.06,K,D*38

$GPVTG,202.50,T,,M,3.07,N,5.68,K,D*32

$GPGGA,163402.000,0010.7647,S,07828.8352,W,2,05,1.58,2812.1,M,13.7,M,0000,0000*5C

$GPGGA,163403.000,0010.7655,S,07828.8354,W,2,05,1.58,2812.2,M,13.7,M,0000,0000*5B

$GPGSA,A,3,10,18,26,31,14,,,,,,,,1.84,1.58,0.94*05

$GPVTG,196.19,T,,M,2.47,N,4.58,K,D*36

$GPGGA,163404.000,0010.7663,S,07828.8356,W,2,05,1.59,2812.2,M,13.7,M,0000,0000*5A

$GPGGA,163405.000,0010.7670,S,07828.8358,W,2,04,1.76,2812.1,M,13.7,M,0000,0000*58

$GPGSA,A,3,10,18,26,31,,,,,,,,,2.03,1.76,1.00*0C

$GPGSA,A,3,10,18,26,31,14,,,,,,,,1.84,1.59,0.94*04

$GPRMC,163406.000,A,0010.7677,S,07828.8360,W,2.70,187.83,220217,,,D*6E

$GPRMC,163407.000,A,0010.7684,S,07828.8363,W,2.35,199.72,220217,,,D*60

$GPVTG,199.72,T,,M,2.35,N,4.35,K,D*3A

$GPGSV,3,2,09,26,42,193,32,25,35,057,31,14,19,338,19,27,05,229,*7C

$GPGSV,3,3,09,32,,,26*75

$GPGSA,A,3,10,18,26,31,14,,,,,,,,1.84,1.59,0.94*04

$GPRMC,163409.000,A,0010.7696,S,07828.8371,W,2.56,215.21,220217,,,D*6A

$GPRMC,163410.000,A,0010.7701,S,07828.8378,W,2.46,234.54,220217,,,D*64

$GPVTG,234.54,T,,M,2.46,N,4.56,K,D*3B

$GPVTG,224.77,T,,M,2.47,N,4.58,K,D*34

$GPGGA,163412.000,0010.7715,S,07828.8378,W,2,05,1.59,2812.3,M,13.7,M,0000,0000*50

$GPGGA,163413.000,0010.7723,S,07828.8375,W,2,05,1.59,2812.3,M,13.7,M,0000,0000*59

$GPGSA,A,3,10,18,26,31,14,,,,,,,,1.84,1.59,0.94*04

$GPRMC,163413.000,A,0010.7723,S,07828.8375,W,2.10,178.13,220217,,,D*61

$GPVTG,178.13,T,,M,2.10,N,3.89,K,D*35

$GPVTG,128.60,T,,M,3.03,N,5.62,K,D*34

$GPGGA,163415.000,0010.7737,S,07828.8351,W,2,05,1.59,2812.8,M,13.7,M,0000,0000*57

$GPGGA,163416.000,0010.7740,S,07828.8341,W,2,05,1.59,2812.9,M,13.7,M,0000,0000*54

$GPGSA,A,3,10,18,26,31,14,,,,,,,,1.84,1.59,0.94*04

$GPGSA,A,3,10,18,26,31,14,,,,,,,,1.84,1.59,0.94*04

$GPRMC,163417.000,A,0010.7743,S,07828.8330,W,1.86,102.99,220217,,,D*61

$GPGSV,3,1,09,10,64,029,30,18,59,101,41,51,56,270,30,31,53,308,34*70

$GPGSV,3,2,09,26,42,193,20,25,35,056,26,14,19,338,17,27,05,229,*76

$GPGGA,163419.000,0010.7749,S,07828.8315,W,2,05,1.59,2812.7,M,13.7,M,0000,0000*5D

$GPGSA,A,3,10,18,26,31,14,,,,,,,,1.85,1.59,0.94*05

$GPGSA,A,3,10,18,26,31,14,,,,,,,,1.85,1.59,0.94*05

$GPRMC,163420.000,A,0010.7759,S,07828.8312,W,1.67,175.89,220217,,,D*60

$GPRMC,163421.000,A,0010.7763,S,07828.8307,W,1.23,149.15,220217,,,D*66

$GPVTG,149.15,T,,M,1.23,N,2.28,K,D*38

$GPVTG,177.89,T,,M,2.42,N,4.48,K,D*34

$GPGGA,163423.000,0010.7781,S,07828.8293,W,2,05,1.59,2812.7,M,13.7,M,0000,0000*5F

$GPGSV,3,3,09,32,,,27*74

$GPRMC,163423.000,A,0010.7781,S,07828.8293,W,1.61,159.52,220217,,,D*60

$GPRMC,163424.000,A,0010.7794,S,07828.8293,W,2.93,204.09,220217,,,D*68

$GPVTG,204.09,T,,M,2.93,N,5.43,K,D*3D

$GPVTG,140.69,T,,M,3.04,N,5.63,K,D*35

$GPGGA,163426.000,0010.7811,S,07828.8277,W,2,04,1.76,2812.5,M,13.7,M,0000,0000*58

$GPGGA,163427.000,0010.7821,S,07828.8275,W,2,03,4.33,2812.5,M,13.7,M,0000,0000*5B

$GPGSA,A,2,10,18,31,,,,,,,,,,4.45,4.33,1.00*09

$GPGSA,A,2,10,18,31,,,,,,,,,,4.45,4.33,1.00*09

$GPGSV,3,1,09,10,64,029,40,18,59,101,43,51,56,270,40,31,52,308,42*72

$GPVTG,179.46,T,,M,3.41,N,6.31,K,D*37

$GPGGA,163429.000,0010.7844,S,07828.8273,W,2,03,4.34,2812.4,M,13.7,M,0000,0000*56

$GPGGA,163430.000,0010.7850,S,07828.8267,W,2,04,1.77,2812.3,M,13.7,M,0000,0000*5C

$GPGSA,A,3,10,18,26,31,,,,,,,,,2.03,1.77,1.00*0D

$GPGSA,A,3,10,18,26,31,,,,,,,,,2.03,1.77,1.00*0D

$GPRMC,163431.000,A,0010.7855,S,07828.8259,W,3.29,134.42,220217,,,D*67

$GPRMC,163432.000,A,0010.7860,S,07828.8252,W,2.95,149.09,220217,,,D*6A

$GPVTG,149.09,T,,M,2.95,N,5.47,K,D*35

$GPGSV,3,2,09,26,42,193,15,25,35,056,23,14,19,338,17,27,05,229,*75

$GPGSV,3,3,09,32,,,24*77

$GPGSA,A,2,10,18,31,,,,,,,,,,4.46,4.34,1.00*0D

$GPRMC,163434.000,A,0010.7866,S,07828.8236,W,3.00,95.46,220217,,,D*5E

$GPRMC,163435.000,A,0010.7867,S,07828.8228,W,2.79,101.17,220217,,,D*66

$GPVTG,101.17,T,,M,2.79,N,5.16,K,D*30

$GPVTG,108.74,T,,M,2.40,N,4.45,K,D*31

$GPGGA,163437.000,0010.7873,S,07828.8214,W,2,04,1.77,2812.2,M,13.7,M,0000,0000*5F

$GPGGA,163438.000,0010.7876,S,07828.8207,W,2,03,4.35,2812.2,M,13.7,M,0000,0000*53

$GPGSA,A,2,10,18,31,,,,,,,,,,4.46,4.35,1.00*0C

$GPRMC,163438.000,A,0010.7876,S,07828.8207,W,2.75,96.52,220217,,,D*54

$GPVTG,96.52,T,,M,2.75,N,5.09,K,D*0C

$GPVTG,99.86,T,,M,2.69,N,4.98,K,D*0E

$GPGGA,163440.000,0010.7881,S,07828.8195,W,2,04,1.77,2812.1,M,13.7,M,0000,0000*5B

$GPGGA,163441.000,0010.7884,S,07828.8189,W,2,04,1.77,2812.1,M,13.7,M,0000,0000*52

$GPGSA,A,3,10,18,26,31,,,,,,,,,2.03,1.77,1.00*0D

$GPGSA,A,2,10,18,31,,,,,,,,,,4.46,4.35,1.00*0C

$GPRMC,163442.000,A,0010.7885,S,07828.8183,W,2.35,91.91,220217,,,D*56

$GPGSV,3,1,09,10,65,029,44,18,59,101,41,51,56,270,31,31,52,308,41*70

$GPGSV,3,2,09,26,42,193,16,25,35,056,26,14,19,339,18,27,05,229,*7D

$GPGGA,163444.000,0010.7886,S,07828.8168,W,2,04,1.77,2812.0,M,13.7,M,0000,0000*5B

$GPGSA,A,3,10,18,26,31,,,,,,,,,2.03,1.77,1.00*0D

$GPGSA,A,3,10,18,26,31,14,,,,,,,,1.85,1.59,0.94*05

$GPRMC,163445.000,A,0010.7887,S,07828.8162,W,2.41,95.74,220217,,,D*50

$GPRMC,163446.000,A,0010.7888,S,07828.8155,W,2.49,91.87,220217,,,D*58

$GPVTG,91.87,T,,M,2.49,N,4.61,K,D*03

$GPVTG,101.38,T,,M,2.48,N,4.59,K,D*35

$GPGGA,163448.000,0010.7892,S,07828.8143,W,2,05,1.59,2813.9,M,13.7,M,0000,0000*5E

$GPGSV,3,3,09,32,,,18*78

$GPRMC,163448.000,A,0010.7892,S,07828.8143,W,2.44,94.08,220217,,,D*55

$GPRMC,163449.000,A,0010.7892,S,07828.8136,W,2.90,84.23,220217,,,D*57

$GPVTG,84.23,T,,M,2.90,N,5.38,K,D*00

$GPVTG,99.54,T,,M,2.64,N,4.89,K,D*0C

$GPGGA,163451.000,0010.7893,S,07828.8120,W,2,05,1.59,2816.0,M,13.7,M,0000,0000*5E

$GPGGA,163452.000,0010.7897,S,07828.8114,W,2,05,1.59,2816.8,M,13.7,M,0000,0000*56

$GPGSA,A,3,10,18,26,31,14,,,,,,,,1.85,1.59,0.94*05

$GPGSA,A,3,10,18,26,31,14,,,,,,,,1.85,1.59,0.94*05

$GPGSV,3,1,09,10,65,029,27,18,59,101,42,51,56,270,27,31,52,308,36*71

$GPVTG,85.61,T,,M,2.86,N,5.31,K,D*09

$GPGGA,163454.000,0010.7901,S,07828.8099,W,2,05,1.59,2818.8,M,13.7,M,0000,0000*54

$GPGGA,163455.000,0010.7920,S,07828.8099,W,2,05,1.59,2821.2,M,13.7,M,0000,0000*56

$GPGSA,A,3,10,18,26,31,14,,,,,,,,1.85,1.59,0.94*05

$GPGSA,A,3,10,18,26,31,14,,,,,,,,1.85,1.59,0.94*05

$GPRMC,163456.000,A,0010.7929,S,07828.8096,W,2.38,91.12,220217,,,D*57

$GPRMC,163457.000,A,0010.7932,S,07828.8089,W,2.83,74.28,220217,,,D*50

$GPVTG,74.28,T,,M,2.83,N,5.24,K,D*0B

$GPGSV,3,2,10,26,43,193,22,25,35,056,30,14,19,339,29,27,05,229,*76

$GPGSV,3,3,10,32,,,17,21,,,39*76

$GPGSA,A,3,10,18,26,31,14,,,,,,,,1.85,1.59,0.94*05

$GPRMC,163459.000,A,0010.7944,S,07828.8081,W,1.97,141.19,220217,,,D*64

$GPRMC,163500.000,A,0010.7938,S,07828.8068,W,3.21,92.75,220217,,,D*5F

$GPVTG,92.75,T,,M,3.21,N,5.94,K,D*09

$GPVTG,107.58,T,,M,2.74,N,5.07,K,D*30

$GPGGA,163502.000,0010.7913,S,07828.8038,W,2,05,1.59,2826.5,M,13.7,M,0000,0000*5E

$GPGGA,163503.000,0010.7907,S,07828.8030,W,2,05,1.59,2826.9,M,13.7,M,0000,0000*5E

$GPGSA,A,3,10,18,26,31,14,,,,,,,,1.85,1.59,0.94*05

$GPRMC,163503.000,A,0010.7907,S,07828.8030,W,2.78,177.44,220217,,,D*68

$GPVTG,177.44,T,,M,2.78,N,5.15,K,D*35

$GPVTG,189.81,T,,M,3.32,N,6.16,K,D*32

$GPGGA,163505.000,0010.7914,S,07828.8029,W,2,04,1.77,2827.4,M,13.7,M,0000,0000*53

$GPGGA,163506.000,0010.7920,S,07828.8030,W,2,05,1.59,2827.2,M,13.7,M,0000,0000*54

$GPGSA,A,3,10,18,26,31,14,,,,,,,,1.85,1.59,0.94*05

$GPGSA,A,3,10,18,26,31,14,,,,,,,,1.85,1.59,0.94*05

$GPRMC,163507.000,A,0010.7926,S,07828.8029,W,2.58,189.81,220217,,,D*6D

$GPGSV,3,1,10,10,65,029,38,18,59,101,43,51,56,270,24,31,52,309,23*70

$GPGSV,3,2,10,26,43,193,41,25,35,056,35,14,19,339,18,27,05,229,*74

$GPGGA,163509.000,0010.7942,S,07828.8027,W,2,04,1.77,2826.6,M,13.7,M,0000,0000*51

$GPGSA,A,3,10,18,26,31,,,,,,,,,2.03,1.77,1.00*0D

$GPGSA,A,3,10,18,26,31,14,,,,,,,,1.85,1.59,0.94*05

$GPRMC,163510.000,A,0010.7949,S,07828.8026,W,2.48,187.07,220217,,,D*6C

$GPRMC,163511.000,A,0010.7956,S,07828.8026,W,2.61,186.32,220217,,,D*6F

$GPVTG,186.32,T,,M,2.61,N,4.83,K,D*3C

$GPVTG,172.44,T,,M,2.36,N,4.37,K,D*3B

$GPGGA,163513.000,0010.7971,S,07828.8024,W,2,04,1.89,2826.0,M,13.7,M,0000,0000*5E

$GPGSV,3,3,10,32,,,20,21,,,33*78

$GPRMC,163513.000,A,0010.7971,S,07828.8024,W,2.89,182.61,220217,,,D*6E

$GPRMC,163514.000,A,0010.7979,S,07828.8023,W,2.51,180.87,220217,,,D*69

$GPVTG,180.87,T,,M,2.51,N,4.65,K,D*3F

$GPVTG,189.32,T,,M,2.36,N,4.37,K,D*3E

$GPGGA,163516.000,0010.7992,S,07828.8024,W,2,05,1.60,2825.6,M,13.7,M,0000,0000*55

$GPGGA,163517.000,0010.7998,S,07828.8027,W,2,05,1.60,2825.5,M,13.7,M,0000,0000*5E

$GPGSA,A,3,10,18,26,31,14,,,,,,,,1.85,1.60,0.94*0F

$GPGSA,A,3,10,18,26,31,14,,,,,,,,1.85,1.60,0.94*0F

$GPGSV,3,1,10,10,65,030,35,18,59,101,34,51,56,270,26,31,52,309,22*76

$GPVTG,215.31,T,,M,2.58,N,4.78,K,D*38

$GPGGA,163519.000,0010.8013,S,07828.8032,W,2,05,1.60,2825.2,M,13.7,M,0000,0000*56

$GPGGA,163520.000,0010.8020,S,07828.8034,W,2,05,1.60,2825.1,M,13.7,M,0000,0000*59

$GPGSA,A,3,10,18,26,31,14,,,,,,,,1.85,1.60,0.94*0F

$GPGSA,A,3,10,18,26,31,14,,,,,,,,1.85,1.60,0.94*0F

$GPRMC,163521.000,A,0010.8028,S,07828.8035,W,2.68,205.00,220217,,,D*61

$GPRMC,163522.000,A,0010.8036,S,07828.8038,W,2.36,210.19,220217,,,D*67

$GPVTG,210.19,T,,M,2.36,N,4.38,K,D*3B

$GPGSV,3,2,10,26,43,193,39,25,35,056,28,14,19,339,18,27,05,229,*77

$GPGSV,3,3,10,32,,,20,21,,,30*7B

$GPGSA,A,3,10,18,26,31,14,,,,,,,,1.85,1.60,0.94*0F

$GPRMC,163524.000,A,0010.8052,S,07828.8040,W,2.75,191.37,220217,,,D*6D

$GPRMC,163525.000,A,0010.8062,S,07828.8038,W,2.62,178.91,220217,,,D*6D

$GPVTG,178.91,T,,M,2.62,N,4.85,K,D*31

$GPVTG,184.48,T,,M,2.82,N,5.23,K,D*35

$GPGGA,163527.000,0010.8079,S,07828.8036,W,2,05,1.60,2823.7,M,13.7,M,0000,0000*50

$GPGGA,163528.000,0010.8086,S,07828.8035,W,2,05,1.60,2823.6,M,13.7,M,0000,0000*5D

$GPGSA,A,3,10,18,26,31,14,,,,,,,,1.85,1.60,0.94*0F

$GPRMC,163528.000,A,0010.8086,S,07828.8035,W,2.39,183.22,220217,,,D*65

$GPVTG,183.22,T,,M,2.39,N,4.43,K,D*39

$GPVTG,185.00,T,,M,2.95,N,5.47,K,D*3C

$GPGGA,163530.000,0010.8107,S,07828.8032,W,2,05,1.60,2823.7,M,13.7,M,0000,0000*5A

$GPGGA,163531.000,0010.8116,S,07828.8031,W,2,05,1.60,2824.0,M,13.7,M,0000,0000*58

$GPGSA,A,3,10,18,26,31,14,,,,,,,,1.85,1.60,0.94*0F

$GPGSA,A,3,10,18,26,31,14,,,,,,,,1.85,1.60,0.94*0F

$GPRMC,163532.000,A,0010.8122,S,07828.8032,W,2.15,189.97,220217,,,D*6C

$GPGSV,3,1,10,10,65,030,32,18,59,102,37,51,56,270,25,31,52,309,20*70

$GPGSV,3,2,10,26,43,193,41,25,35,056,24,14,19,339,21,27,05,229,*7E

$GPGGA,163534.000,0010.8133,S,07828.8036,W,2,05,1.60,2823.7,M,13.7,M,0000,0000*5D

$GPGSA,A,3,10,18,26,31,14,,,,,,,,1.85,1.60,0.94*0F

$GPGSA,A,3,10,18,26,31,14,,,,,,,,1.85,1.60,0.94*0F

$GPRMC,163535.000,A,0010.8137,S,07828.8043,W,2.83,224.84,220217,,,D*60

$GPRMC,163536.000,A,0010.8142,S,07828.8048,W,2.31,225.51,220217,,,D*6A

$GPVTG,225.51,T,,M,2.31,N,4.29,K,D*36

$GPVTG,216.99,T,,M,2.30,N,4.26,K,D*3C

$GPGGA,163538.000,0010.8153,S,07828.8056,W,2,05,1.60,2823.3,M,13.7,M,0000,0000*55

$GPGSV,3,3,11,27,05,229,,32,,,18,21,,,31*49

$GPRMC,163538.000,A,0010.8153,S,07828.8056,W,2.56,220.72,220217,,,D*6E

$GPRMC,163539.000,A,0010.8160,S,07828.8058,W,2.51,197.20,220217,,,D*6E

$GPVTG,197.20,T,,M,2.51,N,4.64,K,D*35

$GPVTG,188.01,T,,M,2.68,N,4.96,K,D*3F

$GPGGA,163541.000,0010.8177,S,07828.8058,W,2,05,1.60,2823.0,M,13.7,M,0000,0000*50

$GPGGA,163542.000,0010.8185,S,07828.8057,W,2,05,1.60,2822.8,M,13.7,M,0000,0000*58

$GPGSA,A,3,10,18,26,31,14,,,,,,,,1.85,1.60,0.94*0F

$GPGSA,A,3,10,18,26,31,14,,,,,,,,1.86,1.60,0.94*0C

$GPGSV,3,1,11,10,65,030,31,18,59,102,39,31,52,309,24,26,43,193,38*7E

$GPVTG,180.34,T,,M,3.04,N,5.63,K,D*31

$GPGGA,163544.000,0010.8202,S,07828.8054,W,2,04,1.89,2822.6,M,13.7,M,0000,0000*59

$GPGGA,163545.000,0010.8211,S,07828.8053,W,2,05,1.60,2822.5,M,13.7,M,0000,0000*58

$GPGSA,A,3,10,18,26,31,14,,,,,,,,1.86,1.60,0.94*0C

$GPGSA,A,3,10,18,26,14,,,,,,,,,2.13,1.89,0.98*0A

$GPRMC,163546.000,A,0010.8222,S,07828.8048,W,2.48,170.65,220217,,,D*62

$GPRMC,163547.000,A,0010.8230,S,07828.8046,W,2.13,197.70,220217,,,D*6D

$GPVTG,197.70,T,,M,2.13,N,3.96,K,D*3C

$GPGSV,3,2,11,25,35,056,24,14,19,339,18,33,18,090,,29,09,120,*70

$GPGSV,3,3,11,27,05,229,,32,,,18,21,,,38*40

$GPGSA,A,3,10,18,26,31,14,,,,,,,,1.86,1.60,0.94*0C

$GPRMC,163549.000,A,0010.8244,S,07828.8050,W,2.51,225.42,220217,,,D*6A

$GPRMC,163550.000,A,0010.8250,S,07828.8054,W,2.53,220.88,220217,,,D*62

$GPVTG,220.88,T,,M,2.53,N,4.69,K,D*37

$GPVTG,194.42,T,,M,2.53,N,4.69,K,D*3D

$GPGGA,163552.000,0010.8262,S,07828.8058,W,2,05,1.60,2821.9,M,13.7,M,0000,0000*5E

$GPGGA,163553.000,0010.8268,S,07828.8060,W,2,05,1.60,2821.8,M,13.7,M,0000,0000*5F

$GPGSA,A,3,10,18,26,31,14,,,,,,,,1.86,1.60,0.94*0C

$GPRMC,163553.000,A,0010.8268,S,07828.8060,W,2.37,195.66,220217,,,D*62

$GPVTG,195.66,T,,M,2.37,N,4.40,K,D*33

$GPVTG,200.48,T,,M,2.57,N,4.76,K,D*33

$GPGGA,163555.000,0010.8282,S,07828.8065,W,2,05,1.60,2821.6,M,13.7,M,0000,0000*56

$GPGGA,163556.000,0010.8288,S,07828.8066,W,2,05,1.60,2821.5,M,13.7,M,0000,0000*5F

$GPGSA,A,3,10,18,26,31,14,,,,,,,,1.86,1.60,0.94*0C

$GPGSA,A,3,10,18,26,14,,,,,,,,,2.13,1.89,0.98*0A

$GPRMC,163557.000,A,0010.8295,S,07828.8067,W,2.38,198.67,220217,,,D*60

$GPGSV,3,1,11,10,65,030,34,18,59,102,39,31,52,309,22,26,43,193,41*73

$GPGSV,3,2,11,25,35,056,24,14,19,339,19,29,09,120,,27,05,229,*78

$GPGGA,163559.000,0010.8310,S,07828.8070,W,2,05,1.60,2821.1,M,13.7,M,0000,0000*53

$GPGSA,A,3,10,18,26,31,14,,,,,,,,1.86,1.60,0.94*0C

$GPGSA,A,3,10,18,26,14,,,,,,,,,2.13,1.89,0.98*0A

$GPRMC,163600.000,A,0010.8317,S,07828.8071,W,2.00,189.82,220217,,,D*6D

$GPRMC,163601.000,A,0010.8325,S,07828.8070,W,2.40,208.47,220217,,,D*6B

$GPVTG,208.47,T,,M,2.40,N,4.44,K,D*33

$GPVTG,203.25,T,,M,2.24,N,4.15,K,D*3A

$GPGGA,163603.000,0010.8338,S,07828.8072,W,2,06,1.52,2818.2,M,13.7,M,0000,0000*5C

$GPGSV,3,3,11,27,05,229,,35,,,,32,,,19*4F

$GPRMC,163603.000,A,0010.8338,S,07828.8072,W,2.20,213.21,220217,,,D*6B

$GPRMC,163604.000,A,0010.8343,S,07828.8074,W,1.90,215.31,220217,,,D*69

$GPVTG,215.31,T,,M,1.90,N,3.53,K,D*31

$GPVTG,217.02,T,,M,2.63,N,4.87,K,D*32

$GPGGA,163606.000,0010.8354,S,07828.8080,W,2,06,1.52,2816.2,M,13.7,M,0000,0000*50

$GPGGA,163607.000,0010.8361,S,07828.8084,W,2,06,1.52,2815.9,M,13.7,M,0000,0000*5B

$GPGSA,A,3,10,18,26,31,14,21,,,,,,,1.77,1.52,0.91*05

$GPGSA,A,3,10,18,26,31,14,21,,,,,,,1.77,1.52,0.91*05

$GPGSV,3,1,11,10,65,030,35,18,59,103,40,31,52,309,30,26,43,193,39*71

$GPVTG,221.25,T,,M,2.47,N,4.58,K,D*36

$GPGGA,163609.000,0010.8374,S,07828.8089,W,2,06,1.52,2815.2,M,13.7,M,0000,0000*57

$GPGGA,163610.000,0010.8382,S,07828.8090,W,2,06,1.52,2815.0,M,13.7,M,0000,0000*5C

$GPGSA,A,3,10,18,26,31,14,21,,,,,,,1.77,1.52,0.91*05

$GPGSA,A,3,10,18,26,31,14,21,,,,,,,1.77,1.52,0.91*05

$GPRMC,163611.000,A,0010.8390,S,07828.8092,W,2.82,214.53,220217,,,D*6E

$GPRMC,163612.000,A,0010.8398,S,07828.8094,W,2.86,198.97,220217,,,D*68

$GPVTG,198.97,T,,M,2.86,N,5.30,K,D*3C

$GPGSV,3,2,11,25,34,055,29,21,29,168,33,14,19,339,20,29,09,120,*73

$GPGSV,3,3,11,27,05,229,,36,,,,32,,,20*46

$GPGSA,A,3,10,18,26,31,14,21,,,,,,,1.77,1.52,0.91*05

$GPRMC,163614.000,A,0010.8414,S,07828.8096,W,2.30,196.21,220217,,,D*61

$GPRMC,163615.000,A,0010.8422,S,07828.8094,W,0.78,213.06,220217,,,D*62

$GPVTG,213.06,T,,M,0.78,N,1.45,K,D*31

$GPVTG,255.12,T,,M,0.58,N,1.08,K,D*3D

$GPGGA,163617.000,0010.8427,S,07828.8097,W,2,06,1.52,2812.9,M,13.7,M,0000,0000*5A

$GPGGA,163618.000,0010.8433,S,07828.8098,W,2,06,1.52,2812.6,M,13.7,M,0000,0000*50

$GPGSA,A,3,10,18,26,31,14,21,,,,,,,1.77,1.52,0.91*05

$GPRMC,163618.000,A,0010.8433,S,07828.8098,W,1.76,207.55,220217,,,D*6F

$GPVTG,207.55,T,,M,1.76,N,3.26,K,D*3A

$GPVTG,197.02,T,,M,2.20,N,4.07,K,D*36

$GPGGA,163620.000,0010.8449,S,07828.8095,W,2,05,1.63,2811.6,M,13.7,M,0000,0000*59

$GPGGA,163621.000,0010.8457,S,07828.8096,W,2,06,1.52,2811.1,M,13.7,M,0000,0000*52

$GPGSA,A,3,10,18,26,31,14,21,,,,,,,1.77,1.52,0.91*05

$GPGSA,A,3,10,18,26,31,14,21,,,,,,,1.77,1.52,0.91*05

$GPRMC,163622.000,A,0010.8464,S,07828.8095,W,2.23,192.03,220217,,,D*66

$GPGSV,3,1,11,10,65,030,37,18,59,103,44,31,52,310,25,26,43,193,40*75

$GPGSV,3,2,11,25,34,055,27,21,29,168,34,14,19,339,17,29,09,120,*7E

$GPGGA,163624.000,0010.8480,S,07828.8094,W,2,06,1.52,2810.4,M,13.7,M,0000,0000*5B

$GPGSA,A,3,10,18,26,31,14,21,,,,,,,1.77,1.52,0.91*05

$GPGSA,A,3,10,18,26,31,14,21,,,,,,,1.77,1.52,0.91*05

$GPRMC,163625.000,A,0010.8490,S,07828.8093,W,2.38,194.14,220217,,,D*66

$GPRMC,163626.000,A,0010.8498,S,07828.8092,W,2.53,188.73,220217,,,D*6D

$GPVTG,188.73,T,,M,2.53,N,4.69,K,D*32

$GPVTG,188.25,T,,M,2.69,N,4.99,K,D*37

$GPGGA,163628.000,0010.8517,S,07828.8090,W,2,05,1.64,2808.3,M,13.7,M,0000,0000*54

$GPGSV,3,3,11,27,05,229,,43,,,,32,,,17*40

$GPRMC,163628.000,A,0010.8517,S,07828.8090,W,2.89,190.08,220217,,,D*65

$GPRMC,163629.000,A,0010.8527,S,07828.8088,W,2.67,193.63,220217,,,D*60

$GPVTG,193.63,T,,M,2.67,N,4.94,K,D*3C

$GPVTG,189.51,T,,M,2.72,N,5.03,K,D*3D

$GPGGA,163631.000,0010.8544,S,07828.8086,W,2,06,1.52,2807.8,M,13.7,M,0000,0000*5F

$GPGGA,163632.000,0010.8552,S,07828.8085,W,2,06,1.52,2807.6,M,13.7,M,0000,0000*56

$GPGSA,A,3,10,18,26,31,14,21,,,,,,,1.77,1.52,0.91*05

$GPGSA,A,3,10,18,26,31,14,21,,,,,,,1.77,1.52,0.91*05

$GPGSV,3,1,11,10,65,031,40,18,59,103,27,31,52,310,27,26,43,193,41*72

$GPVTG,182.42,T,,M,2.44,N,4.52,K,D*34

$GPGGA,163634.000,0010.8567,S,07828.8083,W,2,06,1.52,2807.0,M,13.7,M,0000,0000*56

$GPGGA,163635.000,0010.8573,S,07828.8082,W,2,06,1.52,2806.6,M,13.7,M,0000,0000*54

$GPGSA,A,3,10,18,26,31,14,21,,,,,,,1.77,1.52,0.91*05

$GPGSA,A,3,10,18,26,31,14,21,,,,,,,1.77,1.52,0.91*05

$GPRMC,163636.000,A,0010.8580,S,07828.8082,W,2.21,188.24,220217,,,D*62

$GPRMC,163637.000,A,0010.8587,S,07828.8082,W,2.33,193.13,220217,,,D*69

$GPVTG,193.13,T,,M,2.33,N,4.31,K,D*35

$GPGSV,3,2,11,25,34,055,30,21,29,168,39,14,19,340,17,29,09,120,*7B

$GPGSV,3,3,11,27,05,229,,45,,,,32,,,17*46

$GPGSA,A,3,10,18,26,31,14,21,,,,,,,1.77,1.52,0.91*05

$GPRMC,163639.000,A,0010.8599,S,07828.8085,W,2.45,196.86,220217,,,D*67

$GPRMC,163640.000,A,0010.8607,S,07828.8087,W,2.61,206.48,220217,,,D*61

$GPVTG,206.48,T,,M,2.61,N,4.84,K,D*3D

$GPVTG,216.54,T,,M,2.69,N,4.98,K,D*34

$GPGGA,163642.000,0010.8620,S,07828.8092,W,2,06,1.52,2805.2,M,13.7,M,0000,0000*57

$GPGGA,163643.000,0010.8626,S,07828.8096,W,2,05,1.64,2804.9,M,13.7,M,0000,0000*58

$GPGSA,A,3,10,18,26,31,21,,,,,,,,1.91,1.64,0.99*05

$GPRMC,163643.000,A,0010.8626,S,07828.8096,W,2.59,203.42,220217,,,D*65

$GPVTG,203.42,T,,M,2.59,N,4.79,K,D*3B

$GPVTG,186.87,T,,M,2.26,N,4.18,K,D*33

$GPGGA,163645.000,0010.8639,S,07828.8100,W,2,06,1.52,2804.4,M,13.7,M,0000,0000*55

$GPGGA,163646.000,0010.8645,S,07828.8104,W,2,06,1.52,2804.2,M,13.7,M,0000,0000*5F

$GPGSA,A,3,10,18,26,31,14,21,,,,,,,1.77,1.52,0.91*05

$GPGSA,A,3,10,18,26,31,14,21,,,,,,,1.77,1.52,0.91*05

$GPRMC,163647.000,A,0010.8651,S,07828.8106,W,2.31,189.31,220217,,,D*62

$GPGSV,3,1,11,10,65,031,38,18,59,103,39,31,52,310,31,26,44,193,41*72

$GPGSV,3,2,11,25,34,055,24,21,28,168,39,14,19,340,19,29,09,120,*71

$GPGGA,163649.000,0010.8664,S,07828.8111,W,2,06,1.52,2803.1,M,13.7,M,0000,0000*53

$GPGSA,A,3,10,18,26,31,14,21,,,,,,,1.77,1.52,0.91*05

$GPGSA,A,3,10,18,26,31,14,21,,,,,,,1.77,1.52,0.91*05

$GPRMC,163650.000,A,0010.8671,S,07828.8111,W,2.26,184.47,220217,,,D*6A

$GPRMC,163651.000,A,0010.8678,S,07828.8110,W,2.58,174.99,220217,,,D*66

$GPVTG,174.99,T,,M,2.58,N,4.78,K,D*3E

$GPVTG,173.28,T,,M,2.73,N,5.05,K,D*31

$GPGGA,163653.000,0010.8691,S,07828.8112,W,2,06,1.52,2801.8,M,13.7,M,0000,0000*5A

$GPGSV,3,3,11,27,05,228,,47,,,,32,,,19*4B

$GPRMC,163653.000,A,0010.8691,S,07828.8112,W,2.49,210.05,220217,,,D*65

$GPRMC,163654.000,A,0010.8697,S,07828.8114,W,2.07,190.41,220217,,,D*63

$GPVTG,190.41,T,,M,2.07,N,3.83,K,D*38

$GPVTG,170.40,T,,M,2.40,N,4.45,K,D*39

$GPGGA,163656.000,0010.8711,S,07828.8110,W,2,06,1.52,2800.6,M,13.7,M,0000,0000*5B

$GPGGA,163657.000,0010.8717,S,07828.8105,W,2,06,1.52,2800.3,M,13.7,M,0000,0000*5D

$GPGSA,A,3,10,18,26,31,14,21,,,,,,,1.77,1.52,0.91*05

$GPGSA,A,3,10,18,26,31,14,21,,,,,,,1.77,1.52,0.91*05

$GPGSV,3,1,11,10,65,031,41,18,59,103,41,31,52,310,33,26,44,193,40*70

$GPVTG,119.80,T,,M,2.98,N,5.52,K,D*38

$GPGGA,163659.000,0010.8726,S,07828.8091,W,2,06,1.52,2799.7,M,13.7,M,0000,0000*56

$GPGGA,163700.000,0010.8729,S,07828.8084,W,2,06,1.52,2799.3,M,13.7,M,0000,0000*54

$GPGSA,A,3,10,18,26,31,14,21,,,,,,,1.77,1.52,0.91*05

$GPGSA,A,3,10,18,26,31,14,21,,,,,,,1.77,1.52,0.91*05

$GPRMC,163701.000,A,0010.8733,S,07828.8078,W,2.18,116.68,220217,,,D*6D

$GPRMC,163702.000,A,0010.8735,S,07828.8074,W,1.85,108.41,220217,,,D*67

$GPVTG,108.41,T,,M,1.85,N,3.43,K,D*3C

$GPGSV,3,2,11,25,34,055,30,21,28,168,38,14,19,340,18,29,09,119,*7E

$GPGSV,3,3,11,27,05,228,,49,,,,32,,,24*4B

$GPGSA,A,3,10,18,26,31,14,21,,,,,,,1.77,1.53,0.91*04

$GPRMC,163704.000,A,0010.8740,S,07828.8071,W,1.30,149.05,220217,,,D*6D

$GPRMC,163705.000,A,0010.8744,S,07828.8072,W,1.35,171.32,220217,,,D*61

$GPVTG,171.32,T,,M,1.35,N,2.50,K,D*3E

$GPVTG,172.42,T,,M,1.39,N,2.58,K,D*3E

$GPGGA,163707.000,0010.8753,S,07828.8069,W,2,06,1.53,2797.0,M,13.7,M,0000,0000*51

$GPGGA,163708.000,0010.8759,S,07828.8067,W,2,06,1.53,2796.5,M,13.7,M,0000,0000*5E

$GPGSA,A,3,10,18,26,31,14,21,,,,,,,1.77,1.53,0.90*05

$GPRMC,163708.000,A,0010.8759,S,07828.8067,W,2.16,171.51,220217,,,D*63

$GPVTG,171.51,T,,M,2.16,N,4.01,K,D*3B

$GPVTG,195.08,T,,M,2.11,N,3.91,K,D*34

$GPGGA,163710.000,0010.8770,S,07828.8076,W,2,06,1.53,2795.7,M,13.7,M,0000,0000*5D

$GPGGA,163711.000,0010.8778,S,07828.8074,W,2,06,1.53,2795.4,M,13.7,M,0000,0000*55

$GPGSA,A,3,10,18,26,31,14,21,,,,,,,1.77,1.53,0.91*04

$GPGSA,A,3,10,18,26,31,14,21,,,,,,,1.78,1.53,0.90*0A

$GPRMC,163712.000,A,0010.8785,S,07828.8076,W,2.45,181.10,220217,,,D*65

$GPGSV,3,1,11,10,66,031,42,18,59,103,32,51,56,270,42,31,52,310,37*7F

$GPGSV,3,2,11,26,44,193,42,25,34,055,25,21,28,168,28,32,23,005,36*7A

$GPGGA,163714.000,0010.8797,S,07828.8074,W,2,06,1.53,2794.4,M,13.7,M,0000,0000*50

$GPGSA,A,3,10,18,26,31,14,21,,,,,,,1.77,1.53,0.90*05

$GPGSA,A,3,10,18,26,31,14,21,,,,,,,1.77,1.53,0.90*05

$GPRMC,163715.000,A,0010.8803,S,07828.8074,W,2.16,173.50,220217,,,D*6E

$GPRMC,163716.000,A,0010.8808,S,07828.8072,W,2.51,149.30,220217,,,D*6C

$GPVTG,149.30,T,,M,2.51,N,4.66,K,D*35

$GPVTG,145.17,T,,M,3.10,N,5.74,K,D*3A

$GPGGA,163718.000,0010.8822,S,07828.8066,W,2,06,1.53,2793.3,M,13.7,M,0000,0000*5E

$GPGSV,3,3,11,14,19,340,17,29,09,119,,27,05,228,*46

$GPRMC,163718.000,A,0010.8822,S,07828.8066,W,2.43,177.00,220217,,,D*62

$GPRMC,163719.000,A,0010.8829,S,07828.8067,W,2.36,175.08,220217,,,D*61

$GPVTG,175.08,T,,M,2.36,N,4.38,K,D*3B

$GPVTG,161.72,T,,M,2.20,N,4.07,K,D*38

$GPGGA,163721.000,0010.8842,S,07828.8068,W,2,06,1.53,2792.5,M,13.7,M,0000,0000*5B

$GPGGA,163722.000,0010.8849,S,07828.8071,W,2,06,1.53,2792.2,M,13.7,M,0000,0000*5C

$GPGSA,A,3,10,18,26,31,14,21,,,,,,,1.78,1.53,0.90*0A

$GPGSA,A,3,10,18,26,31,14,21,,,,,,,1.78,1.53,0.90*0A

$GPGSV,3,1,11,10,66,031,26,18,59,104,19,51,56,270,39,31,52,310,42*7D

$GPVTG,187.53,T,,M,2.31,N,4.28,K,D*3E

$GPGGA,163724.000,0010.8862,S,07828.8073,W,2,06,1.53,2791.6,M,13.7,M,0000,0000*56

$GPGGA,163725.000,0010.8870,S,07828.8072,W,2,06,1.53,2791.3,M,13.7,M,0000,0000*50

$GPGSA,A,3,10,18,26,31,14,21,,,,,,,1.78,1.53,0.90*0A

$GPGSA,A,3,10,18,26,31,14,21,,,,,,,1.78,1.53,0.90*0A

$GPRMC,163726.000,A,0010.8877,S,07828.8076,W,2.38,202.37,220217,,,D*67

$GPRMC,163727.000,A,0010.8884,S,07828.8080,W,2.48,189.68,220217,,,D*6E

$GPVTG,189.68,T,,M,2.48,N,4.60,K,D*3A

$GPGSV,3,2,11,26,44,193,42,25,34,055,20,21,28,168,38,32,23,005,27*7E

$GPGSV,3,3,11,14,19,340,19,29,09,119,,27,05,228,*48

$GPGSA,A,3,10,18,26,31,14,21,,,,,,,1.78,1.53,0.90*0A

$GPRMC,163729.000,A,0010.8900,S,07828.8087,W,2.45,188.00,220217,,,D*68

$GPRMC,163730.000,A,0010.8907,S,07828.8088,W,2.31,175.22,220217,,,D*69

$GPVTG,175.22,T,,M,2.31,N,4.28,K,D*35

$GPVTG,187.62,T,,M,2.18,N,4.05,K,D*38

$GPGGA,163732.000,0010.8920,S,07828.8090,W,2,06,1.53,2788.3,M,13.7,M,0000,0000*56

$GPGGA,163733.000,0010.8927,S,07828.8090,W,2,06,1.53,2787.8,M,13.7,M,0000,0000*54

$GPGSA,A,3,10,18,26,31,14,21,,,,,,,1.78,1.53,0.90*0A

$GPRMC,163733.000,A,0010.8927,S,07828.8090,W,2.44,188.21,220217,,,D*62

$GPVTG,188.21,T,,M,2.44,N,4.53,K,D*3A

$GPVTG,191.84,T,,M,2.34,N,4.34,K,D*3B

$GPGGA,163735.000,0010.8940,S,07828.8090,W,2,06,1.53,2786.9,M,13.7,M,0000,0000*53

$GPGGA,163736.000,0010.8946,S,07828.8089,W,2,06,1.53,2786.5,M,13.7,M,0000,0000*52

$GPGSA,A,3,10,18,26,31,14,21,,,,,,,1.78,1.53,0.90*0A

$GPGSA,A,3,10,18,26,31,14,21,,,,,,,1.78,1.53,0.90*0A

$GPRMC,163737.000,A,0010.8953,S,07828.8085,W,2.55,171.78,220217,,,D*6B

$GPGSV,3,1,11,10,66,031,25,18,59,104,39,51,56,270,36,31,52,311,32*75

$GPGSV,3,2,11,26,44,193,40,25,34,055,24,21,28,168,39,32,23,005,24*7A

$GPGGA,163739.000,0010.8964,S,07828.8078,W,2,06,1.53,2785.7,M,13.7,M,0000,0000*52

$GPGSA,A,3,10,18,26,31,14,21,,,,,,,1.78,1.53,0.90*0A

$GPGSA,A,3,10,18,26,31,14,21,,,,,,,1.78,1.53,0.90*0A

$GPRMC,163740.000,A,0010.8970,S,07828.8072,W,2.39,143.91,220217,,,D*6E

$GPRMC,163741.000,A,0010.8975,S,07828.8065,W,2.73,124.56,220217,,,D*68

$GPVTG,124.56,T,,M,2.73,N,5.06,K,D*39

$GPVTG,116.73,T,,M,2.92,N,5.41,K,D*33

$GPGGA,163743.000,0010.8981,S,07828.8048,W,2,06,1.53,2784.9,M,13.7,M,0000,0000*58

$GPGSV,3,3,11,14,19,340,15,29,09,119,,27,05,228,*44

$GPRMC,163743.000,A,0010.8981,S,07828.8048,W,2.68,107.37,220217,,,D*62

$GPRMC,163744.000,A,0010.8983,S,07828.8040,W,2.89,105.08,220217,,,D*6E

$GPVTG,105.08,T,,M,2.89,N,5.36,K,D*37

$GPVTG,102.14,T,,M,2.90,N,5.38,K,D*3B

$GPGGA,163746.000,0010.8986,S,07828.8022,W,2,06,1.53,2784.4,M,13.7,M,0000,0000*5B

$GPGGA,163747.000,0010.8987,S,07828.8013,W,2,06,1.53,2784.3,M,13.7,M,0000,0000*5E

$GPGSA,A,3,10,18,26,31,14,21,,,,,,,1.78,1.53,0.90*0A

$GPGSA,A,3,10,18,26,31,14,21,,,,,,,1.78,1.53,0.90*0A

$GPGSV,3,1,11,10,66,032,23,18,59,104,41,51,56,270,30,31,52,311,36*7D

$GPVTG,98.60,T,,M,2.63,N,4.87,K,D*03

$GPGGA,163749.000,0010.8987,S,07828.7997,W,2,05,1.64,2784.0,M,13.7,M,0000,0000*5E

$GPGGA,163750.000,0010.8989,S,07828.7990,W,2,05,1.65,2783.8,M,13.7,M,0000,0000*51

$GPGSA,A,3,10,18,26,31,21,,,,,,,,1.92,1.65,0.99*07

$GPGSA,A,3,10,18,26,31,21,,,,,,,,1.92,1.65,0.99*07

$GPRMC,163751.000,A,0010.8994,S,07828.7985,W,2.13,113.68,220217,,,D*61

$GPRMC,163752.000,A,0010.8996,S,07828.7978,W,2.64,105.82,220217,,,D*61

$GPVTG,105.82,T,,M,2.64,N,4.90,K,D*3B

$GPGSV,3,2,11,26,44,193,39,25,34,055,16,21,28,168,32,32,23,005,15*7C

$GPGSV,3,3,11,14,19,340,,29,09,119,,27,05,228,*40

$GPGSA,A,3,10,18,26,31,21,,,,,,,,1.92,1.65,0.99*07

$GPRMC,163754.000,A,0010.9000,S,07828.7961,W,2.87,107.65,220217,,,D*6E

$GPRMC,163755.000,A,0010.9002,S,07828.7952,W,2.90,96.32,220217,,,D*50

$GPVTG,96.32,T,,M,2.90,N,5.37,K,D*0C

$GPVTG,97.59,T,,M,3.47,N,6.43,K,D*0B

$GPGGA,163757.000,0010.9005,S,07828.7932,W,2,05,1.65,2782.4,M,13.7,M,0000,0000*5F

$GPGGA,163758.000,0010.9004,S,07828.7922,W,2,05,1.65,2782.2,M,13.7,M,0000,0000*56

$GPGSA,A,3,10,18,26,31,21,,,,,,,,1.92,1.65,0.99*07

$GPRMC,163758.000,A,0010.9004,S,07828.7922,W,3.71,95.23,220217,,,D*51

$GPVTG,95.23,T,,M,3.71,N,6.88,K,D*06

$GPVTG,75.42,T,,M,2.44,N,4.52,K,D*0D

$GPGGA,163800.000,0010.9001,S,07828.7908,W,2,05,1.65,2781.9,M,13.7,M,0000,0000*51

$GPGGA,163801.000,0010.9000,S,07828.7902,W,2,05,1.65,2781.7,M,13.7,M,0000,0000*55

$GPGSA,A,3,10,18,26,31,21,,,,,,,,1.92,1.65,0.99*07

$GPGSA,A,3,10,18,26,31,21,,,,,,,,1.92,1.65,0.99*07

$GPRMC,163802.000,A,0010.9002,S,07828.7892,W,1.95,47.74,220217,,,D*58

$GPGSV,3,1,11,10,66,032,37,18,59,104,43,51,56,270,37,31,52,311,32*79

$GPGSV,3,2,11,26,44,193,40,25,34,055,23,21,28,168,42,32,23,005,*77

$GPGGA,163804.000,0010.9012,S,07828.7880,W,2,05,1.65,2781.0,M,13.7,M,0000,0000*5F

$GPGSA,A,3,10,18,26,31,21,,,,,,,,1.92,1.65,0.99*07

$GPGSA,A,3,10,18,26,31,21,,,,,,,,1.92,1.65,0.99*07

$GPRMC,163805.000,A,0010.9021,S,07828.7870,W,1.41,110.47,220217,,,D*68

$GPRMC,163806.000,A,0010.9025,S,07828.7863,W,1.61,112.46,220217,,,D*6C

$GPVTG,112.46,T,,M,1.61,N,2.98,K,D*3D

$GPVTG,98.64,T,,M,1.80,N,3.34,K,D*06

$GPGGA,163808.000,0010.9032,S,07828.7843,W,2,05,1.65,2780.4,M,13.7,M,0000,0000*5B

$GPGSV,3,3,11,14,19,340,,29,09,119,,27,05,228,*40

$GPRMC,163808.000,A,0010.9032,S,07828.7843,W,1.80,93.48,220217,,,D*5F

$GPRMC,163809.000,A,0010.9034,S,07828.7836,W,1.87,94.49,220217,,,D*5B

$GPVTG,94.49,T,,M,1.87,N,3.46,K,D*07

$GPVTG,95.46,T,,M,2.07,N,3.84,K,D*0C

$GPGGA,163811.000,0010.9038,S,07828.7818,W,2,06,1.54,2780.3,M,13.7,M,0000,0000*51

$GPGGA,163812.000,0010.9040,S,07828.7810,W,2,06,1.54,2780.3,M,13.7,M,0000,0000*55

$GPGSA,A,3,10,18,26,31,14,21,,,,,,,1.78,1.54,0.90*0D

$GPGSA,A,3,10,18,26,31,14,21,,,,,,,1.78,1.54,0.90*0D

$GPGSV,3,1,11,10,66,032,46,18,59,104,40,51,56,270,33,31,52,311,27*7C

$GPVTG,99.76,T,,M,1.93,N,3.57,K,D*03

$GPGGA,163814.000,0010.9043,S,07828.7796,W,2,06,1.54,2780.1,M,13.7,M,0000,0000*53

$GPGGA,163815.000,0010.9045,S,07828.7791,W,2,06,1.53,2780.0,M,13.7,M,0000,0000*55

$GPGSA,A,3,10,18,26,31,14,21,,,,,,,1.78,1.53,0.90*0A

$GPGSA,A,3,10,18,26,31,14,21,,,,,,,1.78,1.54,0.90*0D

$GPRMC,163816.000,A,0010.9045,S,07828.7785,W,1.42,91.13,220217,,,D*57

$GPRMC,163817.000,A,0010.9045,S,07828.7779,W,1.64,82.76,220217,,,D*50

$GPVTG,82.76,T,,M,1.64,N,3.04,K,D*07

$GPGSV,3,2,11,26,44,193,40,25,34,055,17,21,28,168,40,32,23,006,*71

$GPGSV,3,3,11,14,19,340,14,29,09,119,,27,05,228,*45

$GPGSA,A,3,10,18,26,31,14,21,,,,,,,1.78,1.54,0.90*0D

$GPRMC,163819.000,A,0010.9042,S,07828.7768,W,1.68,74.03,220217,,,D*5E

$GPRMC,163820.000,A,0010.9042,S,07828.7760,W,1.97,82.33,220217,,,D*56

$GPVTG,82.33,T,,M,1.97,N,3.66,K,D*0E

$GPVTG,81.79,T,,M,2.18,N,4.04,K,D*04

$GPGGA,163822.000,0010.9042,S,07828.7743,W,2,06,1.54,2779.2,M,13.7,M,0000,0000*5A

$GPGGA,163823.000,0010.9041,S,07828.7735,W,2,06,1.54,2779.0,M,13.7,M,0000,0000*5B

$GPGSA,A,3,10,18,26,31,14,21,,,,,,,1.78,1.54,0.90*0D

$GPRMC,163823.000,A,0010.9041,S,07828.7735,W,2.09,83.25,220217,,,D*54

$GPVTG,83.25,T,,M,2.09,N,3.87,K,D*03

$GPVTG,99.48,T,,M,2.46,N,4.56,K,D*03

$GPGGA,163825.000,0010.9043,S,07828.7720,W,2,06,1.54,2778.5,M,13.7,M,0000,0000*5F

$GPGGA,163826.000,0010.9044,S,07828.7713,W,2,06,1.54,2778.3,M,13.7,M,0000,0000*5D

$GPGSA,A,3,10,18,26,31,14,21,,,,,,,1.78,1.54,0.90*0D

$GPGSA,A,3,10,18,26,31,14,21,,,,,,,1.78,1.54,0.90*0D

$GPRMC,163827.000,A,0010.9044,S,07828.7706,W,2.04,90.33,220217,,,D*5D

$GPGSV,3,1,12,10,66,032,31,18,59,105,40,51,56,270,33,31,52,311,21*78

$GPGSV,3,2,12,26,44,193,40,25,34,055,15,21,28,168,38,32,23,006,30*7C

$GPGGA,163829.000,0010.9048,S,07828.7691,W,2,05,1.65,2777.7,M,13.7,M,0000,0000*5F

$GPGSA,A,3,10,18,26,31,21,,,,,,,,1.92,1.65,0.98*06

$GPGSA,A,3,10,18,26,21,,,,,,,,,2.89,2.72,0.99*09

$GPRMC,163830.000,A,0010.9051,S,07828.7682,W,3.34,107.98,220217,,,D*6E

$GPRMC,163831.000,A,0010.9054,S,07828.7672,W,3.61,102.36,220217,,,D*64

$GPVTG,102.36,T,,M,3.61,N,6.70,K,D*3B

$GPVTG,102.09,T,,M,3.26,N,6.05,K,D*36

$GPGGA,163833.000,0010.9060,S,07828.7653,W,2,05,1.65,2777.1,M,13.7,M,0000,0000*56

$GPGSV,3,3,12,14,19,340,,29,09,119,24,27,05,228,,16,,,36*47

$GPRMC,163833.000,A,0010.9060,S,07828.7653,W,3.10,101.49,220217,,,D*6F

$GPRMC,163834.000,A,0010.9059,S,07828.7647,W,2.16,85.19,220217,,,D*58

$GPVTG,85.19,T,,M,2.16,N,4.01,K,D*0D

$GPVTG,96.58,T,,M,2.61,N,4.83,K,D*00

$GPGGA,163836.000,0010.9064,S,07828.7632,W,2,05,1.65,2777.0,M,13.7,M,0000,0000*51

$GPGGA,163837.000,0010.9069,S,07828.7624,W,2,04,2.72,2777.0,M,13.7,M,0000,0000*5E

$GPGSA,A,3,10,18,26,21,,,,,,,,,2.89,2.72,0.99*09

$GPGSA,A,3,10,18,26,21,,,,,,,,,2.89,2.71,0.99*0A

$GPGSV,3,1,12,10,66,032,44,18,59,105,41,51,56,270,31,31,52,311,18*73

$GPVTG,136.57,T,,M,2.42,N,4.48,K,D*32

$GPGGA,163839.000,0010.9080,S,07828.7613,W,2,05,1.65,2777.3,M,13.7,M,0000,0000*54

$GPGGA,163840.000,0010.9087,S,07828.7607,W,2,04,2.71,2777.4,M,13.7,M,0000,0000*58

$GPGSA,A,3,10,18,26,21,,,,,,,,,2.89,2.71,0.99*0A

$GPGSA,A,3,10,18,26,31,21,,,,,,,,1.92,1.65,0.98*06

$GPRMC,163841.000,A,0010.9093,S,07828.7602,W,2.98,146.14,220217,,,D*68

$GPRMC,163842.000,A,0010.9100,S,07828.7599,W,2.24,158.72,220217,,,D*69

$GPVTG,158.72,T,,M,2.24,N,4.16,K,D*36

$GPGSV,3,2,12,26,44,193,40,25,34,054,15,21,28,168,36,32,23,006,25*77

$GPGSV,3,3,12,14,19,340,,29,09,118,24,27,05,228,,16,,,29*48

$GPGSA,A,3,10,18,26,31,21,,,,,,,,1.92,1.65,0.98*06

$GPRMC,163844.000,A,0010.9112,S,07828.7600,W,2.90,202.42,220217,,,D*6F

$GPRMC,163845.000,A,0010.9121,S,07828.7598,W,3.39,172.63,220217,,,D*69

$GPVTG,172.63,T,,M,3.39,N,6.28,K,D*3C

$GPVTG,145.76,T,,M,2.76,N,5.11,K,D*3F

$GPGGA,163847.000,0010.9136,S,07828.7587,W,2,05,1.65,2777.4,M,13.7,M,0000,0000*58

$GPGGA,163848.000,0010.9141,S,07828.7583,W,2,05,1.65,2777.4,M,13.7,M,0000,0000*53

$GPGSA,A,3,10,18,26,31,21,,,,,,,,1.93,1.65,0.98*07

$GPRMC,163848.000,A,0010.9141,S,07828.7583,W,2.49,152.87,220217,,,D*66

$GPVTG,152.87,T,,M,2.49,N,4.62,K,D*3E

$GPVTG,151.24,T,,M,3.07,N,5.70,K,D*3D

$GPGGA,163850.000,0010.9155,S,07828.7576,W,2,05,1.65,2777.1,M,13.7,M,0000,0000*50

$GPGGA,163851.000,0010.9161,S,07828.7576,W,2,05,1.65,2776.9,M,13.7,M,0000,0000*5F

$GPGSA,A,3,10,18,26,31,21,,,,,,,,1.92,1.65,0.98*06

$GPGSA,A,3,10,18,26,31,21,,,,,,,,1.92,1.65,0.98*06

$GPRMC,163852.000,A,0010.9168,S,07828.7577,W,2.70,182.65,220217,,,D*66

$GPGSV,3,1,12,10,66,032,38,18,59,105,40,51,56,270,38,31,51,312,40*7D

$GPGSV,3,2,12,26,44,193,38,25,34,054,17,21,28,168,36,32,23,006,19*75

$GPGGA,163854.000,0010.9181,S,07828.7576,W,2,05,1.65,2776.6,M,13.7,M,0000,0000*5B

$GPGSA,A,3,10,18,26,31,21,,,,,,,,1.92,1.65,0.98*06

$GPGSA,A,3,10,18,26,31,21,,,,,,,,1.93,1.66,0.98*04

$GPRMC,163855.000,A,0010.9188,S,07828.7574,W,2.94,161.96,220217,,,D*67

$GPRMC,163856.000,A,0010.9195,S,07828.7571,W,2.74,154.51,220217,,,D*6E

$GPVTG,154.51,T,,M,2.74,N,5.07,K,D*3F

$GPVTG,150.45,T,,M,2.56,N,4.74,K,D*3B

$GPGGA,163858.000,0010.9207,S,07828.7564,W,2,05,1.66,2776.2,M,13.7,M,0000,0000*5E

$GPGSV,3,3,12,14,19,340,,29,09,118,17,27,05,228,,16,,,23*42

$GPRMC,163858.000,A,0010.9207,S,07828.7564,W,2.19,140.02,220217,,,D*64

$GPRMC,163859.000,A,0010.9211,S,07828.7561,W,1.15,133.09,220217,,,D*67

$GPVTG,133.09,T,,M,1.15,N,2.13,K,D*35

$GPVTG,97.00,T,,M,2.50,N,4.63,K,D*00

$GPGGA,163901.000,0010.9211,S,07828.7544,W,2,05,1.66,2776.0,M,13.7,M,0000,0000*54

$GPGGA,163902.000,0010.9210,S,07828.7535,W,2,05,1.66,2775.6,M,13.7,M,0000,0000*55

$GPGSA,A,3,10,18,26,31,21,,,,,,,,1.93,1.66,0.98*04

$GPGSA,A,3,10,18,26,31,21,,,,,,,,1.93,1.66,0.98*04

$GPGSV,3,1,12,10,66,033,42,18,59,105,42,51,56,270,32,31,51,312,32*7C

$GPVTG,97.65,T,,M,3.11,N,5.77,K,D*03

$GPGGA,163904.000,0010.9214,S,07828.7515,W,2,06,1.54,2774.5,M,13.7,M,0000,0000*55

$GPGGA,163905.000,0010.9215,S,07828.7504,W,2,06,1.55,2773.8,M,13.7,M,0000,0000*5E

$GPGSA,A,3,10,18,26,31,14,21,,,,,,,1.79,1.55,0.90*0D

$GPGSA,A,3,10,18,26,31,14,21,,,,,,,1.79,1.54,0.90*0C

$GPRMC,163906.000,A,0010.9216,S,07828.7496,W,2.69,97.17,220217,,,D*5A

$GPRMC,163907.000,A,0010.9216,S,07828.7488,W,2.25,98.51,220217,,,D*51

$GPVTG,98.51,T,,M,2.25,N,4.17,K,D*0A

$GPGSV,3,2,12,26,44,193,36,25,34,054,33,21,28,167,35,32,23,006,15*7D

$GPGSV,3,3,12,14,19,341,17,29,09,118,17,27,05,228,,16,,,27*41

$GPGSA,A,3,10,18,26,31,14,21,,,,,,,1.79,1.54,0.90*0C

$GPRMC,163909.000,A,0010.9217,S,07828.7473,W,2.56,94.22,220217,,,D*56

$GPRMC,163910.000,A,0010.9218,S,07828.7465,W,2.99,94.91,220217,,,D*5D

$GPVTG,94.91,T,,M,2.99,N,5.54,K,D*0B

$GPVTG,94.41,T,,M,3.09,N,5.72,K,D*0A

$GPGGA,163912.000,0010.9220,S,07828.7448,W,2,06,1.54,2772.8,M,13.7,M,0000,0000*57

$GPGGA,163913.000,0010.9222,S,07828.7441,W,2,06,1.55,2772.8,M,13.7,M,0000,0000*5C

$GPGSA,A,3,10,18,26,31,14,21,,,,,,,1.79,1.55,0.90*0D

$GPRMC,163913.000,A,0010.9222,S,07828.7441,W,2.76,102.65,220217,,,D*65

$GPVTG,102.65,T,,M,2.76,N,5.12,K,D*3D

$GPVTG,102.52,T,,M,2.93,N,5.43,K,D*36

$GPGGA,163915.000,0010.9227,S,07828.7427,W,2,06,1.55,2772.8,M,13.7,M,0000,0000*5F

$GPGGA,163916.000,0010.9230,S,07828.7419,W,2,06,1.55,2772.9,M,13.7,M,0000,0000*56

$GPGSA,A,3,10,18,26,31,14,21,,,,,,,1.79,1.55,0.90*0D

$GPGSA,A,3,10,18,26,31,14,21,,,,,,,1.79,1.55,0.90*0D

$GPRMC,163917.000,A,0010.9233,S,07828.7412,W,2.38,112.51,220217,,,D*6B

$GPGSV,3,1,12,10,66,033,44,18,59,105,43,51,56,270,33,31,51,312,37*7F

$GPGSV,3,2,12,26,45,192,37,25,34,054,44,21,28,167,31,32,23,006,14*79

$GPGGA,163919.000,0010.9240,S,07828.7397,W,2,06,1.55,2772.7,M,13.7,M,0000,0000*51

$GPGSA,A,3,10,18,26,31,14,21,,,,,,,1.79,1.55,0.90*0D

$GPGSA,A,3,10,18,26,31,14,21,,,,,,,1.79,1.55,0.90*0D

$GPRMC,163920.000,A,0010.9243,S,07828.7391,W,2.68,103.16,220217,,,D*62

$GPRMC,163921.000,A,0010.9244,S,07828.7383,W,2.93,90.56,220217,,,D*5C

$GPVTG,90.56,T,,M,2.93,N,5.43,K,D*08

$GPVTG,120.83,T,,M,2.52,N,4.67,K,D*30

$GPGGA,163923.000,0010.9250,S,07828.7369,W,2,06,1.55,2772.1,M,13.7,M,0000,0000*5E

$GPGSV,3,3,12,14,19,341,18,29,09,118,16,27,05,227,17,16,,,23*42

$GPRMC,163923.000,A,0010.9250,S,07828.7369,W,2.62,106.87,220217,,,D*63

$GPRMC,163924.000,A,0010.9252,S,07828.7361,W,3.25,108.92,220217,,,D*66

$GPVTG,108.92,T,,M,3.25,N,6.02,K,D*3A

$GPVTG,115.46,T,,M,3.31,N,6.13,K,D*3A

$GPGGA,163926.000,0010.9261,S,07828.7345,W,2,06,1.55,2771.8,M,13.7,M,0000,0000*5D

$GPGGA,163927.000,0010.9267,S,07828.7338,W,2,06,1.55,2771.7,M,13.7,M,0000,0000*5F

$GPGSA,A,3,10,18,26,31,14,21,,,,,,,1.79,1.55,0.90*0D

$GPGSA,A,3,10,18,26,31,14,21,,,,,,,1.79,1.55,0.90*0D

$GPGSV,3,1,12,10,66,033,45,18,59,105,40,51,56,270,32,31,51,312,35*7E

$GPVTG,117.56,T,,M,2.91,N,5.40,K,D*37

$GPGGA,163929.000,0010.9276,S,07828.7325,W,2,06,1.55,2771.7,M,13.7,M,0000,0000*5D

$GPGGA,163930.000,0010.9282,S,07828.7320,W,2,06,1.55,2771.7,M,13.7,M,0000,0000*5B

$GPGSA,A,3,10,18,26,31,14,21,,,,,,,1.79,1.55,0.90*0D

$GPGSA,A,3,10,18,26,31,14,21,,,,,,,1.79,1.55,0.90*0D

$GPRMC,163931.000,A,0010.9290,S,07828.7316,W,2.82,147.16,220217,,,D*67

$GPRMC,163932.000,A,0010.9297,S,07828.7312,W,2.67,139.92,220217,,,D*69

$GPVTG,139.92,T,,M,2.67,N,4.94,K,D*32

$GPGSV,3,2,12,26,45,192,36,25,34,054,41,21,28,167,35,32,23,006,18*75

$GPGSV,3,3,12,14,19,341,16,29,09,118,15,27,05,227,18,16,,,21*42

$GPGSA,A,3,10,18,26,31,14,21,,,,,,,1.79,1.55,0.90*0D

$GPRMC,163934.000,A,0010.9311,S,07828.7305,W,2.55,152.15,220217,,,D*65

$GPRMC,163935.000,A,0010.9318,S,07828.7303,W,2.83,159.12,220217,,,D*6C

$GPVTG,159.12,T,,M,2.83,N,5.24,K,D*3C

$GPVTG,159.15,T,,M,2.82,N,5.22,K,D*3C

$GPGGA,163937.000,0010.9334,S,07828.7299,W,2,06,1.55,2771.9,M,13.7,M,0000,0000*5D

$GPGGA,163938.000,0010.9342,S,07828.7299,W,2,06,1.55,2771.9,M,13.7,M,0000,0000*53

$GPGSA,A,3,10,18,26,31,14,21,,,,,,,1.79,1.55,0.90*0D

$GPRMC,163938.000,A,0010.9342,S,07828.7299,W,2.64,173.60,220217,,,D*68

$GPVTG,173.60,T,,M,2.64,N,4.90,K,D*36

$GPVTG,177.09,T,,M,2.56,N,4.74,K,D*36

$GPGGA,163940.000,0010.9357,S,07828.7300,W,2,06,1.55,2772.1,M,13.7,M,0000,0000*52

$GPGGA,163941.000,0010.9365,S,07828.7301,W,2,06,1.55,2772.3,M,13.7,M,0000,0000*51

$GPGSA,A,3,10,18,26,31,14,21,,,,,,,1.79,1.55,0.90*0D

$GPGSA,A,3,10,18,26,31,14,21,,,,,,,1.79,1.55,0.90*0D

$GPRMC,163942.000,A,0010.9373,S,07828.7302,W,2.77,186.82,220217,,,D*60

$GPGSV,3,1,12,10,67,033,40,18,58,106,42,51,56,270,29,31,51,312,39*7C

$GPGSV,3,2,12,26,45,192,39,25,34,054,39,21,27,167,41,32,23,006,22*70

$GPGGA,163944.000,0010.9389,S,07828.7305,W,2,06,1.55,2772.6,M,13.7,M,0000,0000*57

$GPGSA,A,3,10,18,26,31,14,21,,,,,,,1.79,1.55,0.90*0D

$GPGSA,A,3,10,18,26,31,14,21,,,,,,,1.79,1.55,0.90*0D

$GPRMC,163945.000,A,0010.9397,S,07828.7306,W,2.78,181.32,220217,,,D*6A

$GPRMC,163946.000,A,0010.9405,S,07828.7307,W,2.75,181.22,220217,,,D*68

$GPVTG,181.22,T,,M,2.75,N,5.10,K,D*34

$GPVTG,183.63,T,,M,2.76,N,5.12,K,D*32

$GPGGA,163948.000,0010.9421,S,07828.7309,W,2,06,1.55,2773.2,M,13.7,M,0000,0000*57

$GPGSV,3,3,12,14,19,341,15,29,09,118,15,27,05,227,17,16,,,23*4C

$GPRMC,163948.000,A,0010.9421,S,07828.7309,W,2.93,189.41,220217,,,D*6B

$GPRMC,163949.000,A,0010.9429,S,07828.7310,W,2.96,185.32,220217,,,D*67

$GPVTG,185.32,T,,M,2.96,N,5.48,K,D*31

$GPVTG,183.03,T,,M,2.66,N,4.93,K,D*3D

$GPGGA,163951.000,0010.9445,S,07828.7312,W,2,06,1.55,2773.4,M,13.7,M,0000,0000*51

$GPGGA,163952.000,0010.9453,S,07828.7313,W,2,06,1.55,2773.6,M,13.7,M,0000,0000*56

$GPGSA,A,3,10,18,26,31,14,21,,,,,,,1.80,1.55,0.90*0B

$GPGSA,A,3,10,18,26,31,14,21,,,,,,,1.79,1.55,0.90*0D

$GPGSV,3,1,12,10,67,033,36,18,58,106,39,51,56,270,39,31,51,312,36*7F

$GPVTG,186.58,T,,M,3.05,N,5.64,K,D*3B

$GPGGA,163954.000,0010.9469,S,07828.7315,W,2,06,1.55,2773.8,M,13.7,M,0000,0000*51

$GPGGA,163955.000,0010.9477,S,07828.7316,W,2,06,1.55,2773.9,M,13.7,M,0000,0000*5D

$GPGSA,A,3,10,18,26,31,14,21,,,,,,,1.80,1.55,0.90*0B

$GPGSA,A,3,10,18,26,31,14,21,,,,,,,1.79,1.55,0.90*0D

$GPRMC,163956.000,A,0010.9485,S,07828.7317,W,2.79,187.64,220217,,,D*68

$GPRMC,163957.000,A,0010.9493,S,07828.7318,W,2.90,191.38,220217,,,D*68

$GPVTG,191.38,T,,M,2.90,N,5.37,K,D*30

$GPGSV,3,2,12,26,45,192,41,25,33,054,41,21,27,167,40,32,23,006,21*75

$GPGSV,3,3,12,14,19,341,18,29,09,118,17,27,05,227,17,16,,,35*44

$GPGSA,A,3,10,18,26,31,14,21,,,,,,,1.79,1.55,0.90*0D

$GPRMC,163959.000,A,0010.9509,S,07828.7321,W,2.86,189.41,220217,,,D*6E

$GPRMC,164000.000,A,0010.9516,S,07828.7322,W,2.77,186.39,220217,,,D*6F

$GPVTG,186.39,T,,M,2.77,N,5.13,K,D*38

$GPVTG,186.97,T,,M,2.86,N,5.30,K,D*33

$GPGGA,164002.000,0010.9532,S,07828.7325,W,2,06,1.55,2774.4,M,13.7,M,0000,0000*5B

$GPGGA,164003.000,0010.9540,S,07828.7327,W,2,06,1.55,2774.5,M,13.7,M,0000,0000*5C

$GPGSA,A,3,10,18,26,31,14,21,,,,,,,1.79,1.55,0.90*0D

$GPRMC,164003.000,A,0010.9540,S,07828.7327,W,2.57,192.67,220217,,,D*66

$GPVTG,192.67,T,,M,2.57,N,4.76,K,D*36

$GPVTG,192.50,T,,M,2.93,N,5.43,K,D*3D

$GPGGA,164005.000,0010.9555,S,07828.7332,W,2,06,1.55,2774.5,M,13.7,M,0000,0000*5A

$GPGGA,164006.000,0010.9563,S,07828.7334,W,2,06,1.55,2774.6,M,13.7,M,0000,0000*59

$GPGSA,A,3,10,18,26,31,14,21,,,,,,,1.80,1.55,0.90*0B

$GPGSA,A,3,10,18,26,31,14,21,,,,,,,1.80,1.55,0.90*0B

$GPRMC,164007.000,A,0010.9571,S,07828.7334,W,2.77,183.87,220217,,,D*6E

$GPGSV,3,1,12,10,67,034,39,18,58,106,42,51,56,270,33,31,51,312,36*71

$GPGSV,3,2,12,26,45,192,42,25,33,054,29,21,27,167,36,32,23,006,26*7E

$GPGGA,164009.000,0010.9587,S,07828.7335,W,2,06,1.56,2774.9,M,13.7,M,0000,0000*51

$GPGSA,A,3,10,18,26,31,14,21,,,,,,,1.80,1.56,0.90*08

$GPGSA,A,3,10,18,26,31,14,21,,,,,,,1.80,1.55,0.90*0B

$GPRMC,164010.000,A,0010.9595,S,07828.7335,W,2.69,187.67,220217,,,D*66

$GPRMC,164011.000,A,0010.9602,S,07828.7336,W,2.59,187.77,220217,,,D*6B

$GPVTG,187.77,T,,M,2.59,N,4.79,K,D*32

$GPVTG,183.03,T,,M,2.25,N,4.16,K,D*37

$GPGGA,164013.000,0010.9616,S,07828.7338,W,2,06,1.56,2775.3,M,13.7,M,0000,0000*57

$GPGSV,3,3,12,14,19,341,21,16,17,203,33,29,09,118,,27,05,227,15*7B

$GPRMC,164013.000,A,0010.9616,S,07828.7338,W,2.96,194.50,220217,,,D*66

$GPRMC,164014.000,A,0010.9624,S,07828.7339,W,2.73,183.82,220217,,,D*63

$GPVTG,183.82,T,,M,2.73,N,5.07,K,D*3C

$GPVTG,181.43,T,,M,2.63,N,4.87,K,D*3B

$GPGGA,164016.000,0010.9640,S,07828.7341,W,2,06,1.56,2775.4,M,13.7,M,0000,0000*58

$GPGGA,164017.000,0010.9648,S,07828.7343,W,2,06,1.56,2775.4,M,13.7,M,0000,0000*53

$GPGSA,A,3,10,18,26,31,14,21,,,,,,,1.80,1.56,0.90*08

$GPGSA,A,3,10,18,26,31,14,21,,,,,,,1.80,1.56,0.90*08

$GPGSV,3,1,12,10,67,034,41,18,58,106,42,51,56,270,38,31,51,312,40*74

$GPVTG,189.60,T,,M,2.57,N,4.76,K,D*3B

$GPGGA,164019.000,0010.9663,S,07828.7346,W,2,06,1.56,2775.5,M,13.7,M,0000,0000*50

$GPGGA,164020.000,0010.9671,S,07828.7347,W,2,06,1.56,2775.6,M,13.7,M,0000,0000*5B

$GPGSA,A,3,10,18,26,31,14,21,,,,,,,1.80,1.56,0.90*08

$GPGSA,A,3,10,18,26,31,14,21,,,,,,,1.80,1.56,0.90*08

$GPRMC,164021.000,A,0010.9679,S,07828.7348,W,2.62,188.59,220217,,,D*66

$GPRMC,164022.000,A,0010.9686,S,07828.7349,W,2.54,191.53,220217,,,D*63

$GPVTG,191.53,T,,M,2.54,N,4.71,K,D*36

$GPGSV,3,2,12,26,45,192,40,25,33,054,23,21,27,167,30,32,23,006,23*75

$GPGSV,3,3,12,14,19,341,18,16,17,203,29,29,09,118,,27,05,227,17*78

$GPGSA,A,3,10,18,26,31,14,21,,,,,,,1.80,1.56,0.90*08

$GPRMC,164024.000,A,0010.9702,S,07828.7350,W,2.71,175.77,220217,,,D*6B

$GPRMC,164025.000,A,0010.9709,S,07828.7350,W,2.60,186.38,220217,,,D*66

$GPVTG,186.38,T,,M,2.60,N,4.81,K,D*35

$GPVTG,187.87,T,,M,2.69,N,4.98,K,D*31

$GPGGA,164027.000,0010.9724,S,07828.7351,W,2,06,1.56,2776.1,M,13.7,M,0000,0000*5E

$GPGGA,164028.000,0010.9732,S,07828.7353,W,2,06,1.56,2776.2,M,13.7,M,0000,0000*57

$GPGSA,A,3,10,18,26,31,14,21,,,,,,,1.80,1.56,0.90*08

$GPRMC,164028.000,A,0010.9732,S,07828.7353,W,3.06,193.37,220217,,,D*6A

$GPVTG,193.37,T,,M,3.06,N,5.67,K,D*36

$GPVTG,185.23,T,,M,2.78,N,5.14,K,D*38

$GPGGA,164030.000,0010.9747,S,07828.7355,W,2,06,1.56,2776.2,M,13.7,M,0000,0000*5A

$GPGGA,164031.000,0010.9753,S,07828.7357,W,2,06,1.56,2776.2,M,13.7,M,0000,0000*5C

$GPGSA,A,3,10,18,26,31,14,21,,,,,,,1.80,1.56,0.90*08

$GPGSA,A,3,10,18,26,31,14,21,,,,,,,1.80,1.56,0.90*08

$GPRMC,164032.000,A,0010.9760,S,07828.7358,W,2.25,192.14,220217,,,D*6D

$GPGSV,3,1,12,10,67,034,38,18,58,106,42,51,56,270,34,31,51,313,34*74

$GPGSV,3,2,12,26,45,192,39,25,33,054,19,21,27,167,33,32,23,007,*71

$GPGGA,164034.000,0010.9772,S,07828.7361,W,2,06,1.56,2776.3,M,13.7,M,0000,0000*5E

$GPGSA,A,3,10,18,26,31,14,21,,,,,,,1.80,1.56,0.90*08

$GPGSA,A,3,10,18,26,31,14,21,,,,,,,1.80,1.56,0.90*08

$GPRMC,164035.000,A,0010.9779,S,07828.7363,W,2.48,196.20,220217,,,D*62

$GPRMC,164036.000,A,0010.9787,S,07828.7363,W,2.65,164.08,220217,,,D*68

$GPVTG,164.08,T,,M,2.65,N,4.91,K,D*3E

$GPVTG,190.44,T,,M,2.59,N,4.81,K,D*33

$GPGGA,164038.000,0010.9803,S,07828.7365,W,2,06,1.56,2776.7,M,13.7,M,0000,0000*5B

$GPGSV,3,3,12,14,19,341,21,16,17,203,30,29,09,118,16,27,05,227,20*79

$GPRMC,164038.000,A,0010.9803,S,07828.7365,W,3.00,195.99,220217,,,D*67

$GPRMC,164039.000,A,0010.9811,S,07828.7367,W,2.75,191.11,220217,,,D*60

$GPVTG,191.11,T,,M,2.75,N,5.10,K,D*35

