
$GPGSA,A,3,16,08,10,03,27,26,01,,,,,,1.43,1.11,0.90*01

$GPRMC,193827.000,A,0010.9315,S,07829.0456,W,0.07,191.48,230217,,,A*6C

$GPRMC,193828.000,A,0010.9315,S,07829.0458,W,0.08,281.87,230217,,,A*63

$GPVTG,281.87,T,,M,0.08,N,0.15,K,A*35

$GPVTG,102.99,T,,M,0.34,N,0.63,K,A*3C

$GPGGA,193830.000,0010.9311,S,07829.0455,W,1,07,1.11,2805.3,M,13.7,M,,*57

$GPGGA,193831.000,0010.9310,S,07829.0453,W,1,08,1.10,2805.4,M,13.7,M,,*58

$GPGSA,A,3,16,08,10,03,27,26,01,32,,,,,2.28,1.10,1.99*07

$GPRMC,193831.000,A,0010.9310,S,07829.0453,W,0.17,56.48,230217,,,A*50

$GPVTG,56.48,T,,M,0.17,N,0.31,K,A*06

$GPVTG,150.72,T,,M,0.04,N,0.07,K,A*3F

$GPGGA,193833.000,0010.9311,S,07829.0453,W,1,08,0.95,2805.2,M,13.7,M,,*51

$GPGGA,193834.000,0010.9310,S,07829.0453,W,1,07,1.04,2805.3,M,13.7,M,,*50

$GPGSA,A,3,16,08,10,27,26,01,32,,,,,,1.37,1.04,0.90*04

$GPGSA,A,3,16,08,10,03,27,26,01,32,,,,,1.31,0.95,0.89*00

$GPRMC,193835.000,A,0010.9310,S,07829.0452,W,0.28,109.88,230217,,,A*6E

$GPGSV,3,1,12,16,65,332,36,27,49,161,36,26,41,009,34,32,36,105,38*74

$GPGSV,3,2,12,03,28,304,30,48,27,270,,08,24,197,32,10,16,154,32*7D

$GPGGA,193837.000,0010.9317,S,07829.0447,W,1,08,0.95,2805.6,M,13.7,M,,*52

$GPGSA,A,3,16,08,10,03,27,26,01,32,,,,,1.31,0.95,0.89*00

$GPGSA,A,3,16,08,10,03,27,26,01,32,,,,,1.31,0.95,0.89*00

$GPRMC,193838.000,A,0010.9320,S,07829.0445,W,1.55,137.45,230217,,,A*61

$GPRMC,193839.000,A,0010.9323,S,07829.0445,W,1.11,146.80,230217,,,A*6C

$GPVTG,146.80,T,,M,1.11,N,2.06,K,A*33

$GPVTG,141.96,T,,M,1.02,N,1.88,K,A*34

$GPGGA,193841.000,0010.9327,S,07829.0443,W,1,08,0.95,2806.4,M,13.7,M,,*55

$GPGSV,3,3,12,01,08,244,35,22,,,37,04,,,35,31,,,36*46

$GPRMC,193841.000,A,0010.9327,S,07829.0443,W,1.06,146.06,230217,,,A*69

$GPRMC,193842.000,A,0010.9329,S,07829.0442,W,0.70,142.60,230217,,,A*61

$GPVTG,142.60,T,,M,0.70,N,1.30,K,A*39

$GPVTG,133.97,T,,M,0.99,N,1.84,K,A*3F

$GPGGA,193844.000,0010.9332,S,07829.0440,W,1,08,0.95,2807.0,M,13.7,M,,*52

$GPGGA,193845.000,0010.9333,S,07829.0440,W,1,08,0.95,2807.0,M,13.7,M,,*52

$GPGSA,A,3,16,08,10,03,27,26,01,32,,,,,1.30,0.95,0.89*01

$GPGSA,A,3,16,08,10,03,27,26,01,32,,,,,1.30,0.95,0.89*01

$GPGSV,3,1,12,16,65,332,34,27,49,161,31,26,41,009,35,32,36,105,38*70

$GPVTG,113.97,T,,M,0.30,N,0.55,K,A*33

$GPGGA,193847.000,0010.9332,S,07829.0439,W,1,07,1.04,2807.1,M,13.7,M,,*58

$GPGGA,193848.000,0010.9333,S,07829.0439,W,1,08,0.95,2807.1,M,13.7,M,,*50

$GPGSA,A,3,16,08,10,03,27,26,01,32,,,,,1.30,0.95,0.89*01

$GPGSA,A,3,16,08,10,03,27,26,31,32,,,,,1.28,0.95,0.86*04

$GPRMC,193849.000,A,0010.9333,S,07829.0439,W,0.14,137.17,230217,,,A*6D

$GPRMC,193850.000,A,0010.9332,S,07829.0439,W,0.04,11.64,230217,,,A*54

$GPVTG,11.64,T,,M,0.04,N,0.07,K,A*0C

$GPGSA,A,3,16,08,10,03,27,26,31,32,,,,,1.28,0.95,0.86*04

$GPRMC,193852.000,A,0010.9332,S,07829.0438,W,0.23,131.13,230217,,,A*61

$GPRMC,193853.000,A,0010.9327,S,07829.0434,W,0.41,139.85,230217,,,A*6B

$GPVTG,139.85,T,,M,0.41,N,0.76,K,A*3F

$GPVTG,164.50,T,,M,0.08,N,0.15,K,A*37

$GPGGA,193855.000,0010.9323,S,07829.0433,W,1,08,0.95,2804.2,M,13.7,M,,*57

$GPGGA,193856.000,0010.9321,S,07829.0434,W,1,08,0.95,2804.2,M,13.7,M,,*51

$GPGSA,A,3,16,08,10,03,27,26,31,32,,,,,1.28,0.95,0.86*04

$GPRMC,193856.000,A,0010.9321,S,07829.0434,W,0.41,318.26,230217,,,A*60

$GPVTG,318.26,T,,M,0.41,N,0.77,K,A*36

$GPVTG,302.09,T,,M,0.55,N,1.01,K,A*35

$GPGGA,193858.000,0010.9318,S,07829.0439,W,1,08,0.95,2803.9,M,13.7,M,,*54

$GPGGA,193859.000,0010.9317,S,07829.0442,W,1,09,0.82,2804.2,M,13.7,M,,*5D

$GPGSA,A,3,16,08,10,03,27,26,31,32,01,,,,1.16,0.82,0.82*0A

$GPGSA,A,3,16,08,10,27,26,31,32,01,,,,,1.23,0.92,0.82*0E

$GPRMC,193900.000,A,0010.9315,S,07829.0447,W,1.39,280.67,230217,,,A*6A

$GPGSV,3,1,12,16,65,332,33,27,49,161,29,26,41,009,25,32,36,105,39*7E

$GPGSV,3,2,12,03,28,304,30,08,24,197,37,33,18,090,26,10,16,154,39*7B

$GPGGA,193902.000,0010.9313,S,07829.0451,W,1,09,0.82,2804.2,M,13.7,M,,*54

$GPGSA,A,3,16,08,10,03,01,27,26,31,32,,,,1.16,0.82,0.82*0A

$GPGSA,A,3,16,08,10,03,01,27,26,31,32,,,,1.16,0.82,0.82*0A

$GPRMC,193903.000,A,0010.9313,S,07829.0453,W,0.32,284.86,230217,,,A*6B

$GPRMC,193904.000,A,0010.9313,S,07829.0454,W,0.26,308.58,230217,,,A*68

$GPVTG,308.58,T,,M,0.26,N,0.48,K,A*33

$GPVTG,279.43,T,,M,0.18,N,0.33,K,A*3F

$GPGGA,193906.000,0010.9313,S,07829.0456,W,1,09,0.82,2804.5,M,13.7,M,,*50

$GPGSV,3,3,11,31,13,034,22,01,08,243,38,22,,,38*72

$GPRMC,193906.000,A,0010.9313,S,07829.0456,W,0.04,197.56,230217,,,A*62

$GPRMC,193907.000,A,0010.9313,S,07829.0456,W,0.09,251.99,230217,,,A*64

$GPVTG,251.99,T,,M,0.09,N,0.17,K,A*34

$GPVTG,190.69,T,,M,0.06,N,0.11,K,A*3C

$GPGGA,193909.000,0010.9314,S,07829.0457,W,1,09,0.82,2804.5,M,13.7,M,,*59

$GPGGA,193910.000,0010.9314,S,07829.0457,W,1,09,0.82,2804.5,M,13.7,M,,*51

$GPGSA,A,3,16,08,10,03,01,27,26,31,32,,,,1.16,0.82,0.82*0A

$GPGSA,A,3,16,08,10,03,01,27,26,31,32,,,,1.16,0.82,0.82*0A

$GPGSV,3,1,11,16,65,332,34,51,56,270,42,27,49,161,36,26,41,009,23*7C

$GPVTG,245.32,T,,M,0.65,N,1.20,K,A*3F

$GPGGA,193912.000,0010.9315,S,07829.0458,W,1,08,0.86,2804.6,M,13.7,M,,*5B

$GPGGA,193913.000,0010.9315,S,07829.0458,W,1,09,0.82,2804.8,M,13.7,M,,*51

$GPGSA,A,3,16,08,10,03,01,27,26,31,32,,,,1.16,0.82,0.82*0A

$GPGSA,A,3,16,08,10,03,01,27,26,31,32,,,,1.16,0.82,0.82*0A

$GPRMC,193914.000,A,0010.9314,S,07829.0457,W,0.29,77.57,230217,,,A*56

$GPRMC,193915.000,A,0010.9314,S,07829.0456,W,0.31,127.25,230217,,,A*6E

$GPVTG,127.25,T,,M,0.31,N,0.57,K,A*3E

$GPGSV,3,2,11,32,36,105,37,03,29,304,34,08,24,197,22,10,15,154,36*75

$GPGSV,3,3,11,31,13,034,43,01,08,243,18,22,,,28*76

$GPGSA,A,3,16,08,10,03,01,27,26,31,32,,,,1.16,0.82,0.82*0A

$GPRMC,193917.000,A,0010.9316,S,07829.0455,W,0.59,194.53,230217,,,A*6A

$GPRMC,193918.000,A,0010.9317,S,07829.0453,W,0.52,163.71,230217,,,A*61

$GPVTG,163.71,T,,M,0.52,N,0.96,K,A*37

$GPVTG,192.02,T,,M,0.58,N,1.07,K,A*3E

$GPGGA,193920.000,0010.9317,S,07829.0456,W,1,09,0.82,2804.4,M,13.7,M,,*51

$GPGGA,193921.000,0010.9318,S,07829.0459,W,1,09,0.82,2804.0,M,13.7,M,,*54

$GPGSA,A,3,16,08,10,03,01,27,26,31,32,,,,1.16,0.82,0.82*0A

$GPRMC,193921.000,A,0010.9318,S,07829.0459,W,2.01,223.78,230217,,,A*64

$GPVTG,223.78,T,,M,2.01,N,3.73,K,A*35

$GPVTG,208.67,T,,M,2.11,N,3.91,K,A*3F

$GPGGA,193923.000,0010.9326,S,07829.0464,W,1,09,0.82,2804.0,M,13.7,M,,*55

$GPGGA,193924.000,0010.9325,S,07829.0465,W,1,09,0.82,2803.9,M,13.7,M,,*5E

$GPGSA,A,3,16,08,10,03,01,27,26,31,32,,,,1.16,0.82,0.82*0A

$GPGSA,A,3,16,08,10,03,01,27,26,31,32,,,,1.16,0.82,0.82*0A

$GPRMC,193925.000,A,0010.9325,S,07829.0469,W,1.06,260.97,230217,,,A*6F

$GPGSV,3,1,11,16,64,333,37,51,56,270,29,27,49,161,23,26,41,009,36*72

$GPGSV,3,2,11,32,36,105,29,03,29,304,28,08,24,197,19,10,15,154,24*7C

$GPGGA,193927.000,0010.9331,S,07829.0481,W,1,09,0.82,2803.8,M,13.7,M,,*53

$GPGSA,A,3,16,08,10,03,01,27,26,31,32,,,,1.16,0.82,0.82*0A

$GPGSA,A,3,16,08,10,03,01,27,26,31,32,,,,1.16,0.82,0.82*0A

$GPRMC,193928.000,A,0010.9335,S,07829.0484,W,2.11,225.79,230217,,,A*64

$GPRMC,193929.000,A,0010.9342,S,07829.0483,W,2.21,195.52,230217,,,A*60

$GPVTG,195.52,T,,M,2.21,N,4.10,K,A*33

$GPVTG,193.24,T,,M,2.37,N,4.39,K,A*38

$GPGGA,193931.000,0010.9355,S,07829.0489,W,1,09,0.82,2803.8,M,13.7,M,,*5E

$GPGSV,3,3,11,31,13,034,36,01,08,243,19,22,,,33*7F

$GPRMC,193931.000,A,0010.9355,S,07829.0489,W,2.40,203.81,230217,,,A*60

$GPRMC,193932.000,A,0010.9361,S,07829.0492,W,2.52,204.25,230217,,,A*64

$GPVTG,204.25,T,,M,2.52,N,4.67,K,A*3C

$GPVTG,224.59,T,,M,2.21,N,4.09,K,A*39

$GPGGA,193934.000,0010.9365,S,07829.0508,W,1,08,0.92,2804.1,M,13.7,M,,*5E

$GPGGA,193935.000,0010.9370,S,07829.0511,W,1,08,0.92,2804.2,M,13.7,M,,*50

$GPGSA,A,3,16,08,10,01,27,26,31,32,,,,,1.23,0.92,0.82*0E

$GPGSA,A,3,16,08,10,03,01,27,26,31,32,,,,1.16,0.82,0.82*0A

$GPGSV,3,1,11,16,64,333,29,51,56,270,31,27,49,161,39,26,41,009,23*7B

$GPVTG,132.49,T,,M,0.85,N,1.58,K,A*31

$GPGGA,193937.000,0010.9373,S,07829.0510,W,1,09,0.82,2804.4,M,13.7,M,,*56

$GPGGA,193938.000,0010.9373,S,07829.0508,W,1,09,0.82,2804.5,M,13.7,M,,*51

$GPGSA,A,3,16,08,10,03,01,27,26,31,32,,,,1.16,0.82,0.82*0A

$GPGSA,A,3,16,08,10,03,01,27,26,31,32,,,,1.16,0.82,0.82*0A

$GPRMC,193939.000,A,0010.9372,S,07829.0506,W,0.52,88.66,230217,,,A*52

$GPRMC,193940.000,A,0010.9375,S,07829.0505,W,0.52,122.35,230217,,,A*6F

$GPVTG,122.35,T,,M,0.52,N,0.97,K,A*33

$GPGSV,3,2,11,32,36,106,42,03,29,303,23,08,24,197,36,10,15,154,42*73

$GPGSV,3,3,11,31,13,034,29,01,08,243,31,22,,,28*71

$GPGSA,A,3,16,08,10,03,01,27,26,31,32,,,,1.16,0.82,0.82*0A

$GPRMC,193942.000,A,0010.9376,S,07829.0500,W,0.68,70.86,230217,,,A*5C

$GPRMC,193943.000,A,0010.9376,S,07829.0500,W,0.18,87.32,230217,,,A*5D

$GPVTG,87.32,T,,M,0.18,N,0.33,K,A*0A

$GPVTG,200.07,T,,M,0.44,N,0.81,K,A*31

$GPGGA,193945.000,0010.9379,S,07829.0506,W,1,09,0.82,2804.5,M,13.7,M,,*5F

$GPGGA,193946.000,0010.9385,S,07829.0513,W,1,09,0.82,2804.4,M,13.7,M,,*5A

$GPGSA,A,3,16,08,10,03,01,27,26,31,32,,,,1.16,0.82,0.82*0A

$GPRMC,193946.000,A,0010.9385,S,07829.0513,W,2.38,221.75,230217,,,A*6B

$GPVTG,221.75,T,,M,2.38,N,4.41,K,A*36

$GPGGA,193949.000,0010.9405,S,07829.0527,W,1,08,0.92,2804.5,M,13.7,M,,*5C

$GPGSA,A,3,16,08,10,01,27,26,31,32,,,,,1.23,0.92,0.82*0E

$GPGSA,A,3,16,08,10,03,01,27,26,31,32,,,,1.16,0.82,0.82*0A

$GPRMC,193950.000,A,0010.9410,S,07829.0532,W,2.42,237.83,230217,,,A*67

$GPGSV,3,1,11,16,64,333,37,51,56,270,30,27,49,161,24,26,41,009,38*73

$GPGSV,3,2,11,32,36,106,37,03,29,303,29,08,24,197,17,10,15,154,23*7F

$GPGGA,193952.000,0010.9420,S,07829.0540,W,1,09,0.82,2804.4,M,13.7,M,,*51

$GPGSA,A,3,16,08,10,03,01,27,26,31,32,,,,1.16,0.82,0.82*0A

$GPGSA,A,3,16,08,10,03,01,27,26,31,32,,,,1.16,0.82,0.82*0A

$GPRMC,193953.000,A,0010.9425,S,07829.0544,W,2.00,215.16,230217,,,A*69

$GPRMC,193954.000,A,0010.9430,S,07829.0546,W,1.60,191.37,230217,,,A*61

$GPVTG,191.37,T,,M,1.60,N,2.97,K,A*3B

$GPVTG,216.52,T,,M,1.55,N,2.87,K,A*33

$GPGGA,193956.000,0010.9437,S,07829.0550,W,1,09,0.82,2804.3,M,13.7,M,,*55

$GPGSV,3,3,11,31,13,034,36,01,08,243,22,22,,,29*7C

$GPRMC,193956.000,A,0010.9437,S,07829.0550,W,0.98,216.20,230217,,,A*6F

$GPRMC,193957.000,A,0010.9439,S,07829.0553,W,1.13,223.42,230217,,,A*63

$GPVTG,223.42,T,,M,1.13,N,2.09,K,A*30

$GPVTG,278.12,T,,M,0.62,N,1.15,K,A*32

$GPGGA,193959.000,0010.9434,S,07829.0557,W,1,08,0.92,2804.2,M,13.7,M,,*5F

$GPGGA,194000.000,0010.9433,S,07829.0563,W,1,09,0.82,2804.3,M,13.7,M,,*5C

$GPGSA,A,3,16,08,10,03,01,27,26,31,32,,,,1.16,0.82,0.82*0A

$GPGSA,A,3,16,22,08,10,03,01,27,26,31,32,,,1.12,0.78,0.81*08

$GPGSV,3,1,11,16,64,333,34,51,56,270,30,27,49,161,33,22,44,286,24*7F

$GPVTG,280.65,T,,M,1.88,N,3.48,K,A*3A

$GPGGA,194002.000,0010.9432,S,07829.0579,W,1,10,0.78,2804.3,M,13.7,M,,*59

$GPGGA,194003.000,0010.9433,S,07829.0589,W,1,10,0.78,2804.3,M,13.7,M,,*56

$GPGSA,A,3,16,22,08,10,03,01,27,26,31,32,,,1.12,0.78,0.81*08

$GPGSA,A,3,16,22,08,10,03,01,27,26,31,32,,,1.12,0.78,0.81*08

$GPRMC,194004.000,A,0010.9439,S,07829.0597,W,3.14,217.34,230217,,,A*60

$GPRMC,194005.000,A,0010.9445,S,07829.0604,W,2.94,214.76,230217,,,A*6F

$GPVTG,214.76,T,,M,2.94,N,5.45,K,A*30

$GPGSV,3,2,11,26,41,009,35,32,36,106,38,03,29,303,31,08,24,197,20*77

$GPGSV,3,3,11,10,15,154,26,31,13,034,37,01,08,243,17*41

$GPGSA,A,3,16,22,08,10,03,01,27,26,31,32,,,1.12,0.78,0.81*08

$GPRMC,194007.000,A,0010.9457,S,07829.0618,W,4.27,238.52,230217,,,A*65

$GPRMC,194008.000,A,0010.9464,S,07829.0630,W,4.94,241.64,230217,,,A*63

$GPVTG,241.64,T,,M,4.94,N,9.15,K,A*3C

$GPVTG,233.47,T,,M,4.64,N,8.59,K,A*3E

$GPGGA,194010.000,0010.9479,S,07829.0650,W,1,10,0.79,2804.2,M,13.7,M,,*5D

$GPGGA,194011.000,0010.9489,S,07829.0648,W,1,10,0.78,2804.4,M,13.7,M,,*5D

$GPGSA,A,3,16,22,08,10,03,01,27,26,31,32,,,1.12,0.78,0.81*08

$GPRMC,194011.000,A,0010.9489,S,07829.0648,W,3.78,159.72,230217,,,A*6F

$GPVTG,159.72,T,,M,3.78,N,7.00,K,A*3E

$GPVTG,103.48,T,,M,6.72,N,12.46,K,A*01

$GPGGA,194013.000,0010.9501,S,07829.0615,W,1,10,0.79,2804.8,M,13.7,M,,*5B

$GPGGA,194014.000,0010.9512,S,07829.0609,W,1,10,0.79,2805.0,M,13.7,M,,*5A

$GPGSA,A,3,16,22,08,10,03,01,27,26,31,32,,,1.58,0.79,1.38*04

$GPGSA,A,3,16,22,08,10,03,01,27,26,31,32,,,1.58,0.79,1.38*04

$GPRMC,194015.000,A,0010.9523,S,07829.0614,W,5.50,225.38,230217,,,A*69

$GPGSV,3,1,11,16,64,333,29,51,56,270,25,27,50,160,36,22,44,286,27*78

$GPGSV,3,2,11,26,41,009,29,32,36,106,38,03,29,303,24,08,24,197,25*7B

$GPGGA,194017.000,0010.9538,S,07829.0645,W,1,10,0.79,2805.3,M,13.7,M,,*5A

$GPGSA,A,3,16,22,08,10,03,01,27,26,31,32,,,1.58,0.79,1.38*04

$GPRMC,194019.000,A,0010.9532,S,07829.0677,W,6.64,268.37,230217,,,A*62

$GPVTG,268.37,T,,M,6.64,N,12.31,K,A*00

$GPVTG,262.90,T,,M,6.35,N,11.78,K,A*0D

$GPGGA,194021.000,0010.9534,S,07829.0710,W,1,10,0.79,2806.4,M,13.7,M,,*56

$GPGSV,3,3,11,10,15,154,29,31,13,034,35,01,08,243,14*4F

$GPRMC,194021.000,A,0010.9534,S,07829.0710,W,5.21,267.07,230217,,,A*61

$GPRMC,194022.000,A,0010.9532,S,07829.0720,W,3.42,288.96,230217,,,A*6D

$GPVTG,288.96,T,,M,3.42,N,6.34,K,A*34

$GPVTG,314.12,T,,M,2.99,N,5.54,K,A*3E

$GPGGA,194024.000,0010.9523,S,07829.0729,W,1,10,0.78,2807.1,M,13.7,M,,*5A

$GPGGA,194025.000,0010.9520,S,07829.0725,W,1,10,0.78,2807.1,M,13.7,M,,*54

$GPGSA,A,3,16,22,08,10,03,01,27,26,31,32,,,1.12,0.78,0.81*08

$GPGSA,A,3,16,22,08,10,03,01,27,26,31,32,,,1.12,0.78,0.81*08

$GPGSV,3,1,11,16,64,333,39,51,56,270,34,27,50,160,32,22,44,286,32*79

$GPVTG,42.94,T,,M,1.84,N,3.41,K,A*0D

$GPGGA,194027.000,0010.9509,S,07829.0724,W,1,10,0.78,2807.2,M,13.7,M,,*5F

$GPGGA,194028.000,0010.9506,S,07829.0721,W,1,10,0.78,2807.4,M,13.7,M,,*5C

$GPGSA,A,3,16,22,08,10,03,01,27,26,31,32,,,1.12,0.78,0.81*08

$GPGSA,A,3,16,22,08,10,03,01,27,26,31,32,,,1.12,0.78,0.81*08

$GPRMC,194029.000,A,0010.9507,S,07829.0710,W,3.05,80.55,230217,,,A*55

$GPRMC,194030.000,A,0010.9507,S,07829.0697,W,5.78,90.71,230217,,,A*58

$GPVTG,90.71,T,,M,5.78,N,10.71,K,A*3F

$GPGSA,A,3,16,22,08,10,03,01,27,26,31,32,,,1.59,0.79,1.38*05

$GPRMC,194032.000,A,0010.9515,S,07829.0669,W,4.51,115.36,230217,,,A*6D

$GPRMC,194033.000,A,0010.9523,S,07829.0661,W,3.68,149.74,230217,,,A*63

$GPVTG,149.74,T,,M,3.68,N,6.82,K,A*33

$GPVTG,183.57,T,,M,3.14,N,5.83,K,A*3D

$GPGGA,194035.000,0010.9537,S,07829.0664,W,1,10,0.78,2807.8,M,13.7,M,,*5E

$GPGGA,194036.000,0010.9543,S,07829.0671,W,1,10,0.79,2807.9,M,13.7,M,,*5A

$GPGSA,A,3,16,22,08,10,03,01,27,26,31,32,,,1.58,0.79,1.38*04

$GPRMC,194036.000,A,0010.9543,S,07829.0671,W,3.29,233.03,230217,,,A*6A

$GPVTG,233.03,T,,M,3.29,N,6.11,K,A*32

$GPVTG,270.90,T,,M,3.23,N,5.99,K,A*36

$GPGGA,194038.000,0010.9543,S,07829.0687,W,1,10,0.78,2807.8,M,13.7,M,,*5D

$GPGGA,194039.000,0010.9541,S,07829.0693,W,1,10,0.78,2807.8,M,13.7,M,,*5B

$GPGSA,A,3,16,22,08,10,03,01,27,26,31,32,,,1.12,0.78,0.81*08

$GPGSA,A,3,16,22,08,10,03,01,27,26,31,32,,,1.58,0.79,1.37*0B

$GPRMC,194040.000,A,0010.9539,S,07829.0693,W,0.77,14.28,230217,,,A*5C

$GPGSV,3,1,11,16,64,334,35,51,56,270,37,27,50,160,28,22,44,286,40*7F

$GPGSV,3,2,11,26,41,009,33,32,36,106,23,03,29,303,36,08,24,197,25*79

$GPGGA,194042.000,0010.9542,S,07829.0686,W,1,10,0.78,2808.1,M,13.7,M,,*56

$GPGSA,A,3,16,22,08,10,03,01,27,26,31,32,,,1.12,0.78,0.81*08

$GPGSA,A,3,16,22,08,10,03,01,27,26,31,32,,,1.12,0.78,0.81*08

$GPRMC,194043.000,A,0010.9550,S,07829.0683,W,1.69,141.84,230217,,,A*68

$GPRMC,194044.000,A,0010.9557,S,07829.0680,W,2.02,153.70,230217,,,A*6D

$GPVTG,153.70,T,,M,2.02,N,3.74,K,A*3D

$GPVTG,164.78,T,,M,1.59,N,2.95,K,A*32

$GPGGA,194046.000,0010.9560,S,07829.0680,W,1,10,0.78,2808.3,M,13.7,M,,*56

$GPGSV,3,3,11,10,15,154,21,31,13,034,30,01,08,243,19*4F

$GPRMC,194046.000,A,0010.9560,S,07829.0680,W,0.25,134.77,230217,,,A*6A

$GPRMC,194047.000,A,0010.9558,S,07829.0684,W,0.74,299.43,230217,,,A*63

$GPVTG,299.43,T,,M,0.74,N,1.36,K,A*3F

$GPVTG,311.91,T,,M,1.25,N,2.32,K,A*33

$GPGGA,194049.000,0010.9551,S,07829.0687,W,1,10,0.78,2808.3,M,13.7,M,,*5C

$GPGGA,194050.000,0010.9552,S,07829.0688,W,1,10,0.78,2808.2,M,13.7,M,,*59

$GPGSA,A,3,16,22,08,10,03,01,27,26,31,32,,,1.12,0.78,0.81*08

$GPGSA,A,3,16,22,08,10,03,01,27,26,31,32,,,1.12,0.78,0.81*08

$GPGSV,3,1,11,16,64,334,36,51,56,270,34,27,50,160,28,22,44,286,37*7F

$GPVTG,264.44,T,,M,0.84,N,1.56,K,A*33

$GPGGA,194052.000,0010.9556,S,07829.0695,W,1,10,0.78,2808.0,M,13.7,M,,*51

$GPGGA,194053.000,0010.9564,S,07829.0707,W,1,10,0.78,2807.9,M,13.7,M,,*5D

$GPGSA,A,3,16,22,08,10,03,01,27,26,31,32,,,1.12,0.78,0.81*08

$GPGSA,A,3,16,22,08,10,03,01,27,26,31,32,,,1.58,0.79,1.38*04

$GPRMC,194054.000,A,0010.9575,S,07829.0719,W,6.83,223.14,230217,,,A*66

$GPRMC,194055.000,A,0010.9589,S,07829.0730,W,6.44,214.74,230217,,,A*66

$GPVTG,214.74,T,,M,6.44,N,11.93,K,A*05

$GPGSV,3,2,11,26,40,009,37,32,36,106,23,03,29,303,39,08,24,197,19*7C

$GPGSV,3,3,11,10,15,154,22,31,13,034,32,01,08,243,17*40

$GPGSA,A,3,16,22,08,10,03,01,27,26,31,32,,,1.58,0.79,1.38*04

$GPRMC,194057.000,A,0010.9613,S,07829.0741,W,2.69,162.90,230217,,,A*61

$GPRMC,194058.000,A,0010.9617,S,07829.0736,W,2.03,95.10,230217,,,A*57

$GPVTG,95.10,T,,M,2.03,N,3.77,K,A*02

$GPVTG,55.37,T,,M,2.98,N,5.52,K,A*08

$GPGGA,194100.000,0010.9610,S,07829.0725,W,1,10,0.78,2807.8,M,13.7,M,,*5B

$GPGGA,194101.000,0010.9603,S,07829.0719,W,1,10,0.78,2807.9,M,13.7,M,,*56

$GPGSA,A,3,16,22,08,10,03,01,27,26,31,32,,,1.12,0.78,0.81*08

$GPRMC,194101.000,A,0010.9603,S,07829.0719,W,4.05,33.63,230217,,,A*5A

$GPVTG,33.63,T,,M,4.05,N,7.51,K,A*0A

$GPVTG,70.89,T,,M,3.18,N,5.89,K,A*05

$GPGGA,194103.000,0010.9600,S,07829.0708,W,1,10,0.78,2808.2,M,13.7,M,,*53

$GPGGA,194104.000,0010.9603,S,07829.0707,W,1,10,0.78,2808.3,M,13.7,M,,*59

$GPGSA,A,3,16,22,08,10,03,01,27,26,31,32,,,1.12,0.78,0.81*08

$GPGSA,A,3,16,22,08,10,03,01,27,26,31,32,,,1.12,0.78,0.81*08

$GPRMC,194105.000,A,0010.9604,S,07829.0706,W,0.71,146.89,230217,,,A*67

$GPGSV,3,1,11,16,64,334,35,51,56,270,36,27,50,160,30,22,44,286,40*77

$GPGSV,3,2,11,26,40,009,34,32,36,106,33,03,29,303,36,08,25,197,23*79

$GPGGA,194107.000,0010.9607,S,07829.0704,W,1,09,0.87,2808.7,M,13.7,M,,*51

$GPGSA,A,3,16,22,08,10,03,27,26,31,32,,,,1.22,0.87,0.86*0D

$GPGSA,A,3,16,22,08,10,03,01,27,26,31,32,,,1.12,0.78,0.81*08

$GPRMC,194108.000,A,0010.9609,S,07829.0706,W,1.27,214.82,230217,,,A*6A

$GPRMC,194109.000,A,0010.9612,S,07829.0708,W,1.74,180.13,230217,,,A*6F

$GPVTG,180.13,T,,M,1.74,N,3.22,K,A*37

$GPVTG,162.46,T,,M,1.67,N,3.09,K,A*30

$GPGGA,194111.000,0010.9621,S,07829.0707,W,1,10,0.78,2809.3,M,13.7,M,,*5C

$GPGSV,3,3,11,10,15,154,42,31,13,034,23,01,08,243,18*49

$GPRMC,194111.000,A,0010.9621,S,07829.0707,W,0.82,168.67,230217,,,A*64

$GPRMC,194112.000,A,0010.9623,S,07829.0706,W,1.56,103.71,230217,,,A*66

$GPVTG,103.71,T,,M,1.56,N,2.88,K,A*39

$GPVTG,109.53,T,,M,2.28,N,4.23,K,A*3E

$GPGGA,194114.000,0010.9632,S,07829.0700,W,1,10,0.78,2809.5,M,13.7,M,,*5A

$GPGGA,194115.000,0010.9642,S,07829.0702,W,1,10,0.78,2809.6,M,13.7,M,,*5D

$GPGSA,A,3,16,22,08,10,03,01,27,26,31,32,,,1.12,0.78,0.81*08

$GPGSA,A,3,16,22,08,10,03,01,27,26,31,32,,,1.58,0.79,1.38*04

$GPGSV,3,1,11,16,64,334,26,51,56,270,31,27,50,160,37,22,44,286,28*7B

$GPVTG,355.59,T,,M,2.70,N,5.00,K,A*32

$GPGGA,194117.000,0010.9635,S,07829.0700,W,1,10,0.79,2809.9,M,13.7,M,,*53

$GPGGA,194118.000,0010.9629,S,07829.0690,W,1,10,0.78,2809.9,M,13.7,M,,*58

$GPGSA,A,3,16,22,08,10,03,01,27,26,31,32,,,1.12,0.78,0.81*08

$GPGSA,A,3,16,22,08,10,03,01,27,26,31,32,,,1.58,0.79,1.37*0B

$GPRMC,194119.000,A,0010.9631,S,07829.0682,W,2.65,116.10,230217,,,A*63

$GPRMC,194120.000,A,0010.9634,S,07829.0679,W,0.88,34.47,230217,,,A*5A

$GPVTG,34.47,T,,M,0.88,N,1.62,K,A*0C

$GPGSV,3,2,11,26,40,009,32,32,36,106,42,03,29,303,24,08,25,197,38*70

$GPGSV,3,3,11,10,15,154,35,31,13,034,37,01,08,243,16*42

$GPGSA,A,3,16,22,08,10,03,01,27,26,31,32,,,1.12,0.78,0.81*08

$GPRMC,194122.000,A,0010.9630,S,07829.0696,W,4.91,230.37,230217,,,A*60

$GPRMC,194123.000,A,0010.9642,S,07829.0703,W,6.76,203.91,230217,,,A*6E

$GPVTG,203.91,T,,M,6.76,N,12.53,K,A*06

$GPVTG,223.85,T,,M,4.78,N,8.86,K,A*3E

$GPGGA,194125.000,0010.9658,S,07829.0716,W,1,09,0.89,2809.7,M,13.7,M,,*57

$GPGGA,194126.000,0010.9653,S,07829.0710,W,1,10,0.78,2809.6,M,13.7,M,,*5E

$GPGSA,A,3,16,22,08,10,03,01,27,26,31,32,,,1.12,0.78,0.81*08

$GPRMC,194126.000,A,0010.9653,S,07829.0710,W,6.74,49.87,230217,,,A*50

$GPVTG,49.87,T,,M,6.74,N,12.48,K,A*35

$GPVTG,51.72,T,,M,8.50,N,15.75,K,A*37

$GPGGA,194128.000,0010.9622,S,07829.0674,W,1,10,0.79,2809.6,M,13.7,M,,*54

$GPGGA,194129.000,0010.9603,S,07829.0658,W,1,10,0.79,2809.8,M,13.7,M,,*56

$GPGSA,A,3,16,22,08,10,03,01,27,26,31,32,,,1.58,0.79,1.37*0B

$GPGSA,A,3,16,22,08,10,03,01,27,26,31,32,,,1.58,0.79,1.37*0B

$GPRMC,194130.000,A,0010.9588,S,07829.0643,W,7.66,48.42,230217,,,A*5F

$GPGSV,3,1,11,16,64,334,33,51,56,270,34,27,50,160,26,22,44,286,36*75

$GPGSV,3,2,11,26,40,009,31,32,36,107,27,03,29,303,38,08,25,197,26*73

$GPGGA,194132.000,0010.9594,S,07829.0612,W,1,10,0.79,2809.6,M,13.7,M,,*51

$GPGSA,A,3,16,22,08,10,03,01,27,26,31,32,,,1.58,0.79,1.37*0B

$GPGSA,A,3,16,22,08,10,03,01,27,26,31,32,,,1.58,0.79,1.37*0B

$GPRMC,194133.000,A,0010.9600,S,07829.0616,W,4.99,245.96,230217,,,A*6A

$GPRMC,194134.000,A,0010.9597,S,07829.0637,W,9.13,292.38,230217,,,A*62

$GPVTG,292.38,T,,M,9.13,N,16.92,K,A*08

$GPVTG,300.93,T,,M,10.87,N,20.14,K,A*3D

$GPGGA,194136.000,0010.9564,S,07829.0684,W,1,10,0.79,2809.9,M,13.7,M,,*5A

$GPGSV,3,3,11,10,15,154,37,31,13,035,30,01,08,242,17*46

$GPRMC,194136.000,A,0010.9564,S,07829.0684,W,9.93,314.82,230217,,,A*62

$GPRMC,194137.000,A,0010.9543,S,07829.0699,W,9.51,328.77,230217,,,A*61

$GPVTG,328.77,T,,M,9.51,N,17.62,K,A*0B

$GPVTG,336.52,T,,M,7.95,N,14.74,K,A*01

$GPGGA,194139.000,0010.9505,S,07829.0713,W,1,10,0.79,2809.9,M,13.7,M,,*5D

$GPGGA,194140.000,0010.9490,S,07829.0714,W,1,10,0.78,2809.7,M,13.7,M,,*56

$GPGSA,A,3,16,22,08,10,03,01,27,26,31,32,,,1.12,0.78,0.81*08

$GPGSA,A,3,16,22,08,10,03,01,27,26,31,32,,,1.58,0.79,1.37*0B

$GPGSV,3,1,11,16,64,334,37,51,56,270,31,27,50,160,26,22,44,286,37*75

$GPVTG,193.65,T,,M,5.45,N,10.10,K,A*01

$GPGGA,194142.000,0010.9517,S,07829.0723,W,1,10,0.79,2809.2,M,13.7,M,,*5A

$GPGGA,194143.000,0010.9532,S,07829.0720,W,1,10,0.78,2808.7,M,13.7,M,,*5A

$GPGSA,A,3,16,22,08,10,03,01,27,26,31,32,,,1.58,0.78,1.37*0A

$GPGSA,A,3,16,22,08,10,03,01,27,26,31,32,,,1.58,0.79,1.37*0B

$GPRMC,194144.000,A,0010.9546,S,07829.0717,W,4.02,179.18,230217,,,A*63

$GPRMC,194145.000,A,0010.9558,S,07829.0716,W,0.14,179.18,230217,,,A*6F

$GPVTG,179.18,T,,M,0.14,N,0.26,K,A*3A

$GPGSV,3,2,11,26,40,009,35,32,36,107,30,03,29,303,35,08,25,197,37*7C

$GPGSV,3,3,11,10,15,154,25,31,13,035,31,01,08,242,30*41

$GPGSA,A,3,16,22,08,10,03,01,27,26,31,32,,,1.12,0.78,0.81*08

$GPRMC,194147.000,A,0010.9562,S,07829.0708,W,0.12,179.18,230217,,,A*6D

$GPRMC,194148.000,A,0010.9561,S,07829.0703,W,0.16,179.18,230217,,,A*6E

$GPVTG,179.18,T,,M,0.16,N,0.29,K,A*37

$GPVTG,179.18,T,,M,0.18,N,0.33,K,A*32

$GPGGA,194150.000,0010.9559,S,07829.0694,W,1,10,0.78,2810.4,M,13.7,M,,*51

$GPGGA,194151.000,0010.9558,S,07829.0691,W,1,10,0.78,2810.7,M,13.7,M,,*57

$GPGSA,A,3,16,22,08,10,03,01,27,26,31,32,,,1.12,0.78,0.81*08

$GPRMC,194151.000,A,0010.9558,S,07829.0691,W,0.17,179.18,230217,,,A*67

$GPVTG,179.18,T,,M,0.17,N,0.32,K,A*3C

$GPVTG,179.18,T,,M,0.18,N,0.34,K,A*35

$GPGGA,194153.000,0010.9565,S,07829.0683,W,1,09,0.87,2811.4,M,13.7,M,,*52

$GPGGA,194154.000,0010.9564,S,07829.0682,W,1,10,0.78,2811.8,M,13.7,M,,*51

$GPGSA,A,3,16,22,08,10,03,01,27,26,31,32,,,1.12,0.78,0.81*08

$GPGSA,A,3,16,22,08,10,03,01,27,26,31,32,,,1.12,0.78,0.81*08

$GPRMC,194155.000,A,0010.9560,S,07829.0680,W,0.28,179.18,230217,,,A*64

$GPGSV,3,1,11,16,63,335,34,51,56,270,34,27,50,159,38,22,44,285,37*73

$GPGSV,3,2,11,26,40,009,25,32,36,107,30,03,29,303,32,08,25,197,36*7B

$GPVTG,274.24,T,,M,2.87,N,5.31,K,A*30

$GPGGA,194201.000,0010.9539,S,07829.0671,W,1,10,0.78,2812.7,M,13.7,M,,*5A

$GPGSV,3,3,11,10,15,154,33,31,13,035,38,01,08,242,18*45

$GPRMC,194201.000,A,0010.9539,S,07829.0671,W,3.15,269.06,230217,,,A*64

$GPRMC,194202.000,A,0010.9540,S,07829.0677,W,2.11,235.53,230217,,,A*63

$GPVTG,235.53,T,,M,2.11,N,3.92,K,A*35

$GPVTG,222.54,T,,M,2.53,N,4.69,K,A*31

$GPGGA,194204.000,0010.9548,S,07829.0685,W,1,10,0.78,2812.7,M,13.7,M,,*52

$GPGGA,194205.000,0010.9552,S,07829.0692,W,1,10,0.78,2812.5,M,13.7,M,,*5C

$GPGSA,A,3,16,22,08,10,03,01,27,26,31,32,,,1.12,0.78,0.81*08

$GPGSA,A,3,16,22,08,10,01,27,26,31,32,,,,1.16,0.84,0.81*0C

$GPGSV,3,1,11,16,63,335,31,51,56,270,31,27,50,159,42,22,44,285,34*7D

$GPVTG,250.24,T,,M,1.79,N,3.31,K,A*32

$GPGGA,194207.000,0010.9556,S,07829.0699,W,1,10,0.78,2812.3,M,13.7,M,,*57

$GPGGA,194208.000,0010.9558,S,07829.0704,W,1,10,0.78,2812.3,M,13.7,M,,*53

$GPGSA,A,3,16,22,08,10,03,01,27,26,31,32,,,1.12,0.78,0.81*08

$GPGSA,A,3,16,22,08,10,03,01,27,26,31,32,,,1.12,0.78,0.81*08

$GPRMC,194209.000,A,0010.9561,S,07829.0713,W,4.18,243.67,230217,,,A*61

$GPRMC,194210.000,A,0010.9561,S,07829.0722,W,5.18,249.08,230217,,,A*69

$GPVTG,249.08,T,,M,5.18,N,9.60,K,A*39

$GPGSV,3,2,11,26,40,009,37,32,36,107,38,03,29,302,24,08,25,197,25*74

$GPGSV,3,3,11,10,15,154,28,31,13,035,38,01,08,242,16*41

$GPGSA,A,3,16,22,08,10,03,01,27,26,31,32,,,1.58,0.78,1.37*0A

$GPRMC,194212.000,A,0010.9569,S,07829.0748,W,6.00,248.77,230217,,,A*6C

$GPRMC,194213.000,A,0010.9573,S,07829.0763,W,5.95,255.23,230217,,,A*6D

$GPVTG,255.23,T,,M,5.95,N,11.03,K,A*04

$GPVTG,254.66,T,,M,4.02,N,7.46,K,A*3D

$GPGGA,194215.000,0010.9581,S,07829.0789,W,1,10,0.78,2812.2,M,13.7,M,,*5F

$GPGGA,194216.000,0010.9584,S,07829.0788,W,1,10,0.78,2812.1,M,13.7,M,,*5B

$GPGSA,A,3,16,22,08,10,03,01,27,26,31,32,,,1.12,0.78,0.81*08

$GPRMC,194216.000,A,0010.9584,S,07829.0788,W,3.77,89.58,230217,,,A*50

$GPVTG,89.58,T,,M,3.77,N,6.98,K,A*05

$GPVTG,91.23,T,,M,4.31,N,7.99,K,A*05

$GPGGA,194218.000,0010.9589,S,07829.0772,W,1,10,0.78,2811.7,M,13.7,M,,*58

$GPGGA,194219.000,0010.9591,S,07829.0763,W,1,10,0.78,2811.6,M,13.7,M,,*51

$GPGSA,A,3,16,22,08,10,03,01,27,26,31,32,,,1.12,0.78,0.81*08

$GPGSA,A,3,16,22,08,10,03,01,27,26,31,32,,,1.12,0.78,0.81*08

$GPRMC,194220.000,A,0010.9596,S,07829.0752,W,4.58,105.86,230217,,,A*6D

$GPGSV,3,1,11,16,63,335,36,51,56,270,37,27,50,159,23,22,44,285,38*77

$GPGSV,3,2,11,26,40,009,32,32,36,107,25,03,29,302,33,08,25,197,31*7E

$GPGGA,194222.000,0010.9603,S,07829.0732,W,1,10,0.78,2811.6,M,13.7,M,,*55

$GPGSA,A,3,16,22,08,10,03,01,27,26,31,32,,,1.58,0.78,1.37*0A

$GPGSA,A,3,16,22,08,10,03,01,27,26,31,32,,,1.12,0.78,0.81*08

$GPRMC,194223.000,A,0010.9606,S,07829.0725,W,2.74,101.24,230217,,,A*60

$GPRMC,194224.000,A,0010.9607,S,07829.0718,W,2.67,89.12,230217,,,A*5E

$GPVTG,89.12,T,,M,2.67,N,4.95,K,A*04

$GPVTG,78.03,T,,M,3.51,N,6.50,K,A*05

$GPGGA,194226.000,0010.9606,S,07829.0700,W,1,10,0.78,2811.7,M,13.7,M,,*54

$GPGSV,3,3,11,10,14,154,24,31,13,035,26,01,08,242,21*47

$GPRMC,194226.000,A,0010.9606,S,07829.0700,W,4.46,95.49,230217,,,A*52

$GPRMC,194227.000,A,0010.9609,S,07829.0688,W,4.83,108.59,230217,,,A*60

$GPVTG,108.59,T,,M,4.83,N,8.95,K,A*33

$GPVTG,109.09,T,,M,3.83,N,7.10,K,A*32

$GPGGA,194229.000,0010.9616,S,07829.0668,W,1,10,0.78,2811.5,M,13.7,M,,*57

$GPGGA,194230.000,0010.9618,S,07829.0661,W,1,10,0.78,2811.4,M,13.7,M,,*59

$GPGSA,A,3,16,22,08,10,03,01,27,26,31,32,,,1.12,0.78,0.81*08

$GPGSA,A,3,16,22,08,10,03,01,27,26,31,32,,,1.12,0.78,0.81*08

$GPGSV,3,1,11,16,63,335,36,51,56,270,34,27,51,159,27,22,44,285,34*7D

$GPVTG,183.88,T,,M,0.80,N,1.49,K,A*33

$GPGGA,194232.000,0010.9623,S,07829.0657,W,1,10,0.78,2811.0,M,13.7,M,,*52

$GPGGA,194233.000,0010.9626,S,07829.0655,W,1,09,0.87,2810.9,M,13.7,M,,*54

$GPGSA,A,3,16,22,08,10,03,27,26,31,32,,,,1.22,0.87,0.86*0D

$GPGSA,A,3,16,22,08,10,03,01,27,26,31,32,,,1.12,0.78,0.81*08

$GPRMC,194234.000,A,0010.9629,S,07829.0652,W,1.38,151.97,230217,,,A*6C

$GPRMC,194235.000,A,0010.9633,S,07829.0648,W,1.63,134.58,230217,,,A*63

$GPVTG,134.58,T,,M,1.63,N,3.02,K,A*33

$GPGSV,3,2,11,26,39,010,34,32,35,107,26,03,29,302,39,08,25,197,32*77

$GPGSV,3,3,11,10,14,154,23,31,13,035,33,01,08,242,22*47

$GPGSA,A,3,16,22,08,10,03,01,27,26,31,32,,,1.12,0.78,0.81*08

$GPRMC,194237.000,A,0010.9640,S,07829.0638,W,1.94,121.03,230217,,,A*60

$GPRMC,194238.000,A,0010.9642,S,07829.0633,W,1.99,115.67,230217,,,A*6E

$GPVTG,115.67,T,,M,1.99,N,3.69,K,A*34

$GPVTG,110.85,T,,M,2.02,N,3.74,K,A*30

$GPGGA,194240.000,0010.9647,S,07829.0621,W,1,10,0.78,2810.7,M,13.7,M,,*52

$GPGGA,194241.000,0010.9651,S,07829.0617,W,1,10,0.78,2810.8,M,13.7,M,,*5E

$GPGSA,A,3,16,22,08,10,03,01,27,26,31,32,,,1.12,0.78,0.81*08

$GPRMC,194241.000,A,0010.9651,S,07829.0617,W,2.41,124.47,230217,,,A*62

$GPVTG,124.47,T,,M,2.41,N,4.47,K,A*39

$GPVTG,146.05,T,,M,2.89,N,5.36,K,A*38

$GPGGA,194243.000,0010.9659,S,07829.0607,W,1,09,0.87,2810.7,M,13.7,M,,*52

$GPGGA,194244.000,0010.9667,S,07829.0601,W,1,10,0.78,2810.8,M,13.7,M,,*59

$GPGSA,A,3,16,22,08,10,03,01,27,26,31,32,,,1.12,0.78,0.81*08

$GPGSA,A,3,16,22,08,10,03,01,27,26,31,32,,,1.58,0.78,1.37*0A

$GPRMC,194245.000,A,0010.9675,S,07829.0594,W,3.36,141.66,230217,,,A*69

$GPGSV,3,1,12,16,63,335,27,51,56,270,29,27,51,159,37,22,44,285,34*73

$GPGSV,3,2,12,26,39,010,22,32,35,107,33,03,30,302,24,08,25,197,32*73

$GPGGA,194247.000,0010.9676,S,07829.0592,W,1,10,0.78,2810.9,M,13.7,M,,*52

$GPGSA,A,3,16,22,08,10,03,01,27,26,31,32,,,1.12,0.78,0.81*08

$GPGSA,A,3,16,22,08,10,03,01,27,26,31,32,,,1.12,0.78,0.81*08

$GPRMC,194248.000,A,0010.9669,S,07829.0598,W,4.80,292.68,230217,,,A*6C

$GPRMC,194249.000,A,0010.9667,S,07829.0612,W,6.04,264.50,230217,,,A*6E

$GPVTG,264.50,T,,M,6.04,N,11.18,K,A*03

$GPVTG,250.94,T,,M,5.99,N,11.09,K,A*0B

$GPGGA,194251.000,0010.9673,S,07829.0634,W,1,10,0.78,2810.5,M,13.7,M,,*53

$GPGSV,3,3,12,10,14,154,20,31,13,035,35,01,08,242,16,11,08,223,22*7D

$GPRMC,194251.000,A,0010.9673,S,07829.0634,W,2.92,213.35,230217,,,A*6E

$GPRMC,194252.000,A,0010.9682,S,07829.0629,W,5.58,134.54,230217,,,A*6F

$GPVTG,134.54,T,,M,5.58,N,10.33,K,A*03

$GPVTG,143.95,T,,M,5.99,N,11.10,K,A*03

$GPGGA,194254.000,0010.9706,S,07829.0612,W,1,10,0.78,2810.3,M,13.7,M,,*57

$GPGGA,194255.000,0010.9714,S,07829.0611,W,1,10,0.78,2810.2,M,13.7,M,,*57

$GPGSA,A,3,16,22,08,10,03,27,26,31,32,01,,,1.58,0.78,1.37*0A

$GPGSA,A,3,16,22,08,10,03,27,26,31,32,01,,,1.12,0.78,0.81*08

$GPGSV,3,1,12,16,63,335,28,51,56,270,32,27,51,159,35,22,44,285,27*76

$GPVTG,289.07,T,,M,5.78,N,10.70,K,A*05

$GPGGA,194257.000,0010.9709,S,07829.0637,W,1,10,0.78,2809.9,M,13.7,M,,*5E

$GPGGA,194258.000,0010.9699,S,07829.0647,W,1,10,0.78,2809.7,M,13.7,M,,*50

$GPGSA,A,3,16,22,08,10,03,27,26,31,32,01,,,1.58,0.78,1.37*0A

$GPGSA,A,3,16,22,08,10,03,27,26,31,32,01,,,1.12,0.78,0.81*08

$GPRMC,194259.000,A,0010.9692,S,07829.0648,W,4.08,8.05,230217,,,A*6C

$GPRMC,194300.000,A,0010.9682,S,07829.0638,W,5.17,41.24,230217,,,A*56

$GPVTG,41.24,T,,M,5.17,N,9.58,K,A*09

$GPGSV,3,2,12,26,39,010,21,32,35,107,39,03,30,302,26,08,25,197,31*7B

$GPGSV,3,3,12,10,14,154,31,31,13,035,22,01,08,242,19,11,08,223,26*70

$GPGSA,A,3,16,22,08,10,03,27,26,31,32,01,,,1.58,0.78,1.37*0A

$GPRMC,194302.000,A,0010.9665,S,07829.0625,W,2.11,33.21,230217,,,A*50

$GPRMC,194303.000,A,0010.9674,S,07829.0625,W,4.62,173.29,230217,,,A*6E

$GPVTG,173.29,T,,M,4.62,N,8.57,K,A*39

$GPVTG,164.10,T,,M,6.08,N,11.26,K,A*05

$GPGGA,194305.000,0010.9703,S,07829.0613,W,1,10,0.78,2808.7,M,13.7,M,,*5B

$GPGGA,194306.000,0010.9709,S,07829.0604,W,1,10,0.78,2809.3,M,13.7,M,,*51

$GPGSA,A,3,16,22,08,10,03,27,26,31,32,01,,,1.58,0.78,1.37*0A

$GPRMC,194306.000,A,0010.9709,S,07829.0604,W,3.05,112.79,230217,,,A*67

$GPVTG,112.79,T,,M,3.05,N,5.65,K,A*31

$GPVTG,108.59,T,,M,3.34,N,6.20,K,A*38

$GPGGA,194308.000,0010.9715,S,07829.0587,W,1,10,0.78,2809.7,M,13.7,M,,*5E

$GPGGA,194309.000,0010.9718,S,07829.0584,W,1,10,0.78,2809.8,M,13.7,M,,*5E

$GPGSA,A,3,16,22,08,10,03,27,26,31,32,01,,,1.12,0.78,0.81*08

$GPGSA,A,3,16,22,08,10,03,27,26,31,32,01,,,1.12,0.78,0.81*08

$GPRMC,194310.000,A,0010.9722,S,07829.0580,W,0.10,108.59,230217,,,A*68

$GPGSV,3,1,12,16,63,335,32,51,56,270,34,27,51,159,34,22,44,284,35*78

$GPGSV,3,2,12,26,39,010,23,32,35,108,36,03,30,302,28,08,25,197,34*72

$GPGGA,194312.000,0
$GPRMC,194856.000,A,0010.9375,S,07829.0516,W,3.19,109.57,230217,,,D*68

$GPVTG,109.57,T,,M,3.19,N,5.91,K,D*34
*08

$GPGSA,A,3,16,22,08,10,03,27,26,31,32,01,,,1.58,0.78,1.37*0A

$GPRMC,194313.000,A,0010.9708,S,07829.0577,W,0.20,108.59,230217,,,D*6D

$GPRMC,194314.000,A,0010.9701,S,07829.0578,W,0.21,108.59,230217,,,D*6D

$GPVTG,108.59,T,,M,0.21,N,0.39,K,D*34

$GPVTG,108.59,T,,M,0.11,N,0.20,K,D*3F

$GPGGA,194316.000,0010.9706,S,07829.0575,W,2,10,0.78,2809.4,M,13.7,M,0000,0000*5E

$GPGSV,3,3,12,10,14,154,30,31,13,035,25,01,08,242,32,11,08,223,34*7C

$GPRMC,194316.000,A,0010.9706,S,07829.0575,W,0.10,108.59,230217,,,D*67

$GPRMC,194317.000,A,0010.9709,S,07829.0575,W,0.09,108.59,230217,,,D*61

$GPVTG,108.59,T,,M,0.09,N,0.16,K,D*33

$GPVTG,108.59,T,,M,0.12,N,0.22,K,D*3E

$GPGGA,194319.000,0010.9715,S,07829.0571,W,2,10,0.78,2809.5,M,13.7,M,0000,0000*56

$GPGGA,194320.000,0010.9717,S,07829.0573,W,2,10,0.78,2809.4,M,13.7,M,0000,0000*5D

$GPGSA,A,3,16,22,08,10,03,27,26,31,32,01,,,1.12,0.78,0.81*08

$GPGSA,A,3,16,22,08,10,03,27,26,31,32,01,,,1.12,0.78,0.81*08

$GPGSV,3,1,12,16,63,335,31,51,56,270,39,27,51,159,32,22,44,284,37*72

$GPVTG,108.59,T,,M,0.08,N,0.15,K,D*31

$GPGGA,194322.000,0010.9718,S,07829.0574,W,2,10,0.78,2809.6,M,13.7,M,0000,0000*55

$GPGGA,194323.000,0010.9717,S,07829.0576,W,2,10,0.78,2809.7,M,13.7,M,0000,0000*58

$GPGSA,A,3,16,22,08,10,03,27,26,31,32,01,,,1.12,0.78,0.81*08

$GPGSA,A,3,16,22,08,10,03,27,26,31,32,01,,,1.12,0.78,0.81*08

$GPRMC,194324.000,A,0010.9715,S,07829.0578,W,0.09,108.59,230217,,,D*61

$GPRMC,194325.000,A,0010.9715,S,07829.0580,W,0.10,108.59,230217,,,D*6F

$GPVTG,108.59,T,,M,0.10,N,0.18,K,D*35

$GPGSV,3,2,12,26,39,010,31,32,35,108,38,03,30,302,28,08,26,197,36*7E

$GPGSV,3,3,12,10,14,154,32,31,13,035,22,01,08,242,24,11,08,222,27*7D

$GPGSA,A,3,16,22,08,10,27,26,31,32,01,,,,1.16,0.84,0.81*0C

$GPRMC,194327.000,A,0010.9711,S,07829.0583,W,0.14,108.59,230217,,,D*6E

$GPRMC,194328.000,A,0010.9706,S,07829.0587,W,0.19,108.59,230217,,,D*6E

$GPVTG,108.59,T,,M,0.19,N,0.35,K,D*33

$GPVTG,108.59,T,,M,1.85,N,3.44,K,D*32

$GPGGA,194330.000,0010.9696,S,07829.0587,W,2,10,0.78,2810.2,M,13.7,M,0000,0000*51

$GPGGA,194331.000,0010.9696,S,07829.0580,W,2,10,0.78,2810.3,M,13.7,M,0000,0000*56

$GPGSA,A,3,16,22,08,10,03,27,26,31,32,01,,,1.58,0.78,1.37*0A

$GPRMC,194331.000,A,0010.9696,S,07829.0580,W,1.60,108.59,230217,,,D*66

$GPVTG,108.59,T,,M,1.60,N,2.96,K,D*37

$GPVTG,108.59,T,,M,2.28,N,4.22,K,D*31

$GPGGA,194333.000,0010.9696,S,07829.0568,W,2,10,0.78,2810.4,M,13.7,M,0000,0000*55

$GPGGA,194334.000,0010.9696,S,07829.0568,W,2,10,0.78,2810.4,M,13.7,M,0000,0000*52

$GPGSA,A,3,16,22,08,10,03,27,26,31,32,01,,,1.12,0.78,0.81*08

$GPGSA,A,3,16,22,08,10,27,26,31,32,01,,,,1.16,0.84,0.81*0C

$GPRMC,194335.000,A,0010.9693,S,07829.0570,W,0.06,108.59,230217,,,D*69

$GPGSV,3,1,12,16,63,336,31,51,56,270,33,27,51,159,37,22,44,284,27*7F

$GPGSV,3,2,12,26,39,010,32,32,35,108,29,03,30,302,20,08,26,197,33*70

$GPGGA,194337.000,0010.9683,S,07829.0573,W,2,10,0.78,2810.3,M,13.7,M,0000,0000*58

$GPGSA,A,3,16,22,08,10,03,27,26,31,32,01,,,1.12,0.78,0.81*08

$GPGSA,A,3,16,22,08,10,03,27,26,31,32,01,,,1.12,0.78,0.81*08

$GPRMC,194338.000,A,0010.9674,S,07829.0575,W,0.26,108.59,230217,,,D*6A

$GPRMC,194339.000,A,0010.9661,S,07829.0574,W,5.13,7.24,230217,,,D*69

$GPVTG,7.24,T,,M,5.13,N,9.50,K,D*32

$GPVTG,16.13,T,,M,6.25,N,11.59,K,D*30

$GPGGA,194341.000,0010.9631,S,07829.0567,W,2,10,0.78,2810.3,M,13.7,M,0000,0000*55

$GPGSV,3,3,12,10,14,154,30,31,13,035,24,01,08,242,22,11,08,222,32*7B

$GPRMC,194341.000,A,0010.9631,S,07829.0567,W,4.41,15.02,230217,,,D*50

$GPRMC,194342.000,A,0010.9620,S,07829.0564,W,2.89,15.02,230217,,,D*52

$GPVTG,15.02,T,,M,2.89,N,5.36,K,D*0D

$GPVTG,197.91,T,,M,4.76,N,8.81,K,D*3B

$GPGGA,194344.000,0010.9640,S,07829.0569,W,2,10,0.78,2810.0,M,13.7,M,0000,0000*5B

$GPGGA,194345.000,0010.9645,S,07829.0563,W,2,10,0.78,2810.1,M,13.7,M,0000,0000*54

$GPGSA,A,3,16,22,08,10,03,27,26,31,32,01,,,1.12,0.78,0.81*08

$GPGSA,A,3,16,22,08,10,03,27,26,31,32,01,,,1.12,0.78,0.81*08

$GPGSV,3,1,12,16,63,336,32,51,56,270,37,27,51,159,29,22,45,284,36*76

$GPVTG,53.17,T,,M,4.04,N,7.49,K,D*02

$GPGGA,194347.000,0010.9627,S,07829.0548,W,2,10,0.78,2809.9,M,13.7,M,0000,0000*5B

$GPGGA,194348.000,0010.9613,S,07829.0550,W,2,10,0.78,2810.0,M,13.7,M,0000,0000*5B

$GPGSA,A,3,16,22,08,10,03,27,26,31,32,01,,,1.58,0.78,1.37*0A

$GPGSA,A,3,16,22,08,10,03,27,26,31,32,01,,,1.58,0.78,1.37*0A

$GPRMC,194349.000,A,0010.9598,S,07829.0553,W,3.16,321.58,230217,,,D*61

$GPRMC,194350.000,A,0010.9594,S,07829.0556,W,1.96,321.58,230217,,,D*6A

$GPVTG,321.58,T,,M,1.96,N,3.64,K,D*3A

$GPGSV,3,2,12,26,39,010,35,32,35,108,40,03,30,302,35,08,26,197,26*78

$GPGSV,3,3,12,10,14,154,22,31,13,036,36,01,08,241,20,11,08,222,19*70

$GPGSA,A,3,16,22,08,10,03,27,26,31,32,01,,,1.12,0.78,0.81*08

$GPRMC,194352.000,A,0010.9601,S,07829.0561,W,3.84,153.02,230217,,,D*6A

$GPRMC,194353.000,A,0010.9610,S,07829.0555,W,3.79,145.37,230217,,,D*6F

$GPVTG,145.37,T,,M,3.79,N,7.02,K,D*34

$GPVTG,145.37,T,,M,2.83,N,5.24,K,D*36

$GPGGA,194355.000,0010.9622,S,07829.0545,W,2,10,0.78,2810.3,M,13.7,M,0000,0000*52

$GPGGA,194356.000,0010.9627,S,07829.0538,W,2,10,0.78,2810.4,M,13.7,M,0000,0000*59

$GPGSA,A,3,16,22,08,10,03,27,26,31,32,01,,,1.12,0.78,0.81*08

$GPRMC,194356.000,A,0010.9627,S,07829.0538,W,2.22,145.37,230217,,,D*6A

$GPVTG,145.37,T,,M,2.22,N,4.12,K,D*39

$GPVTG,145.37,T,,M,2.68,N,4.97,K,D*3A

$GPGGA,194358.000,0010.9643,S,07829.0530,W,2,10,0.78,2810.7,M,13.7,M,0000,0000*5E

$GPGGA,194359.000,0010.9650,S,07829.0529,W,2,10,0.78,2810.9,M,13.7,M,0000,0000*5B

$GPGSA,A,3,16,22,08,10,03,27,26,31,32,01,,,1.12,0.78,0.81*08

$GPGSA,A,3,16,22,08,10,03,27,26,31,32,01,,,1.12,0.78,0.81*08

$GPRMC,194400.000,A,0010.9656,S,07829.0530,W,2.12,145.37,230217,,,D*63

$GPGSV,3,1,12,16,63,336,35,51,56,270,38,27,51,159,28,22,45,284,39*70

$GPGSV,3,2,12,26,39,010,39,32,35,108,33,03,30,302,34,08,26,196,23*75

$GPGGA,194402.000,0010.9663,S,07829.0528,W,2,10,0.78,2811.3,M,13.7,M,0000,0000*58

$GPGSA,A,3,16,22,08,10,03,27,26,31,32,01,,,1.12,0.78,0.81*08

$GPGSA,A,3,16,22,08,10,03,27,26,31,32,01,,,1.12,0.78,0.81*08

$GPRMC,194403.000,A,0010.9662,S,07829.0527,W,0.08,145.37,230217,,,D*68

$GPRMC,194404.000,A,0010.9658,S,07829.0528,W,0.15,145.37,230217,,,D*65

$GPVTG,145.37,T,,M,0.15,N,0.28,K,D*32

$GPVTG,145.37,T,,M,0.25,N,0.46,K,D*39

$GPGGA,194406.000,0010.9646,S,07829.0532,W,2,10,0.78,2811.1,M,13.7,M,0000,0000*52

$GPGSV,3,3,12,10,14,154,38,31,13,036,27,01,08,241,23,11,08,222,34*77

$GPRMC,194406.000,A,0010.9646,S,07829.0532,W,4.08,333.87,230217,,,D*63

$GPRMC,194407.000,A,0010.9633,S,07829.0538,W,5.78,338.90,230217,,,D*61

$GPVTG,338.90,T,,M,5.78,N,10.71,K,D*04

$GPVTG,345.00,T,,M,6.45,N,11.95,K,D*01

$GPGGA,194409.000,0010.9603,S,07829.0546,W,2,10,0.78,2811.0,M,13.7,M,0000,0000*5E

$GPGGA,194410.000,0010.9605,S,07829.0548,W,2,10,0.78,2810.9,M,13.7,M,0000,0000*56

$GPGSA,A,3,16,22,08,10,03,27,26,31,32,01,,,1.12,0.78,0.81*08

$GPGSA,A,3,16,22,08,10,03,27,26,31,32,,,,1.89,0.89,1.67*0C

$GPGSV,3,1,12,16,62,336,40,51,56,270,33,27,51,159,26,22,45,284,33*7C

$GPVTG,185.81,T,,M,6.61,N,12.25,K,D*08

$GPGGA,194412.000,0010.9634,S,07829.0554,W,2,10,0.78,2811.3,M,13.7,M,0000,0000*50

$GPGGA,194413.000,0010.9643,S,07829.0561,W,2,10,0.78,2811.4,M,13.7,M,0000,0000*50

$GPGSA,A,3,16,22,08,10,03,27,26,31,32,01,,,1.12,0.78,0.81*08

$GPGSA,A,3,16,22,08,10,03,27,26,31,32,01,,,1.12,0.78,0.81*08

$GPRMC,194414.000,A,0010.9638,S,07829.0564,W,1.83,306.68,230217,,,D*6B

$GPRMC,194415.000,A,0010.9629,S,07829.0564,W,2.06,358.82,230217,,,D*6B

$GPVTG,358.82,T,,M,2.06,N,3.82,K,D*31

$GPGSV,3,2,12,26,39,010,27,32,35,108,36,03,30,302,26,08,26,196,31*7F

$GPGSV,3,3,12,10,14,154,30,31,13,036,30,01,08,241,24,11,08,222,24*7F

$GPGSA,A,3,16,22,08,10,03,27,26,31,32,01,,,1.58,0.78,1.37*0A

$GPRMC,194417.000,A,0010.9616,S,07829.0561,W,0.75,86.67,230217,,,D*5D

$GPRMC,194418.000,A,0010.9614,S,07829.0559,W,0.52,86.67,230217,,,D*5E

$GPVTG,86.67,T,,M,0.52,N,0.96,K,D*0F

$GPVTG,184.73,T,,M,1.11,N,2.06,K,D*34

$GPGGA,194420.000,0010.9618,S,07829.0557,W,2,10,0.78,2811.3,M,13.7,M,0000,0000*5C

$GPGGA,194421.000,0010.9622,S,07829.0555,W,2,10,0.78,2811.2,M,13.7,M,0000,0000*57

$GPGSA,A,3,16,22,08,10,03,27,26,31,32,01,,,1.12,0.78,0.81*08

$GPRMC,194421.000,A,0010.9622,S,07829.0555,W,1.92,166.80,230217,,,D*66

$GPVTG,166.80,T,,M,1.92,N,3.56,K,D*3B

$GPVTG,170.79,T,,M,1.52,N,2.81,K,D*3D

$GPGGA,194423.000,0010.9623,S,07829.0550,W,2,10,0.78,2811.0,M,13.7,M,0000,0000*53

$GPGGA,194424.000,0010.9621,S,07829.0548,W,2,10,0.78,2810.8,M,13.7,M,0000,0000*56

$GPGSA,A,3,16,22,08,10,03,27,26,31,32,01,,,1.12,0.78,0.81*08

$GPGSA,A,3,16,22,08,10,03,27,26,31,32,01,,,1.12,0.78,0.81*08

$GPRMC,194425.000,A,0010.9619,S,07829.0546,W,0.32,87.12,230217,,,D*56

$GPGSV,3,1,12,16,62,336,39,51,56,270,27,27,51,158,35,22,45,284,26*70

$GPGSV,3,2,12,26,39,010,35,32,35,108,40,03,30,302,25,08,26,196,30*7F

$GPGGA,194427.000,0010.9621,S,07829.0551,W,2,09,0.87,2810.0,M,13.7,M,0000,0000*5D

$GPGSA,A,3,16,22,08,10,03,27,26,31,32,,,,1.22,0.87,0.86*0D

$GPGSA,A,3,16,22,08,10,03,27,26,31,32,01,,,1.12,0.78,0.81*08

$GPRMC,194428.000,A,0010.9622,S,07829.0554,W,1.09,233.99,230217,,,D*67

$GPRMC,194429.000,A,0010.9624,S,07829.0556,W,0.90,228.56,230217,,,D*6A

$GPVTG,228.56,T,,M,0.90,N,1.67,K,D*3A

$GPVTG,200.62,T,,M,1.12,N,2.08,K,D*36

$GPGGA,194431.000,0010.9631,S,07829.0557,W,2,09,0.87,2810.1,M,13.7,M,0000,0000*5C

$GPGSV,3,3,12,10,14,154,22,31,13,036,36,01,08,241,18,11,08,222,21*70

$GPRMC,194431.000,A,0010.9631,S,07829.0557,W,1.46,176.99,230217,,,D*67

$GPRMC,194432.000,A,0010.9637,S,07829.0556,W,1.87,166.21,230217,,,D*6C

$GPVTG,166.21,T,,M,1.87,N,3.46,K,D*35

$GPVTG,162.02,T,,M,1.88,N,3.48,K,D*31

$GPGGA,194434.000,0010.9641,S,07829.0549,W,2,10,0.78,2810.2,M,13.7,M,0000,0000*5A

$GPGGA,194435.000,0010.9638,S,07829.0549,W,2,10,0.78,2810.1,M,13.7,M,0000,0000*56

$GPGSA,A,3,16,22,08,10,03,27,26,31,32,01,,,1.12,0.78,0.81*08

$GPGSA,A,3,16,22,08,10,03,27,26,31,32,01,,,1.12,0.78,0.81*08

$GPGSV,3,1,12,16,62,336,40,51,56,270,32,27,51,158,26,22,45,284,34*7B

$GPVTG,22.63,T,,M,1.24,N,2.30,K,D*0B

$GPGGA,194437.000,0010.9632,S,07829.0546,W,2,10,0.78,2810.0,M,13.7,M,0000,0000*50

$GPGGA,194438.000,0010.9633,S,07829.0544,W,2,10,0.78,2810.0,M,13.7,M,0000,0000*5C

$GPGSA,A,3,16,22,08,10,03,27,26,31,32,01,,,1.12,0.78,0.81*08

$GPGSA,A,3,16,22,08,10,03,27,26,31,32,01,,,1.12,0.78,0.81*08

$GPRMC,194439.000,A,0010.9633,S,07829.0543,W,0.26,37.99,230217,,,D*5B

$GPRMC,194440.000,A,0010.9634,S,07829.0543,W,0.48,37.99,230217,,,D*5A

$GPVTG,37.99,T,,M,0.48,N,0.88,K,D*00

$GPGSV,3,2,12,26,39,010,32,32,35,108,26,03,30,301,38,08,26,196,32*75

$GPGSV,3,3,12,10,13,153,20,31,13,036,34,01,08,241,30,11,08,222,27*7C

$GPGSA,A,3,16,22,08,10,03,27,26,31,32,01,,,1.12,0.78,0.81*08

$GPRMC,194442.000,A,0010.9636,S,07829.0536,W,0.97,91.46,230217,,,D*54

$GPRMC,194443.000,A,0010.9638,S,07829.0535,W,0.68,112.42,230217,,,D*66

$GPVTG,112.42,T,,M,0.68,N,1.26,K,D*37

$GPVTG,121.24,T,,M,0.66,N,1.22,K,D*3D

$GPGGA,194445.000,0010.9642,S,07829.0530,W,2,10,0.78,2809.5,M,13.7,M,0000,0000*5E

$GPGGA,194446.000,0010.9647,S,07829.0526,W,2,10,0.78,2809.4,M,13.7,M,0000,0000*5E

$GPGSA,A,3,16,22,08,10,03,27,26,31,32,01,,,1.12,0.78,0.81*08

$GPRMC,194446.000,A,0010.9647,S,07829.0526,W,1.43,115.58,230217,,,D*6D

$GPVTG,115.58,T,,M,1.43,N,2.66,K,D*34

$GPVTG,124.66,T,,M,1.72,N,3.18,K,D*31

$GPGGA,194448.000,0010.9657,S,07829.0517,W,2,10,0.78,2809.4,M,13.7,M,0000,0000*53

$GPGGA,194449.000,0010.9660,S,07829.0512,W,2,10,0.78,2809.3,M,13.7,M,0000,0000*54

$GPGSA,A,3,16,22,08,10,03,27,26,31,32,01,,,1.12,0.78,0.81*08

$GPGSA,A,3,16,22,08,10,03,27,26,31,32,01,,,1.12,0.78,0.81*08

$GPRMC,194450.000,A,0010.9659,S,07829.0516,W,0.72,264.09,230217,,,D*64

$GPGSV,3,1,12,16,62,336,29,51,56,270,30,27,51,158,33,22,45,283,28*78

$GPGSV,3,2,12,26,39,010,23,32,35,108,38,03,30,301,23,08,26,196,34*76

$GPGGA,194452.000,0010.9654,S,07829.0522,W,2,10,0.78,2809.2,M,13.7,M,0000,0000*5B

$GPGSA,A,3,16,22,08,10,03,27,26,31,32,01,,,1.12,0.78,0.81*08

$GPGSA,A,3,16,22,08,10,03,27,26,31,32,01,,,1.12,0.78,0.81*08

$GPRMC,194453.000,A,0010.9649,S,07829.0523,W,1.65,335.90,230217,,,D*62

$GPRMC,194454.000,A,0010.9644,S,07829.0523,W,1.64,355.32,230217,,,D*67

$GPVTG,355.32,T,,M,1.64,N,3.03,K,D*39

$GPVTG,4.02,T,,M,2.74,N,5.08,K,D*32

$GPGGA,194456.000,0010.9626,S,07829.0521,W,2,10,0.78,2809.1,M,13.7,M,0000,0000*5A

$GPGSV,3,3,12,10,13,153,38,31,13,036,25,01,08,241,21,11,08,222,32*71

$GPRMC,194456.000,A,0010.9626,S,07829.0521,W,4.61,14.22,230217,,,D*54

$GPRMC,194457.000,A,0010.9612,S,07829.0520,W,5.59,4.27,230217,,,D*6D

$GPVTG,4.27,T,,M,5.59,N,10.35,K,D*07

$GPVTG,9.44,T,,M,6.18,N,11.45,K,D*0F

$GPGGA,194459.000,0010.9578,S,07829.0510,W,2,10,0.78,2809.3,M,13.7,M,0000,0000*5D

$GPGGA,194500.000,0010.9568,S,07829.0500,W,2,10,0.78,2809.3,M,13.7,M,0000,0000*50

$GPGSA,A,3,16,22,08,10,03,27,26,31,32,01,,,1.58,0.78,1.37*0A

$GPGSA,A,3,16,22,08,10,03,27,26,31,32,01,,,1.58,0.78,1.37*0A

$GPGSV,3,1,12,16,62,336,33,51,56,270,35,27,51,158,35,22,45,283,37*7E

$GPVTG,27.06,T,,M,2.85,N,5.28,K,D*0B

$GPGGA,194502.000,0010.9553,S,07829.0489,W,2,09,0.87,2809.8,M,13.7,M,0000,0000*59

$GPGGA,194503.000,0010.9539,S,07829.0485,W,2,10,0.78,2809.9,M,13.7,M,0000,0000*51

$GPGSA,A,3,16,22,08,10,03,27,26,31,32,01,,,1.58,0.78,1.37*0A

$GPGSA,A,3,16,22,08,10,03,27,26,31,32,01,,,1.58,0.78,1.37*0A

$GPRMC,194504.000,A,0010.9521,S,07829.0477,W,6.90,31.90,230217,,,D*56

$GPRMC,194505.000,A,0010.9505,S,07829.0470,W,5.83,21.23,230217,,,D*5E

$GPVTG,21.23,T,,M,5.83,N,10.80,K,D*3D

$GPGSV,3,2,12,26,38,010,28,32,35,109,37,03,30,301,23,08,26,196,36*70

$GPGSV,3,3,12,10,13,153,35,31,13,036,28,01,08,241,21,11,08,222,31*72

$GPGSA,A,3,16,22,08,10,03,27,26,31,32,01,,,1.58,0.78,1.37*0A

$GPRMC,194507.000,A,0010.9463,S,07829.0479,W,9.34,338.27,230217,,,D*6B

$GPRMC,194508.000,A,0010.9440,S,07829.0494,W,9.40,321.75,230217,,,D*6A

$GPVTG,321.75,T,,M,9.40,N,17.43,K,D*06

$GPVTG,315.84,T,,M,7.84,N,14.52,K,D*0A

$GPGGA,194510.000,0010.9420,S,07829.0524,W,2,09,0.89,2809.8,M,13.7,M,0000,0000*57

$GPGGA,194511.000,0010.9427,S,07829.0530,W,2,10,0.78,2809.3,M,13.7,M,0000,0000*59

$GPGSA,A,3,16,22,08,10,03,27,26,31,32,01,,,1.58,0.78,1.37*0A

$GPRMC,194511.000,A,0010.9427,S,07829.0530,W,3.94,198.66,230217,,,D*6D

$GPVTG,198.66,T,,M,3.94,N,7.31,K,D*33

$GPVTG,119.44,T,,M,4.93,N,9.13,K,D*34

$GPGGA,194513.000,0010.9442,S,07829.0508,W,2,10,0.78,2809.7,M,13.7,M,0000,0000*57

$GPGGA,194514.000,0010.9443,S,07829.0492,W,2,10,0.78,2809.8,M,13.7,M,0000,0000*5C

$GPGSA,A,3,16,22,08,10,03,27,26,31,32,01,,,1.58,0.78,1.37*0A

$GPGSA,A,3,16,22,08,10,03,27,26,31,32,01,,,1.58,0.78,1.37*0A

$GPRMC,194515.000,A,0010.9442,S,07829.0478,W,3.97,64.38,230217,,,D*5D

$GPGSV,3,1,12,16,62,336,38,51,56,270,35,27,51,158,30,22,45,283,36*71

$GPGSV,3,2,12,26,38,010,37,32,35,109,32,03,30,301,36,08,26,196,20*78

$GPGGA,194517.000,0010.9430,S,07829.0464,W,2,09,0.87,2810.1,M,13.7,M,0000,0000*5B

$GPGSA,A,3,16,22,08,10,03,27,26,31,32,,,,1.22,0.87,0.86*0D

$GPGSA,A,3,16,22,08,10,03,27,26,31,32,,,,1.22,0.87,0.86*0D

$GPRMC,194518.000,A,0010.9425,S,07829.0465,W,1.83,64.38,230217,,,D*5A

$GPRMC,194519.000,A,0010.9420,S,07829.0467,W,1.99,64.38,230217,,,D*57

$GPVTG,64.38,T,,M,1.99,N,3.69,K,D*0C

$GPVTG,64.38,T,,M,1.55,N,2.87,K,D*0D

$GPGGA,194521.000,0010.9411,S,07829.0472,W,2,10,0.78,2810.0,M,13.7,M,0000,0000*53

$GPGSV,3,3,12,10,13,153,23,31,13,036,38,01,08,241,18,11,08,222,19*74

$GPRMC,194521.000,A,0010.9411,S,07829.0472,W,1.62,64.38,230217,,,D*5E

$GPRMC,194522.000,A,0010.9408,S,07829.0476,W,1.20,64.38,230217,,,D*57

$GPVTG,64.38,T,,M,1.20,N,2.22,K,D*00

$GPVTG,64.38,T,,M,0.56,N,1.04,K,D*07

$GPGGA,194524.000,0010.9407,S,07829.0479,W,2,10,0.78,2810.2,M,13.7,M,0000,0000*58

$GPGGA,194525.000,0010.9409,S,07829.0482,W,2,10,0.78,2810.4,M,13.7,M,0000,0000*55

$GPGSA,A,3,16,22,08,10,03,27,26,31,32,01,,,1.12,0.78,0.81*08

$GPGSA,A,3,16,22,08,10,03,27,26,31,32,01,,,1.12,0.78,0.81*08

$GPGSV,3,1,12,16,62,337,36,51,56,270,35,27,51,158,27,22,45,283,37*79

$GPVTG,64.38,T,,M,0.93,N,1.73,K,D*0E

$GPGGA,194527.000,0010.9413,S,07829.0480,W,2,09,0.87,2810.8,M,13.7,M,0000,0000*5A

$GPGGA,194528.000,0010.9411,S,07829.0476,W,2,09,0.87,2810.8,M,13.7,M,0000,0000*5E

$GPGSA,A,3,16,22,08,10,03,27,26,31,32,,,,1.22,0.87,0.86*0D

$GPGSA,A,3,16,22,08,10,03,27,26,31,32,,,,1.22,0.87,0.86*0D

$GPRMC,194529.000,A,0010.9417,S,07829.0472,W,1.81,209.38,230217,,,D*64

$GPRMC,194530.000,A,0010.9423,S,07829.0474,W,3.33,208.52,230217,,,D*6B

$GPVTG,208.52,T,,M,3.33,N,6.18,K,D*39

$GPGSV,3,2,12,26,38,010,39,32,35,109,33,03,30,301,32,08,26,196,21*72

$GPGSV,3,3,12,10,13,153,26,31,13,036,37,01,08,241,16,11,08,222,19*70

$GPGSA,A,3,16,22,08,10,03,27,26,31,32,,,,1.22,0.87,0.86*0D

$GPRMC,194532.000,A,0010.9433,S,07829.0474,W,0.40,196.56,230217,,,D*6F

$GPRMC,194533.000,A,0010.9433,S,07829.0473,W,0.45,196.56,230217,,,D*6C

$GPVTG,196.56,T,,M,0.45,N,0.84,K,D*38

$GPVTG,288.87,T,,M,0.91,N,1.68,K,D*32

$GPGGA,194535.000,0010.9428,S,07829.0478,W,2,10,0.78,2809.1,M,13.7,M,0000,0000*5F

$GPGGA,194536.000,0010.9425,S,07829.0484,W,2,09,0.87,2808.8,M,13.7,M,0000,0000*52

$GPGSA,A,3,16,22,08,10,03,27,26,31,32,,,,1.22,0.87,0.86*0D

$GPRMC,194536.000,A,0010.9425,S,07829.0484,W,1.60,306.88,230217,,,D*68

$GPVTG,306.88,T,,M,1.60,N,2.96,K,D*37

$GPVTG,286.16,T,,M,1.43,N,2.64,K,D*35

$GPGGA,194538.000,0010.9422,S,07829.0493,W,2,09,0.87,2808.4,M,13.7,M,0000,0000*51

$GPGGA,194539.000,0010.9425,S,07829.0495,W,2,10,0.78,2808.4,M,13.7,M,0000,0000*59

$GPGSA,A,3,16,22,08,10,03,27,26,31,32,01,,,1.12,0.78,0.81*08

$GPGSA,A,3,16,22,08,10,03,27,26,31,32,01,,,1.12,0.78,0.81*08

$GPRMC,194540.000,A,0010.9427,S,07829.0495,W,0.52,269.05,230217,,,D*66

$GPGSV,3,1,12,16,62,337,42,51,56,270,34,27,52,158,30,22,45,283,38*71

$GPGSV,3,2,12,26,38,010,38,32,35,109,29,03,30,301,36,08,26,196,23*7E

$GPGGA,194542.000,0010.9444,S,07829.0499,W,2,10,0.78,2808.2,M,13.7,M,0000,0000*58

$GPGSA,A,3,16,22,08,10,03,27,26,31,32,01,,,1.12,0.78,0.81*08

$GPGSA,A,3,16,22,08,10,03,27,26,31,32,01,,,1.12,0.78,0.81*08

$GPRMC,194543.000,A,0010.9463,S,07829.0505,W,9.73,197.85,230217,,,D*6D

$GPRMC,194544.000,A,0010.9492,S,07829.0515,W,11.88,200.92,230217,,,D*53

$GPVTG,200.92,T,,M,11.88,N,22.02,K,D*33

$GPVTG,208.12,T,,M,12.33,N,22.86,K,D*3C

$GPGGA,194546.000,0010.9555,S,07829.0549,W,2,10,0.78,2807.8,M,13.7,M,0000,0000*54

$GPGSV,3,3,12,10,13,153,22,31,13,036,30,01,08,241,18,11,08,222,19*7D

$GPRMC,194546.000,A,0010.9555,S,07829.0549,W,12.97,212.78,230217,,,D*58

$GPRMC,194547.000,A,0010.9589,S,07829.0570,W,14.05,211.23,230217,,,D*52

$GPVTG,211.23,T,,M,14.05,N,26.03,K,D*3C

$GPVTG,209.23,T,,M,13.97,N,25.89,K,D*38

$GPGGA,194549.000,0010.9658,S,07829.0606,W,2,10,0.78,2807.2,M,13.7,M,0000,0000*57

$GPGGA,194550.000,0010.9690,S,07829.0620,W,2,10,0.78,2806.9,M,13.7,M,0000,0000*55

$GPGSA,A,3,16,22,08,10,03,27,26,31,32,01,,,1.58,0.78,1.37*0A

$GPGSA,A,3,16,22,08,10,03,27,26,31,32,01,,,1.58,0.78,1.37*0A

$GPGSV,3,1,12,16,62,337,34,51,56,270,32,27,52,158,33,22,45,283,32*7F

$GPVTG,198.72,T,,M,9.35,N,17.32,K,D*05

$GPGGA,194552.000,0010.9744,S,07829.0636,W,2,10,0.78,2806.5,M,13.7,M,0000,0000*54

$GPGGA,194553.000,0010.9769,S,07829.0639,W,2,10,0.78,2806.2,M,13.7,M,0000,0000*52

$GPGSA,A,3,16,22,08,10,03,27,26,31,32,01,,,1.58,0.78,1.37*0A

$GPGSA,A,3,16,22,08,10,03,27,26,31,32,01,,,1.57,0.78,1.37*05

$GPRMC,194554.000,A,0010.9788,S,07829.0645,W,5.54,202.52,230217,,,D*66

$GPRMC,194555.000,A,0010.9798,S,07829.0651,W,3.05,228.88,230217,,,D*6E

$GPVTG,228.88,T,,M,3.05,N,5.66,K,D*33

$GPGSV,3,2,12,26,38,010,27,32,35,109,37,03,30,301,28,08,26,196,36*74

$GPGSV,3,3,12,10,13,153,33,31,13,036,21,01,08,241,26,11,08,222,33*78

$GPGSA,A,3,16,22,08,10,03,27,26,31,32,01,,,1.12,0.78,0.81*08

$GPRMC,194557.000,A,0010.9792,S,07829.0655,W,4.42,10.55,230217,,,D*5F

$GPRMC,194558.000,A,0010.9779,S,07829.0652,W,5.85,7.33,230217,,,D*6E

$GPVTG,7.33,T,,M,5.85,N,10.83,K,D*0D

$GPVTG,32.64,T,,M,5.52,N,10.24,K,D*3E

$GPGGA,194600.000,0010.9754,S,07829.0640,W,2,10,0.78,2803.5,M,13.7,M,0000,0000*55

$GPGGA,194601.000,0010.9740,S,07829.0638,W,2,10,0.78,2803.4,M,13.7,M,0000,0000*5F

$GPGSA,A,3,16,22,08,10,03,27,26,31,32,01,,,1.58,0.78,1.37*0A

$GPRMC,194601.000,A,0010.9740,S,07829.0638,W,4.95,9.49,230217,,,D*64

$GPVTG,9.49,T,,M,4.95,N,9.17,K,D*3B

$GPVTG,14.38,T,,M,4.09,N,7.57,K,D*0E

$GPGGA,194603.000,0010.9723,S,07829.0632,W,2,10,0.78,2803.5,M,13.7,M,0000,0000*53

$GPGGA,194604.000,0010.9719,S,07829.0630,W,2,10,0.78,2803.6,M,13.7,M,0000,0000*5C

$GPGSA,A,3,16,22,08,10,03,27,26,31,32,01,,,1.57,0.78,1.37*05

$GPGSA,A,3,16,22,08,10,03,27,26,31,32,01,,,1.58,0.78,1.37*0A

$GPRMC,194605.000,A,0010.9718,S,07829.0626,W,0.14,14.38,230217,,,D*55

$GPGSV,3,1,12,16,61,337,34,51,56,270,37,27,52,157,42,22,45,282,37*74

$GPGSV,3,2,12,26,38,010,26,32,35,109,33,03,30,301,32,08,26,196,37*7B

$GPGGA,194607.000,0010.9714,S,07829.0613,W,2,10,0.78,2803.8,M,13.7,M,0000,0000*5D

$GPGSA,A,3,16,22,08,10,03,27,26,31,32,01,,,1.12,0.78,0.81*08

$GPGSA,A,3,16,22,08,10,03,27,26,31,32,01,,,1.58,0.78,1.37*0A

$GPRMC,194608.000,A,0010.9712,S,07829.0612,W,0.15,14.38,230217,,,D*54

$GPRMC,194609.000,A,0010.9709,S,07829.0612,W,0.16,14.38,230217,,,D*5C

$GPVTG,14.38,T,,M,0.16,N,0.30,K,D*02

$GPVTG,14.38,T,,M,0.19,N,0.35,K,D*08

$GPGGA,194611.000,0010.9701,S,07829.0610,W,2,10,0.78,2803.1,M,13.7,M,0000,0000*54

$GPGSV,3,3,12,10,13,153,36,31,13,037,27,01,08,241,20,11,08,222,31*7E

$GPRMC,194611.000,A,0010.9701,S,07829.0610,W,0.22,14.38,230217,,,D*58

$GPRMC,194612.000,A,0010.9694,S,07829.0611,W,0.24,14.38,230217,,,D*51

$GPVTG,14.38,T,,M,0.24,N,0.44,K,D*00

$GPVTG,14.38,T,,M,2.53,N,4.69,K,D*09

$GPGGA,194614.000,0010.9682,S,07829.0610,W,2,10,0.78,2803.1,M,13.7,M,0000,0000*5B

$GPGGA,194615.000,0010.9676,S,07829.0610,W,2,10,0.78,2803.3,M,13.7,M,0000,0000*53

$GPGSA,A,3,16,22,08,10,03,27,26,31,32,01,,,1.57,0.78,1.37*05

$GPGSA,A,3,16,22,08,10,03,27,26,31,32,01,,,1.57,0.78,1.37*05

$GPGSV,3,1,12,16,61,337,31,51,56,270,31,27,52,157,39,22,45,282,37*7B

$GPVTG,14.38,T,,M,2.09,N,3.88,K,D*0E

$GPGGA,194617.000,0010.9665,S,07829.0608,W,2,10,0.78,2803.9,M,13.7,M,0000,0000*50

$GPGGA,194618.000,0010.9659,S,07829.0605,W,2,10,0.78,2804.0,M,13.7,M,0000,0000*53

$GPGSA,A,3,16,22,08,10,03,27,26,31,32,01,,,1.12,0.78,0.81*08

$GPGSA,A,3,16,22,08,10,03,27,26,31,32,01,,,1.12,0.78,0.81*08

$GPRMC,194619.000,A,0010.9653,S,07829.0603,W,2.53,14.38,230217,,,D*50

$GPRMC,194620.000,A,0010.9647,S,07829.0600,W,2.85,14.38,230217,,,D*57

$GPVTG,14.38,T,,M,2.85,N,5.28,K,D*06

$GPGSV,3,2,12,26,38,010,24,32,35,109,39,03,30,300,32,08,27,196,40*73

$GPGSV,3,3,12,10,13,153,34,31,13,037,23,01,08,240,26,11,08,222,35*7B

$GPGSA,A,3,16,22,08,10,03,27,26,31,32,01,,,1.12,0.78,0.81*08

$GPRMC,194622.000,A,0010.9634,S,07829.0594,W,2.05,14.38,230217,,,D*57

$GPRMC,194623.000,A,0010.9628,S,07829.0591,W,2.26,14.38,230217,,,D*5F

$GPVTG,14.38,T,,M,2.26,N,4.19,K,D*0C

$GPVTG,14.38,T,,M,2.62,N,4.85,K,D*09

$GPGGA,194625.000,0010.9614,S,07829.0586,W,2,10,0.78,2803.4,M,13.7,M,0000,0000*5F

$GPGGA,194626.000,0010.9607,S,07829.0585,W,2,10,0.78,2803.3,M,13.7,M,0000,0000*5A

$GPGSA,A,3,16,22,08,10,03,27,26,31,32,01,,,1.58,0.78,1.37*0A

$GPRMC,194626.000,A,0010.9607,S,07829.0585,W,2.57,14.38,230217,,,D*54

$GPVTG,14.38,T,,M,2.57,N,4.77,K,D*02

$GPVTG,14.38,T,,M,2.24,N,4.15,K,D*02

$GPGGA,194628.000,0010.9593,S,07829.0583,W,2,10,0.78,2803.3,M,13.7,M,0000,0000*5C

$GPGGA,194629.000,0010.9587,S,07829.0582,W,2,10,0.78,2803.2,M,13.7,M,0000,0000*58

$GPGSA,A,3,16,22,08,10,03,27,26,31,32,01,,,1.57,0.78,1.37*05

$GPGSA,A,3,16,22,08,10,03,27,26,31,32,01,,,1.57,0.78,1.37*05

$GPRMC,194630.000,A,0010.9581,S,07829.0581,W,2.52,14.38,230217,,,D*5F

$GPGSV,3,1,12,16,61,338,30,51,56,270,37,27,52,157,40,22,45,282,39*73

$GPGSV,3,2,12,26,38,010,26,32,35,109,32,03,30,300,32,08,27,196,40*7A

$GPGGA,194632.000,0010.9569,S,07829.0580,W,2,10,0.78,2802.9,M,13.7,M,0000,0000*5A

$GPGSA,A,3,16,22,08,10,03,27,26,31,32,01,,,1.12,0.78,0.81*08

$GPGSA,A,3,16,22,08,10,03,27,26,31,32,01,,,1.12,0.78,0.81*08

$GPRMC,194633.000,A,0010.9563,S,07829.0578,W,1.88,14.38,230217,,,D*52

$GPRMC,194634.000,A,0010.9559,S,07829.0577,W,1.46,14.38,230217,,,D*51

$GPVTG,14.38,T,,M,1.46,N,2.71,K,D*01

$GPVTG,14.38,T,,M,1.67,N,3.10,K,D*04

$GPGGA,194636.000,0010.9550,S,07829.0574,W,2,10,0.78,2802.9,M,13.7,M,0000,0000*5F

$GPGSV,3,3,12,10,13,153,30,31,13,037,30,01,08,240,39,11,08,221,36*73

$GPRMC,194636.000,A,0010.9550,S,07829.0574,W,2.15,14.38,230217,,,D*5C

$GPRMC,194637.000,A,0010.9546,S,07829.0570,W,1.96,14.38,230217,,,D*56

$GPVTG,14.38,T,,M,1.96,N,3.64,K,D*09

$GPVTG,14.38,T,,M,2.52,N,4.67,K,D*06

$GPGGA,194639.000,0010.9534,S,07829.0560,W,2,10,0.78,2802.6,M,13.7,M,0000,0000*58

$GPGGA,194640.000,0010.9528,S,07829.0556,W,2,10,0.78,2802.4,M,13.7,M,0000,0000*5C

$GPGSA,A,3,16,22,08,10,03,27,26,31,32,01,,,1.12,0.78,0.81*08

$GPGSA,A,3,16,22,08,10,03,27,26,31,32,01,,,1.57,0.78,1.37*05

$GPGSV,3,1,12,16,61,338,33,51,56,270,37,27,52,157,39,22,45,282,38*7F

$GPVTG,14.38,T,,M,1.96,N,3.62,K,D*0F

$GPGGA,194642.000,0010.9520,S,07829.0548,W,2,10,0.78,2802.2,M,13.7,M,0000,0000*5F

$GPGGA,194643.000,0010.9514,S,07829.0543,W,2,10,0.78,2802.1,M,13.7,M,0000,0000*51

$GPGSA,A,3,16,22,08,10,03,27,26,31,32,01,,,1.12,0.78,0.81*08

$GPGSA,A,3,16,22,08,10,03,27,26,31,32,01,,,1.12,0.78,0.81*08

$GPRMC,194644.000,A,0010.9505,S,07829.0540,W,4.36,356.13,230217,,,D*65

$GPRMC,194645.000,A,0010.9488,S,07829.0543,W,7.04,346.09,230217,,,D*6B

$GPVTG,346.09,T,,M,7.04,N,13.05,K,D*04

$GPGSV,3,2,12,26,38,010,23,32,35,110,34,03,30,300,25,08,27,196,38*78

$GPGSV,3,3,12,10,13,153,35,31,13,037,23,01,08,240,24,11,08,221,30*7E

$GPGSA,A,3,16,22,08,10,03,27,26,31,32,01,,,1.57,0.78,1.36*04

$GPRMC,194647.000,A,0010.9439,S,07829.0556,W,9.72,349.99,230217,,,D*6E

$GPRMC,194648.000,A,0010.9414,S,07829.0558,W,8.49,1.70,230217,,,D*61

$GPVTG,1.70,T,,M,8.49,N,15.72,K,D*0A

$GPVTG,26.57,T,,M,5.50,N,10.19,K,D*37

$GPGGA,194650.000,0010.9389,S,07829.0545,W,2,10,0.78,2800.3,M,13.7,M,0000,0000*57

$GPGGA,194651.000,0010.9387,S,07829.0537,W,2,10,0.78,2799.8,M,13.7,M,0000,0000*59

$GPGSA,A,3,16,22,08,10,03,27,26,31,32,01,,,1.12,0.78,0.81*08

$GPRMC,194651.000,A,0010.9387,S,07829.0537,W,0.18,64.97,230217,,,D*5B

$GPVTG,64.97,T,,M,0.18,N,0.34,K,D*0A

$GPVTG,64.97,T,,M,0.03,N,0.06,K,D*01

$GPGGA,194653.000,0010.9388,S,07829.0536,W,2,10,0.78,2799.8,M,13.7,M,0000,0000*55

$GPGGA,194654.000,0010.9393,S,07829.0534,W,2,10,0.78,2799.9,M,13.7,M,0000,0000*5B

