
$GPVTG,31.05,T,,M,0.47,N,0.88,K,A*09

$GPGGA,153358.000,0010.8136,S,07828.9304,W,1,04,1.94,2863.0,M,13.7,M,,*5E

$GPGGA,153359.000,0010.8131,S,07828.9305,W,1,04,1.94,2855.8,M,13.7,M,,*54

$GPGSA,A,2,31,21,18,25,,,,,,,,,2.18,1.94,1.00*0A

$GPGSA,A,3,31,21,18,25,,,,,,,,,2.18,1.94,1.00*0B

$GPRMC,153400.000,A,0010.8129,S,07828.9307,W,0.18,338.59,200217,,,A*62

$GPGSV,3,1,11,21,59,189,38,51,56,270,,31,53,246,38,18,52,037,32*79

$GPGSV,3,2,11,25,44,100,35,32,22,334,33,04,,,21,10,,,21*78

$GPGGA,153402.000,0010.8115,S,07828.9327,W,1,05,1.77,2800.7,M,13.7,M,,*58

$GPGSA,A,3,31,21,18,32,25,,,,,,,,4.70,1.77,4.35*0C

$GPGSA,A,3,31,21,18,32,25,,,,,,,,1.66,1.34,0.97*05

$GPRMC,153403.000,A,0010.8112,S,07828.9326,W,0.09,50.47,200217,,,A*58

$GPRMC,153404.000,A,0010.8110,S,07828.9324,W,0.14,111.98,200217,,,A*65

$GPVTG,111.98,T,,M,0.14,N,0.27,K,A*3D

$GPVTG,79.12,T,,M,0.14,N,0.26,K,A*01

$GPGGA,153406.000,0010.8107,S,07828.9321,W,1,05,1.34,2808.6,M,13.7,M,,*57

$GPGSV,3,3,11,29,,,18,14,,,21,26,,,23*78

$GPRMC,153406.000,A,0010.8107,S,07828.9321,W,0.18,171.01,200217,,,A*6E

$GPRMC,153407.000,A,0010.8106,S,07828.9320,W,0.27,109.28,200217,,,A*67

$GPVTG,109.28,T,,M,0.27,N,0.50,K,A*3F

$GPVTG,109.98,T,,M,0.25,N,0.46,K,A*31

$GPGGA,153409.000,0010.8104,S,07828.9318,W,1,05,1.34,2808.9,M,13.7,M,,*5E

$GPGGA,153410.000,0010.8103,S,07828.9318,W,1,05,1.34,2808.9,M,13.7,M,,*51

$GPGSA,A,3,31,21,18,32,25,,,,,,,,1.66,1.34,0.97*05

$GPGSA,A,3,31,21,18,32,25,,,,,,,,1.66,1.34,0.97*05

$GPGSV,3,1,11,21,59,189,36,51,56,270,29,31,53,246,36,18,52,037,31*71

$GPVTG,39.28,T,,M,0.05,N,0.10,K,A*09

$GPGGA,153412.000,0010.8101,S,07828.9318,W,1,05,1.34,2807.8,M,13.7,M,,*5F

$GPGGA,153413.000,0010.8099,S,07828.9317,W,1,05,1.34,2808.1,M,13.7,M,,*57

$GPGSA,A,3,31,21,18,32,25,,,,,,,,1.66,1.34,0.97*05

$GPGSA,A,3,31,21,18,32,25,,,,,,,,1.66,1.34,0.97*05

$GPRMC,153414.000,A,0010.8102,S,07828.9314,W,0.26,130.09,200217,,,A*6E

$GPRMC,153415.000,A,0010.8103,S,07828.9311,W,0.30,113.44,200217,,,A*64

$GPVTG,113.44,T,,M,0.30,N,0.55,K,A*3D

$GPGSV,3,2,11,25,44,100,33,32,22,334,30,04,,,34,10,,,32*7B

$GPGSV,3,3,11,29,,,21,14,,,20,26,,,30*71

$GPGSA,A,3,31,21,18,32,25,,,,,,,,1.66,1.34,0.97*05

$GPRMC,153417.000,A,0010.8110,S,07828.9311,W,1.01,187.53,200217,,,A*6C

$GPRMC,153418.000,A,0010.8114,S,07828.9312,W,1.14,197.42,200217,,,A*61

$GPVTG,197.42,T,,M,1.14,N,2.11,K,A*32

$GPVTG,202.27,T,,M,1.44,N,2.67,K,A*3A

$GPGGA,153420.000,0010.8122,S,07828.9316,W,1,05,1.34,2816.1,M,13.7,M,,*58

$GPGGA,153421.000,0010.8125,S,07828.9318,W,1,05,1.34,2816.2,M,13.7,M,,*53

$GPGSA,A,3,31,21,18,32,25,,,,,,,,1.66,1.34,0.97*05

$GPRMC,153421.000,A,0010.8125,S,07828.9318,W,1.75,205.91,200217,,,A*62

$GPVTG,205.91,T,,M,1.75,N,3.25,K,A*35

$GPVTG,216.04,T,,M,1.73,N,3.21,K,A*39

$GPGGA,153423.000,0010.8132,S,07828.9328,W,1,05,1.34,2816.8,M,13.7,M,,*5E

$GPGGA,153424.000,0010.8134,S,07828.9333,W,1,05,1.34,2816.7,M,13.7,M,,*5A

$GPGSA,A,3,31,21,18,32,25,,,,,,,,1.66,1.34,0.97*05

$GPGSA,A,3,31,10,21,18,32,25,,,,,,,1.59,1.25,0.97*08

$GPRMC,153425.000,A,0010.8136,S,07828.9340,W,1.78,251.03,200217,,,A*6E

$GPGSV,3,1,11,21,59,189,37,51,56,270,33,18,53,037,33,31,53,246,30*7E

$GPGSV,3,2,11,25,44,100,28,10,37,000,26,32,22,334,37,04,,,29*4B

$GPGGA,153427.000,0010.8138,S,07828.9350,W,1,06,1.25,2816.0,M,13.7,M,,*54

$GPGSA,A,3,31,10,21,18,32,25,,,,,,,1.59,1.25,0.97*08

$GPGSA,A,3,31,10,21,18,32,25,,,,,,,1.59,1.25,0.97*08

$GPRMC,153428.000,A,0010.8141,S,07828.9355,W,1.54,256.32,200217,,,A*6C

$GPRMC,153429.000,A,0010.8146,S,07828.9361,W,1.74,249.10,200217,,,A*61

$GPVTG,249.10,T,,M,1.74,N,3.23,K,A*33

$GPVTG,246.87,T,,M,1.94,N,3.60,K,A*3B

$GPGGA,153431.000,0010.8154,S,07828.9374,W,1,06,1.25,2814.4,M,13.7,M,,*59

$GPGSV,3,3,11,29,,,14,14,,,31,26,,,25*73

$GPRMC,153431.000,A,0010.8154,S,07828.9374,W,1.86,245.28,200217,,,A*65

$GPRMC,153432.000,A,0010.8157,S,07828.9380,W,1.84,248.80,200217,,,A*63

$GPVTG,248.80,T,,M,1.84,N,3.42,K,A*33

$GPVTG,257.36,T,,M,1.93,N,3.57,K,A*32

$GPGGA,153434.000,0010.8161,S,07828.9391,W,1,06,1.25,2814.0,M,13.7,M,,*55

$GPGGA,153435.000,0010.8164,S,07828.9395,W,1,06,1.25,2813.9,M,13.7,M,,*5B

$GPGSA,A,3,31,10,21,18,32,25,,,,,,,1.59,1.25,0.97*08

$GPGSA,A,3,31,10,21,18,32,25,,,,,,,1.59,1.25,0.97*08

$GPGSV,3,1,11,21,59,189,38,51,56,270,36,18,53,037,35,31,53,247,38*7B

$GPVTG,246.08,T,,M,1.75,N,3.24,K,A*33

$GPGGA,153437.000,0010.8170,S,07828.9404,W,1,06,1.25,2813.6,M,13.7,M,,*5C

$GPGGA,153438.000,0010.8170,S,07828.9409,W,1,06,1.25,2813.6,M,13.7,M,,*5E

$GPGSA,A,3,31,10,21,18,32,25,,,,,,,1.59,1.25,0.97*08

$GPGSA,A,3,31,10,21,18,32,25,,,,,,,1.59,1.25,0.97*08

$GPRMC,153439.000,A,0010.8172,S,07828.9414,W,1.69,247.62,200217,,,A*65

$GPRMC,153440.000,A,0010.8172,S,07828.9419,W,1.78,249.46,200217,,,A*6E

$GPVTG,249.46,T,,M,1.78,N,3.31,K,A*3F

$GPGSV,3,2,11,25,44,100,30,10,37,000,29,32,22,334,33,04,,,38*49

$GPGSV,3,3,11,29,,,16,14,,,27,26,,,29*7A

$GPGSA,A,3,31,10,21,18,32,25,,,,,,,1.59,1.25,0.97*08

$GPRMC,153442.000,A,0010.8174,S,07828.9432,W,2.08,251.15,200217,,,A*68

$GPRMC,153443.000,A,0010.8175,S,07828.9439,W,2.05,255.59,200217,,,A*62

$GPVTG,255.59,T,,M,2.05,N,3.79,K,A*39

$GPVTG,250.06,T,,M,1.94,N,3.60,K,A*35

$GPGGA,153445.000,0010.8178,S,07828.9449,W,1,06,1.25,2814.1,M,13.7,M,,*58

$GPGGA,153446.000,0010.8180,S,07828.9454,W,1,06,1.25,2814.2,M,13.7,M,,*53

$GPGSA,A,3,31,10,21,18,32,25,,,,,,,1.59,1.25,0.97*08

$GPVTG,255.21,T,,M,1.79,N,3.32,K,A*31

$GPGGA,153447.000,0010.8182,S,07828.9460,W,1,06,1.25,2814.3,M,13.7,M,,*56

$GPGGA,153448.000,0010.8185,S,07828.9464,W,1,06,1.25,2814.4,M,13.7,M,,*5D

$GPGSA,A,3,31,10,21,18,32,25,,,,,,,1.59,1.25,0.97*08

$GPGSA,A,3,31,10,21,18,32,25,,,,,,,1.59,1.25,0.97*08

$GPRMC,153449.000,A,0010.8186,S,07828.9469,W,1.81,255.14,200217,,,A*67

$GPRMC,153450.000,A,0010.8188,S,07828.9475,W,1.81,255.11,200217,,,A*69

$GPVTG,255.11,T,,M,1.81,N,3.36,K,A*31

$GPGSV,3,2,10,25,44,100,31,10,37,000,29,32,22,334,33,29,,,17*4B

$GPGSV,3,3,10,14,,,32,26,,,33*78

$GPGSA,A,3,31,10,21,18,32,25,,,,,,,1.59,1.25,0.97*08

$GPRMC,153452.000,A,0010.8190,S,07828.9486,W,1.86,252.78,200217,,,A*61

$GPRMC,153453.000,A,0010.8191,S,07828.9491,W,1.81,250.48,200217,,,A*61

$GPVTG,250.48,T,,M,1.81,N,3.36,K,A*38

$GPVTG,245.99,T,,M,1.83,N,3.39,K,A*3D

$GPGGA,153455.000,0010.8193,S,07828.9500,W,1,07,1.15,2814.9,M,13.7,M,,*5A

$GPGGA,153456.000,0010.8195,S,07828.9506,W,1,07,1.15,2814.7,M,13.7,M,,*57

$GPGSA,A,3,31,10,14,21,18,32,25,,,,,,1.50,1.15,0.96*06

$GPRMC,153456.000,A,0010.8195,S,07828.9506,W,1.93,248.81,200217,,,A*60

$GPVTG,248.81,T,,M,1.93,N,3.57,K,A*30

$GPVTG,255.50,T,,M,2.02,N,3.74,K,A*3A

$GPGGA,153458.000,0010.8200,S,07828.9517,W,1,07,1.15,2814.4,M,13.7,M,,*55

$GPGGA,153459.000,0010.8201,S,07828.9522,W,1,07,1.15,2814.1,M,13.7,M,,*56

$GPGSA,A,3,31,10,14,21,18,32,25,,,,,,1.50,1.15,0.96*06

$GPGSA,A,3,31,10,14,21,18,32,25,,,,,,1.50,1.15,0.96*06

$GPRMC,153500.000,A,0010.8203,S,07828.9528,W,1.99,253.16,200217,,,A*6C

$GPGSV,3,1,10,21,59,189,37,51,56,270,32,18,53,038,35,31,53,247,33*75

$GPGSV,3,2,10,25,44,100,30,10,37,000,35,32,22,334,32,14,19,309,30*7F

$GPGGA,153502.000,0010.8203,S,07828.9537,W,1,07,1.15,2813.5,M,13.7,M,,*5C

$GPGSA,A,3,31,10,14,21,18,32,25,,,,,,1.50,1.15,0.96*06

$GPGSA,A,3,31,10,14,21,18,32,25,,,,,,1.50,1.15,0.96*06

$GPRMC,153503.000,A,0010.8203,S,07828.9542,W,1.66,271.93,200217,,,A*6E

$GPRMC,153504.000,A,0010.8203,S,07828.9547,W,1.65,269.42,200217,,,A*6A

$GPVTG,269.42,T,,M,1.65,N,3.06,K,A*31

$GPVTG,261.10,T,,M,1.48,N,2.75,K,A*34

$GPGGA,153506.000,0010.8206,S,07828.9555,W,1,07,1.15,2813.3,M,13.7,M,,*5F

$GPGSV,3,3,10,29,,,23,26,,,29*7D

$GPRMC,153506.000,A,0010.8206,S,07828.9555,W,1.69,238.59,200217,,,A*6C

$GPRMC,153507.000,A,0010.8208,S,07828.9558,W,1.49,241.21,200217,,,A*6D

$GPVTG,241.21,T,,M,1.49,N,2.77,K,A*37

$GPVTG,248.53,T,,M,2.05,N,3.80,K,A*39

$GPGGA,153509.000,0010.8212,S,07828.9567,W,1,07,1.15,2813.0,M,13.7,M,,*57

$GPGGA,153510.000,0010.8213,S,07828.9570,W,1,07,1.15,2812.9,M,13.7,M,,*50

$GPGSA,A,3,31,10,14,21,18,32,25,,,,,,1.50,1.15,0.96*06

$GPGSA,A,3,31,10,14,21,18,32,25,,,,,,1.50,1.15,0.96*06

$GPGSV,3,1,10,21,59,189,39,51,56,270,36,18,53,038,36,31,53,247,39*76

$GPGGA,153512.000,0010.8216,S,07828.9578,W,1,07,1.15,2812.6,M,13.7,M,,*50

$GPGSA,A,3,31,10,14,21,18,32,25,,,,,,1.50,1.15,0.96*06

$GPGSA,A,3,31,10,14,21,18,32,25,,,,,,1.50,1.15,0.96*06

$GPRMC,153513.000,A,0010.8218,S,07828.9585,W,1.87,249.94,200217,,,A*6D

$GPRMC,153514.000,A,0010.8220,S,07828.9591,W,1.91,251.86,200217,,,A*69

$GPVTG,251.86,T,,M,1.91,N,3.53,K,A*39

$GPVTG,255.03,T,,M,1.74,N,3.22,K,A*3D

$GPGGA,153516.000,0010.8221,S,07828.9602,W,1,07,1.15,2812.3,M,13.7,M,,*5B

$GPGSV,3,3,10,29,,,21,26,,,25*73

$GPRMC,153516.000,A,0010.8221,S,07828.9602,W,1.87,252.02,200217,,,A*6B

$GPRMC,153517.000,A,0010.8222,S,07828.9607,W,1.84,257.49,200217,,,A*65

$GPVTG,257.49,T,,M,1.84,N,3.41,K,A*3B

$GPVTG,259.82,T,,M,1.95,N,3.62,K,A*33

$GPGGA,153519.000,0010.8224,S,07828.9619,W,1,07,1.15,2812.3,M,13.7,M,,*5B

$GPGGA,153520.000,0010.8224,S,07828.9625,W,1,07,1.15,2812.3,M,13.7,M,,*5E

$GPGSA,A,3,31,10,14,21,18,32,25,,,,,,1.50,1.15,0.96*06

$GPGSA,A,3,31,10,14,21,18,32,25,,,,,,1.50,1.15,0.96*06

$GPGSV,3,1,10,21,59,189,39,51,56,270,36,18,53,038,32,31,53,247,39*72

$GPVTG,266.68,T,,M,1.98,N,3.67,K,A*33

$GPGGA,153522.000,0010.8224,S,07828.9636,W,1,07,1.15,2812.4,M,13.7,M,,*59

$GPGGA,153523.000,0010.8223,S,07828.9642,W,1,07,1.15,2812.4,M,13.7,M,,*5C

$GPGSA,A,3,31,10,14,21,18,32,25,,,,,,1.50,1.15,0.96*06

$GPGSA,A,3,31,10,14,21,18,32,25,,,,,,1.50,1.15,0.96*06

$GPRMC,153524.000,A,0010.8224,S,07828.9648,W,1.96,257.67,200217,,,A*67

$GPRMC,153525.000,A,0010.8225,S,07828.9653,W,1.86,252.96,200217,,,D*62

$GPVTG,252.96,T,,M,1.86,N,3.44,K,D*3E

$GPGSV,3,2,10,25,44,100,30,10,37,000,34,32,22,335,37,14,19,310,31*73

$GPGSV,3,3,10,29,,,21,26,,,29*7F

$GPGSA,A,3,31,10,14,21,18,32,25,,,,,,1.50,1.15,0.96*06

$GPRMC,153527.000,A,0010.8229,S,07828.9661,W,1.79,247.53,200217,,,D*60

$GPRMC,153528.000,A,0010.8231,S,07828.9665,W,1.78,245.86,200217,,,D*69

$GPVTG,245.86,T,,M,1.78,N,3.30,K,D*3B

$GPVTG,244.59,T,,M,1.61,N,2.99,K,D*32

$GPGGA,153530.000,0010.8235,S,07828.9671,W,2,07,1.15,2812.5,M,13.7,M,0000,0000*5B

$GPGGA,153531.000,0010.8237,S,07828.9675,W,2,07,1.15,2812.5,M,13.7,M,0000,0000*5C

$GPGSA,A,3,31,10,14,21,18,32,25,,,,,,1.50,1.15,0.96*06

$GPRMC,153531.000,A,0010.8237,S,07828.9675,W,1.58,248.60,200217,,,D*61

$GPVTG,248.60,T,,M,1.58,N,2.92,K,D*35

$GPVTG,248.80,T,,M,1.57,N,2.91,K,D*37

$GPGGA,153533.000,0010.8239,S,07828.9683,W,2,07,1.15,2812.4,M,13.7,M,0000,0000*58

$GPGGA,153534.000,0010.8241,S,07828.9686,W,2,07,1.15,2812.4,M,13.7,M,0000,0000*55

$GPGSA,A,3,31,10,14,21,18,32,25,,,,,,1.50,1.15,0.96*06

$GPGSA,A,3,31,10,14,21,18,32,25,,,,,,1.50,1.15,0.96*06

$GPRMC,153535.000,A,0010.8242,S,07828.9690,W,1.54,245.58,200217,,,D*66

$GPGSV,3,1,10,21,58,189,39,51,56,270,37,18,53,038,35,31,53,247,38*74

$GPGSV,3,2,10,25,44,099,31,10,37,000,35,32,22,335,28,14,19,310,34*79

$GPGGA,153537.000,0010.8247,S,07828.9699,W,2,07,1.15,2812.3,M,13.7,M,0000,0000*59

$GPGSA,A,3,31,10,14,21,18,32,25,,,,,,1.50,1.15,0.96*06

$GPGSA,A,3,31,10,14,21,18,32,25,,,,,,1.50,1.15,0.96*06

$GPRMC,153538.000,A,0010.8249,S,07828.9703,W,1.71,243.98,200217,,,D*66

$GPRMC,153539.000,A,0010.8251,S,07828.9708,W,1.76,245.12,200217,,,D*66

$GPVTG,245.12,T,,M,1.76,N,3.27,K,D*3E

$GPVTG,246.03,T,,M,1.76,N,3.25,K,D*3F

$GPGGA,153541.000,0010.8254,S,07828.9717,W,2,07,1.15,2812.2,M,13.7,M,0000,0000*5C

$GPGSV,3,3,10,29,,,31,26,,,32*74

$GPRMC,153541.000,A,0010.8254,S,07828.9717,W,1.80,243.89,200217,,,D*6F

$GPRMC,153542.000,A,0010.8255,S,07828.9722,W,1.74,255.99,200217,,,D*66

$GPVTG,255.99,T,,M,1.74,N,3.22,K,D*3B

$GPVTG,250.43,T,,M,2.06,N,3.82,K,D*35

$GPGGA,153544.000,0010.8259,S,07828.9733,W,2,07,1.15,2812.0,M,13.7,M,0000,0000*50

$GPGGA,153545.000,0010.8261,S,07828.9739,W,2,07,1.16,2811.8,M,13.7,M,0000,0000*58

$GPGSA,A,3,31,10,14,21,18,32,25,,,,,,1.50,1.16,0.96*05

$GPGSV,3,2,10,25,44,099,24,10,37,000,34,32,22,335,25,14,19,310,33*76

$GPGSV,3,3,10,29,,,36,26,,,31*70

$GPGSA,A,3,31,10,14,21,18,32,25,,,,,,1.50,1.15,0.96*06

$GPRMC,153547.000,A,0010.8266,S,07828.9749,W,1.74,239.78,200217,,,D*6B

$GPRMC,153548.000,A,0010.8268,S,07828.9753,W,2.00,243.37,200217,,,D*67

$GPVTG,243.37,T,,M,2.00,N,3.71,K,D*3E

$GPVTG,233.22,T,,M,2.34,N,4.33,K,D*3B

$GPGGA,153550.000,0010.8274,S,07828.9764,W,2,07,1.15,2811.4,M,13.7,M,0000,0000*5F

$GPGGA,153551.000,0010.8278,S,07828.9769,W,2,07,1.15,2811.3,M,13.7,M,0000,0000*58

$GPGSA,A,3,31,10,14,21,18,32,25,,,,,,1.50,1.15,0.96*06

$GPRMC,153551.000,A,0010.8278,S,07828.9769,W,2.16,228.47,200217,,,D*6A

$GPVTG,228.47,T,,M,2.16,N,4.00,K,D*32

$GPVTG,227.14,T,,M,1.93,N,3.57,K,D*30

$GPGGA,153553.000,0010.8287,S,07828.9779,W,2,07,1.15,2810.9,M,13.7,M,0000,0000*50

$GPGGA,153554.000,0010.8291,S,07828.9782,W,2,07,1.15,2810.9,M,13.7,M,0000,0000*54

$GPGSA,A,3,31,10,14,21,18,32,25,,,,,,1.50,1.15,0.96*06

$GPGSA,A,3,31,10,14,21,18,32,25,,,,,,1.50,1.15,0.96*06

$GPRMC,153555.000,A,0010.8296,S,07828.9785,W,2.03,209.27,200217,,,D*6D

$GPGSV,3,1,10,21,58,189,38,51,56,270,32,18,53,038,31,31,53,248,40*74

$GPGSV,3,2,10,25,44,099,34,10,37,000,31,32,22,335,26,14,19,310,29*7A

$GPGGA,153557.000,0010.8307,S,07828.9794,W,2,07,1.15,2810.7,M,13.7,M,0000,0000*50

$GPGSA,A,3,31,10,14,21,18,32,25,,,,,,1.50,1.15,0.96*06

$GPGSA,A,3,31,10,14,21,18,32,25,,,,,,1.50,1.16,0.96*05

$GPRMC,153558.000,A,0010.8312,S,07828.9796,W,1.98,199.42,200217,,,D*67

$GPRMC,153559.000,A,0010.8317,S,07828.9799,W,2.10,202.15,200217,,,D*6C

$GPVTG,202.15,T,,M,2.10,N,3.90,K,D*35

$GPVTG,198.78,T,,M,1.86,N,3.46,K,D*39

$GPGGA,153601.000,0010.8328,S,07828.9804,W,2,07,1.16,2810.6,M,13.7,M,0000,0000*59

$GPGSV,3,3,10,29,,,28,26,,,34*7A

$GPRMC,153601.000,A,0010.8328,S,07828.9804,W,2.35,202.79,200217,,,D*68

$GPRMC,153602.000,A,0010.8334,S,07828.9806,W,1.89,198.12,200217,,,D*6D

$GPVTG,198.12,T,,M,1.89,N,3.50,K,D*3D

$GPVTG,210.60,T,,M,1.87,N,3.47,K,D*33

$GPGGA,153604.000,0010.8344,S,07828.9811,W,2,07,1.16,2810.5,M,13.7,M,0000,0000*51

$GPGGA,153605.000,0010.8351,S,07828.9812,W,2,07,1.16,2810.4,M,13.7,M,0000,0000*56

$GPGSA,A,3,31,10,14,21,18,32,25,,,,,,1.50,1.16,0.96*05

$GPGSA,A,3,31,10,14,21,18,32,25,,,,,,1.50,1.16,0.96*05

$GPGSV,3,1,10,21,58,189,35,51,56,270,30,18,53,039,31,31,53,248,37*7A

$GPVTG,201.96,T,,M,2.09,N,3.86,K,D*32

$GPGGA,153607.000,0010.8362,S,07828.9816,W,2,07,1.16,2810.4,M,13.7,M,0000,0000*50

$GPGGA,153608.000,0010.8367,S,07828.9817,W,2,07,1.16,2810.4,M,13.7,M,0000,0000*5B

$GPGSA,A,3,31,10,14,21,18,32,25,,,,,,1.50,1.16,0.96*05

$GPGSA,A,3,31,10,14,21,18,32,25,,,,,,1.50,1.16,0.96*05

$GPRMC,153609.000,A,0010.8373,S,07828.9818,W,2.06,184.46,200217,,,D*62

$GPRMC,153610.000,A,0010.8379,S,07828.9818,W,2.26,183.26,200217,,,D*63

$GPVTG,183.26,T,,M,2.26,N,4.19,K,D*3C

$GPGSV,3,2,10,25,44,099,39,10,37,000,30,32,22,335,26,14,19,310,23*7C

$GPGSV,3,3,10,26,16,203,35,29,,,30*44

$GPGSA,A,3,31,10,14,21,18,32,25,,,,,,1.50,1.16,0.96*05

$GPRMC,153612.000,A,0010.8389,S,07828.9819,W,1.84,187.91,200217,,,D*6C

$GPRMC,153613.000,A,0010.8394,S,07828.9820,W,1.99,195.28,200217,,,D*66

$GPVTG,195.28,T,,M,1.99,N,3.68,K,D*33

$GPVTG,198.84,T,,M,2.08,N,3.86,K,D*33

$GPGGA,153615.000,0010.8405,S,07828.9824,W,2,07,1.16,2810.2,M,13.7,M,0000,0000*52

$GPGGA,153616.000,0010.8410,S,07828.9826,W,2,07,1.16,2810.2,M,13.7,M,0000,0000*57

$GPGSA,A,3,31,10,14,21,18,32,25,,,,,,1.50,1.16,0.96*05

$GPRMC,153616.000,A,0010.8410,S,07828.9826,W,2.06,202.60,200217,,,D*6A

$GPVTG,202.60,T,,M,2.06,N,3.83,K,D*32

$GPVTG,218.60,T,,M,1.58,N,2.92,K,D*30

$GPGGA,153618.000,0010.8416,S,07828.9831,W,2,07,1.16,2810.2,M,13.7,M,0000,0000*59

$GPGGA,153619.000,0010.8421,S,07828.9833,W,2,07,1.16,2810.2,M,13.7,M,0000,0000*5E

$GPGSA,A,3,31,10,14,21,18,32,25,,,,,,1.50,1.16,0.96*05

$GPGSA,A,3,31,10,14,21,18,32,25,,,,,,1.50,1.16,0.96*05

$GPRMC,153620.000,A,0010.8426,S,07828.9835,W,2.17,200.38,200217,,,D*67

$GPGSV,3,1,10,21,58,188,38,51,56,270,33,18,53,039,34,31,53,248,38*7F

$GPGSV,3,2,10,25,44,099,36,10,37,000,30,32,22,335,32,14,19,310,34*70

$GPGGA,153622.000,0010.8436,S,07828.9839,W,2,07,1.16,2810.4,M,13.7,M,0000,0000*5C

$GPGSA,A,3,31,10,14,21,18,32,25,,,,,,1.50,1.16,0.96*05

$GPGSA,A,3,31,10,14,21,18,32,25,,,,,,1.50,1.16,0.96*05

$GPRMC,153623.000,A,0010.8442,S,07828.9840,W,1.95,204.13,200217,,,D*60

$GPRMC,153624.000,A,0010.8447,S,07828.9842,W,1.81,219.50,200217,,,D*6E

$GPVTG,219.50,T,,M,1.81,N,3.36,K,D*39

$GPVTG,217.21,T,,M,1.48,N,2.74,K,D*33

$GPGGA,153626.000,0010.8454,S,07828.9848,W,2,07,1.16,2810.2,M,13.7,M,0000,0000*5C

$GPGSV,3,3,10,26,16,203,33,29,,,40*45

$GPRMC,153626.000,A,0010.8454,S,07828.9848,W,1.75,213.08,200217,,,D*68

$GPRMC,153627.000,A,0010.8460,S,07828.9849,W,2.46,189.56,200217,,,D*67

$GPVTG,189.56,T,,M,2.46,N,4.57,K,D*3D

$GPVTG,198.04,T,,M,1.98,N,3.66,K,D*3F

$GPGGA,153629.000,0010.8473,S,07828.9852,W,2,07,1.16,2810.1,M,13.7,M,0000,0000*5E

$GPGGA,153630.000,0010.8479,S,07828.9854,W,2,07,1.16,2810.2,M,13.7,M,0000,0000*59

$GPGSA,A,3,31,10,14,21,18,32,25,,,,,,1.50,1.16,0.96*05

$GPGSA,A,3,31,10,29,14,21,18,32,25,26,,,,1.22,0.90,0.82*05

$GPGSV,3,1,10,21,58,188,40,51,56,270,33,18,53,039,35,31,53,248,33*7A

$GPVTG,186.47,T,,M,2.05,N,3.80,K,D*38

$GPGGA,153632.000,0010.8496,S,07828.9855,W,2,09,0.90,2808.6,M,13.7,M,0000,0000*57

$GPGGA,153633.000,0010.8502,S,07828.9856,W,2,09,0.90,2808.3,M,13.7,M,0000,0000*5C

$GPGSA,A,3,31,10,29,14,21,18,32,25,26,,,,1.22,0.90,0.82*05

$GPGSA,A,3,31,10,29,14,21,18,32,25,26,,,,1.22,0.90,0.82*05

$GPRMC,153634.000,A,0010.8507,S,07828.9856,W,1.20,191.03,200217,,,D*61

$GPRMC,153635.000,A,0010.8510,S,07828.9855,W,1.00,187.98,200217,,,D*62

$GPVTG,187.98,T,,M,1.00,N,1.86,K,D*39

$GPGSV,3,2,10,25,44,099,35,10,37,000,25,32,22,335,21,14,19,310,27*77

$GPGSV,3,3,10,26,16,203,33,29,12,148,31*7D

$GPGSA,A,3,31,10,29,14,21,18,32,25,26,,,,1.22,0.90,0.82*05

$GPRMC,153637.000,A,0010.8517,S,07828.9855,W,1.50,180.98,200217,,,D*65

$GPRMC,153638.000,A,0010.8522,S,07828.9854,W,1.78,175.60,200217,,,D*6A

$GPVTG,175.60,T,,M,1.78,N,3.30,K,D*33

$GPVTG,172.16,T,,M,1.81,N,3.35,K,D*36

$GPGGA,153640.000,0010.8532,S,07828.9854,W,2,09,0.90,2808.0,M,13.7,M,0000,0000*5A

$GPGGA,153641.000,0010.8537,S,07828.9854,W,2,09,0.90,2808.0,M,13.7,M,0000,0000*5E

$GPGSA,A,3,31,10,29,14,21,18,32,25,26,,,,1.22,0.90,0.82*05

$GPRMC,153641.000,A,0010.8537,S,07828.9854,W,1.80,184.53,200217,,,D*69

$GPVTG,184.53,T,,M,1.80,N,3.34,K,D*3E

$GPVTG,190.51,T,,M,1.67,N,3.09,K,D*3E

$GPGGA,153643.000,0010.8544,S,07828.9857,W,2,09,0.90,2808.2,M,13.7,M,0000,0000*59

$GPGGA,153644.000,0010.8549,S,07828.9858,W,2,09,0.90,2808.3,M,13.7,M,0000,0000*5D

$GPGSA,A,3,31,10,29,14,21,18,32,25,26,,,,1.22,0.90,0.82*05

$GPGSA,A,3,31,10,29,14,21,18,32,25,26,,,,1.22,0.90,0.82*05

$GPRMC,153645.000,A,0010.8554,S,07828.9859,W,1.75,198.63,200217,,,D*61

$GPGSV,3,1,11,21,58,188,36,51,56,270,37,18,53,039,25,31,53,248,43*78

$GPGSV,3,2,11,25,44,099,32,10,37,000,18,32,22,335,28,14,19,310,33*73

$GPGGA,153647.000,0010.8564,S,07828.9863,W,2,09,0.90,2808.2,M,13.7,M,0000,0000*58

$GPGSA,A,3,31,10,29,14,21,18,32,25,26,,,,1.22,0.90,0.82*05

$GPGSA,A,3,31,10,29,14,21,18,32,25,26,,,,1.22,0.90,0.82*05

$GPRMC,153648.000,A,0010.8568,S,07828.9864,W,1.82,197.69,200217,,,D*60

$GPRMC,153649.000,A,0010.8573,S,07828.9864,W,1.80,192.00,200217,,,D*63

$GPVTG,192.00,T,,M,1.80,N,3.34,K,D*3F

$GPVTG,198.63,T,,M,1.69,N,3.14,K,D*35

$GPGGA,153651.000,0010.8582,S,07828.9866,W,2,09,0.90,2808.1,M,13.7,M,0000,0000*51

$GPGSV,3,3,11,26,16,203,32,29,12,148,36,27,03,257,*4C

$GPRMC,153651.000,A,0010.8582,S,07828.9866,W,1.69,193.97,200217,,,D*6E

$GPRMC,153652.000,A,0010.8586,S,07828.9866,W,1.50,190.72,200217,,,D*6B

$GPVTG,190.72,T,,M,1.50,N,2.78,K,D*3C

$GPVTG,194.30,T,,M,1.56,N,2.89,K,D*36

$GPGGA,153654.000,0010.8595,S,07828.9868,W,2,09,0.90,2808.0,M,13.7,M,0000,0000*5D

$GPGGA,153655.000,0010.8599,S,07828.9869,W,2,09,0.90,2808.1,M,13.7,M,0000,0000*50

$GPGSA,A,3,31,10,29,14,21,18,32,25,26,,,,1.22,0.90,0.82*05

$GPGSA,A,3,31,10,29,14,21,18,32,25,26,,,,1.22,0.90,0.82*05

$GPGSV,3,1,11,21,58,188,36,51,56,270,35,18,53,039,26,31,53,248,42*78

$GPVTG,197.59,T,,M,1.55,N,2.88,K,D*38

$GPGGA,153657.000,0010.8609,S,07828.9872,W,2,09,0.90,2808.1,M,13.7,M,0000,0000*52

$GPGGA,153658.000,0010.8614,S,07828.9872,W,2,09,0.90,2808.2,M,13.7,M,0000,0000*52

$GPGSA,A,3,31,10,29,14,21,18,32,25,26,,,,1.22,0.90,0.82*05

$GPGSA,A,3,31,10,29,14,21,18,32,25,26,,,,1.22,0.90,0.82*05

$GPRMC,153659.000,A,0010.8619,S,07828.9872,W,1.70,190.40,200217,,,D*63

$GPRMC,153700.000,A,0010.8624,S,07828.9871,W,1.68,187.80,200217,,,D*60

$GPVTG,187.80,T,,M,1.68,N,3.11,K,D*32

$GPGSV,3,2,11,25,44,098,34,10,37,000,17,32,22,335,23,14,19,310,31*72

$GPGSV,3,3,11,26,16,202,32,29,12,148,37,27,03,257,*4C

$GPGSA,A,3,31,10,29,14,21,18,32,25,26,,,,1.22,0.90,0.82*05

$GPRMC,153702.000,A,0010.8632,S,07828.9872,W,1.51,184.79,200217,,,D*69

$GPRMC,153703.000,A,0010.8637,S,07828.9872,W,1.49,177.54,200217,,,D*67

$GPVTG,177.54,T,,M,1.49,N,2.76,K,D*37

$GPVTG,176.20,T,,M,1.74,N,3.23,K,D*3A

$GPGGA,153705.000,0010.8648,S,07828.9873,W,2,09,0.90,2808.1,M,13.7,M,0000,0000*50

$GPGGA,153706.000,0010.8655,S,07828.9874,W,2,09,0.90,2808.1,M,13.7,M,0000,0000*58

$GPGSA,A,3,31,10,29,14,21,18,32,25,26,,,,1.22,0.90,0.82*05

$GPRMC,153706.000,A,0010.8655,S,07828.9874,W,1.95,188.32,200217,,,D*61

$GPVTG,188.32,T,,M,1.95,N,3.60,K,D*30

$GPVTG,189.16,T,,M,1.92,N,3.57,K,D*34

$GPGGA,153708.000,0010.8666,S,07828.9876,W,2,09,0.90,2808.1,M,13.7,M,0000,0000*54

$GPGGA,153709.000,0010.8671,S,07828.9876,W,2,09,0.90,2808.1,M,13.7,M,0000,0000*53

$GPGSA,A,3,31,10,29,14,21,18,32,25,26,,,,1.22,0.90,0.82*05

$GPGSA,A,3,31,10,29,14,21,18,32,25,26,,,,1.22,0.90,0.82*05

$GPRMC,153710.000,A,0010.8677,S,07828.9877,W,1.80,194.45,200217,,,D*6C

$GPGSV,3,1,11,21,58,188,38,51,56,270,36,31,54,249,40,18,53,039,27*70

$GPGSV,3,2,11,25,44,098,33,10,37,000,19,32,22,335,31,14,19,310,31*78

$GPGGA,153712.000,0010.8688,S,07828.9881,W,2,09,0.90,2808.1,M,13.7,M,0000,0000*57

$GPGSA,A,3,31,10,29,14,21,18,32,25,26,,,,1.22,0.90,0.82*05

$GPGSA,A,3,31,10,29,14,21,18,32,25,26,,,,1.22,0.90,0.82*05

$GPRMC,153713.000,A,0010.8693,S,07828.9883,W,1.97,203.87,200217,,,D*6B

$GPRMC,153714.000,A,0010.8698,S,07828.9885,W,1.99,205.36,200217,,,D*63

$GPVTG,205.36,T,,M,1.99,N,3.69,K,D*37

$GPVTG,203.03,T,,M,2.10,N,3.89,K,D*3B

$GPGGA,153716.000,0010.8709,S,07828.9889,W,2,09,0.90,2808.3,M,13.7,M,0000,0000*51

$GPGSV,3,3,11,26,16,202,21,29,12,148,22,27,03,257,*4A

$GPRMC,153716.000,A,0010.8709,S,07828.9889,W,2.04,201.24,200217,,,D*64

$GPRMC,153717.000,A,0010.8714,S,07828.9890,W,1.95,201.43,200217,,,D*6B

$GPVTG,201.43,T,,M,1.95,N,3.61,K,D*35

$GPVTG,202.91,T,,M,1.87,N,3.46,K,D*3F

$GPGGA,153719.000,0010.8722,S,07828.9893,W,2,09,0.90,2808.4,M,13.7,M,0000,0000*5B

$GPGGA,153720.000,0010.8727,S,07828.9897,W,2,09,0.90,2808.4,M,13.7,M,0000,0000*50

$GPGSA,A,3,31,10,29,14,21,18,32,25,26,,,,1.22,0.90,0.82*05

$GPGSA,A,3,31,10,29,14,21,18,32,25,26,,,,1.22,0.90,0.82*05

$GPGSV,3,1,11,21,58,188,35,51,56,270,33,31,54,249,35,18,53,040,21*72

$GPVTG,208.79,T,,M,2.15,N,3.99,K,D*39

$GPGGA,153722.000,0010.8737,S,07828.9901,W,2,09,0.90,2808.5,M,13.7,M,0000,0000*5C

$GPGGA,153723.000,0010.8743,S,07828.9904,W,2,09,0.90,2808.6,M,13.7,M,0000,0000*58

$GPGSA,A,3,31,10,29,14,21,18,32,25,26,,,,1.22,0.90,0.82*05

$GPGSA,A,3,31,10,29,14,21,18,32,25,26,,,,1.22,0.90,0.82*05

$GPRMC,153724.000,A,0010.8747,S,07828.9906,W,1.94,208.60,200217,,,D*6A

$GPRMC,153725.000,A,0010.8752,S,07828.9908,W,2.05,204.03,200217,,,D*63

$GPVTG,204.03,T,,M,2.05,N,3.80,K,D*31

$GPGSV,3,2,11,25,44,098,25,10,38,001,21,32,22,335,23,14,19,310,22*7B

$GPGSV,3,3,11,26,16,202,26,29,12,148,24,27,03,257,*4B

$GPGSA,A,3,31,10,29,14,21,18,32,25,26,,,,1.22,0.90,0.82*05

$GPRMC,153727.000,A,0010.8762,S,07828.9913,W,1.97,208.19,200217,,,D*67

$GPRMC,153728.000,A,0010.8766,S,07828.9914,W,1.88,205.36,200217,,,D*65

$GPVTG,205.36,T,,M,1.88,N,3.48,K,D*34

$GPVTG,205.23,T,,M,1.80,N,3.34,K,D*33

$GPGGA,153730.000,0010.8774,S,07828.9918,W,2,09,0.90,2809.2,M,13.7,M,0000,0000*56

$GPGGA,153731.000,0010.8777,S,07828.9919,W,2,09,0.90,2809.2,M,13.7,M,0000,0000*55

$GPGSA,A,3,31,10,29,14,21,18,32,25,26,,,,1.22,0.90,0.82*05

$GPRMC,153731.000,A,0010.8777,S,07828.9919,W,1.64,207.95,200217,,,D*69

$GPVTG,207.95,T,,M,1.64,N,3.04,K,D*35

$GPVTG,209.62,T,,M,1.64,N,3.03,K,D*34

$GPGGA,153733.000,0010.8785,S,07828.9924,W,2,09,0.90,2809.2,M,13.7,M,0000,0000*54

$GPGGA,153734.000,0010.8789,S,07828.9928,W,2,09,0.90,2809.3,M,13.7,M,0000,0000*52

$GPGSA,A,3,31,10,29,14,21,18,32,25,26,,,,1.22,0.90,0.82*05

$GPGSA,A,3,31,10,29,14,21,18,32,25,26,,,,1.22,0.90,0.82*05

$GPRMC,153735.000,A,0010.8792,S,07828.9931,W,1.68,221.74,200217,,,D*6B

$GPGSV,3,1,11,21,57,188,32,51,56,270,34,31,54,249,34,18,53,040,19*77

$GPGSV,3,2,11,25,44,098,22,10,38,001,33,32,22,336,28,14,19,310,23*76

$GPGGA,153737.000,0010.8799,S,07828.9939,W,2,09,0.90,2809.4,M,13.7,M,0000,0000*57

$GPGSA,A,3,31,10,29,14,21,18,32,25,26,,,,1.22,0.90,0.82*05

$GPGSA,A,3,31,10,29,14,21,18,32,25,26,,,,1.22,0.90,0.82*05

$GPRMC,153738.000,A,0010.8802,S,07828.9942,W,1.72,222.76,200217,,,D*6E

$GPRMC,153739.000,A,0010.8806,S,07828.9946,W,1.80,223.00,200217,,,D*62

$GPVTG,223.00,T,,M,1.80,N,3.34,K,D*36

$GPVTG,218.83,T,,M,1.75,N,3.25,K,D*3F

$GPGGA,153741.000,0010.8815,S,07828.9955,W,2,09,0.90,2809.7,M,13.7,M,0000,0000*54

$GPGSV,3,3,11,26,16,202,21,29,12,147,21,27,03,256,*47

$GPRMC,153741.000,A,0010.8815,S,07828.9955,W,1.93,219.71,200217,,,D*60

$GPRMC,153742.000,A,0010.8820,S,07828.9961,W,2.15,223.24,200217,,,D*66

$GPVTG,223.24,T,,M,2.15,N,3.98,K,D*39

$GPVTG,225.88,T,,M,2.16,N,4.00,K,D*3C

$GPGGA,153744.000,0010.8829,S,07828.9970,W,2,09,0.90,2809.9,M,13.7,M,0000,0000*57

$GPGGA,153745.000,0010.8833,S,07828.9975,W,2,09,0.90,2810.0,M,13.7,M,0000,0000*59

$GPGSA,A,3,31,10,29,14,21,18,32,25,26,,,,1.22,0.90,0.82*05

$GPGSA,A,3,31,10,29,14,21,18,32,25,26,,,,1.22,0.90,0.82*05

$GPGSV,3,1,11,21,57,188,31,51,56,270,31,31,54,249,34,18,53,040,20*7B

$GPVTG,224.09,T,,M,2.13,N,3.94,K,D*3B

$GPGGA,153747.000,0010.8841,S,07828.9984,W,2,09,0.90,2810.1,M,13.7,M,0000,0000*51

$GPGGA,153748.000,0010.8845,S,07828.9989,W,2,09,0.90,2810.2,M,13.7,M,0000,0000*54

$GPGSA,A,3,31,10,29,14,21,18,32,25,26,,,,1.22,0.90,0.82*05

$GPGSA,A,3,31,10,29,14,21,18,32,25,26,,,,1.22,0.90,0.82*05

$GPRMC,153749.000,A,0010.8847,S,07828.9991,W,1.76,228.40,200217,,,D*6C

$GPRMC,153750.000,A,0010.8850,S,07828.9998,W,2.02,228.34,200217,,,D*68

$GPVTG,228.34,T,,M,2.02,N,3.74,K,D*37

$GPGSV,3,2,11,25,44,098,22,10,38,001,33,32,22,336,32,14,19,310,24*7A

$GPGSV,3,3,11,26,16,202,21,29,12,147,23,27,03,256,*45

$GPGSA,A,3,31,10,29,14,21,18,32,25,26,,,,1.22,0.90,0.82*05

$GPRMC,153752.000,A,0010.8857,S,07829.0004,W,1.85,227.67,200217,,,D*6C

$GPRMC,153753.000,A,0010.8861,S,07829.0009,W,1.91,223.80,200217,,,D*6D

$GPVTG,223.80,T,,M,1.91,N,3.53,K,D*3F

$GPVTG,219.25,T,,M,2.01,N,3.72,K,D*30

$GPGGA,153755.000,0010.8869,S,07829.0014,W,2,09,0.90,2810.6,M,13.7,M,0000,0000*57

$GPGGA,153756.000,0010.8874,S,07829.0019,W,2,09,0.90,2810.6,M,13.7,M,0000,0000*55

$GPGSA,A,3,31,10,29,14,21,18,32,25,26,,,,1.22,0.90,0.82*05

$GPRMC,153756.000,A,0010.8874,S,07829.0019,W,2.01,220.34,200217,,,D*6B

$GPVTG,220.34,T,,M,2.01,N,3.73,K,D*3B

$GPVTG,221.85,T,,M,1.99,N,3.68,K,D*38

$GPGGA,153758.000,0010.8882,S,07829.0027,W,2,08,1.03,2810.7,M,13.7,M,0000,0000*54

$GPGGA,153759.000,0010.8886,S,07829.0030,W,2,09,0.90,2810.7,M,13.7,M,0000,0000*5D

$GPGSA,A,3,31,10,29,14,21,18,32,25,26,,,,1.22,0.90,0.82*05

$GPGSA,A,3,31,10,29,14,21,18,32,25,26,,,,1.22,0.90,0.82*05

$GPRMC,153800.000,A,0010.8890,S,07829.0035,W,1.71,220.40,200217,,,D*64

$GPGSV,3,1,11,21,57,188,32,51,56,270,34,18,54,040,20,31,54,249,36*78

$GPGSV,3,2,11,25,44,098,23,10,38,001,25,32,22,336,32,14,19,311,28*71

$GPGGA,153802.000,0010.8900,S,07829.0039,W,2,09,0.90,2810.7,M,13.7,M,0000,0000*5A

$GPGSA,A,3,31,10,29,14,21,18,32,25,26,,,,1.22,0.90,0.82*05

$GPGSA,A,3,31,10,29,14,21,18,32,25,26,,,,1.22,0.90,0.82*05

$GPRMC,153803.000,A,0010.8906,S,07829.0038,W,1.83,197.91,200217,,,D*6A

$GPRMC,153804.000,A,0010.8911,S,07829.0035,W,1.75,183.11,200217,,,D*62

$GPVTG,183.11,T,,M,1.75,N,3.24,K,D*34

$GPVTG,172.78,T,,M,1.66,N,3.08,K,D*39

$GPGGA,153806.000,0010.8919,S,07829.0031,W,2,09,0.90,2810.6,M,13.7,M,0000,0000*5F

$GPGSV,3,3,11,26,17,202,24,29,12,147,30,27,03,256,*43

$GPRMC,153806.000,A,0010.8919,S,07829.0031,W,1.62,165.14,200217,,,D*67

$GPRMC,153807.000,A,0010.8924,S,07829.0029,W,1.65,163.41,200217,,,D*60

$GPVTG,163.41,T,,M,1.65,N,3.07,K,D*3F

$GPVTG,160.87,T,,M,1.45,N,2.69,K,D*3D

$GPGGA,153809.000,0010.8932,S,07829.0028,W,2,09,0.90,2810.6,M,13.7,M,0000,0000*51

$GPGGA,153810.000,0010.8935,S,07829.0025,W,2,09,0.90,2810.6,M,13.7,M,0000,0000*53

$GPGSA,A,3,31,10,29,14,21,18,32,25,26,,,,1.22,0.90,0.82*05

$GPGSA,A,3,31,10,29,14,21,18,32,25,26,,,,1.22,0.90,0.82*05

$GPGSV,3,1,11,21,57,188,34,51,56,270,23,18,54,040,22,31,54,250,29*7C

$GPVTG,154.76,T,,M,1.54,N,2.85,K,D*36

$GPGGA,153812.000,0010.8943,S,07829.0020,W,2,09,0.90,2810.7,M,13.7,M,0000,0000*54

$GPGGA,153813.000,0010.8949,S,07829.0016,W,2,09,0.90,2810.7,M,13.7,M,0000,0000*5A

$GPGSA,A,3,31,10,29,14,21,18,32,25,26,,,,1.22,0.90,0.82*05

$GPGSA,A,3,31,10,29,14,21,18,32,25,26,,,,1.22,0.90,0.82*05

$GPRMC,153814.000,A,0010.8954,S,07829.0012,W,1.80,144.62,200217,,,D*62

$GPRMC,153815.000,A,0010.8959,S,07829.0008,W,1.81,144.17,200217,,,D*66

$GPVTG,144.17,T,,M,1.81,N,3.35,K,D*32

$GPGSV,3,2,11,25,44,097,27,10,38,001,21,32,22,336,19,14,19,311,19*75

$GPGSV,3,3,11,26,17,202,25,29,11,147,29,27,03,256,*49

$GPGSA,A,3,31,10,29,14,21,18,32,25,26,,,,1.22,0.90,0.82*05

$GPRMC,153817.000,A,0010.8966,S,07829.0006,W,1.40,151.96,200217,,,D*66

$GPRMC,153818.000,A,0010.8969,S,07829.0006,W,1.26,162.51,200217,,,D*6D

$GPVTG,162.51,T,,M,1.26,N,2.34,K,D*39

$GPVTG,180.43,T,,M,1.42,N,2.64,K,D*31

$GPGGA,153820.000,0010.8977,S,07829.0009,W,2,09,0.90,2810.8,M,13.7,M,0000,0000*56

$GPGGA,153821.000,0010.8980,S,07829.0011,W,2,09,0.90,2810.8,M,13.7,M,0000,0000*56

$GPGSA,A,3,31,10,29,14,21,18,32,25,26,,,,1.22,0.90,0.82*05

$GPRMC,153821.000,A,0010.8980,S,07829.0011,W,1.17,193.57,200217,,,D*6C

$GPVTG,193.57,T,,M,1.17,N,2.17,K,D*32

$GPVTG,192.96,T,,M,1.17,N,2.16,K,D*3F

$GPGGA,153823.000,0010.8987,S,07829.0013,W,2,09,0.90,2811.0,M,13.7,M,0000,0000*58

$GPGGA,153824.000,0010.8993,S,07829.0018,W,2,09,0.90,2811.0,M,13.7,M,0000,0000*51

$GPGSA,A,3,31,10,29,14,21,18,32,25,26,,,,1.22,0.90,0.82*05

$GPGSA,A,3,31,10,29,14,21,18,32,25,26,,,,1.22,0.90,0.82*05

$GPRMC,153825.000,A,0010.9000,S,07829.0024,W,1.74,217.41,200217,,,D*63

$GPGSV,3,1,11,21,57,188,32,51,56,270,30,18,54,040,20,31,54,250,35*77

$GPGSV,3,2,11,25,44,097,19,10,38,001,28,32,22,336,25,14,19,311,23*77

$GPGGA,153827.000,0010.9005,S,07829.0036,W,2,09,0.90,2811.2,M,13.7,M,0000,0000*5B

$GPGSA,A,3,31,10,29,14,21,18,32,25,26,,,,1.22,0.90,0.82*05

$GPGSA,A,3,31,10,29,14,21,18,32,25,26,,,,1.22,0.90,0.82*05

$GPRMC,153828.000,A,0010.9008,S,07829.0040,W,1.66,239.37,200217,,,D*6A

$GPRMC,153829.000,A,0010.9010,S,07829.0045,W,1.68,239.62,200217,,,D*69

$GPVTG,239.62,T,,M,1.68,N,3.12,K,D*3B

$GPVTG,241.51,T,,M,1.68,N,3.10,K,D*36

$GPGGA,153831.000,0010.9014,S,07829.0055,W,2,09,0.90,2811.4,M,13.7,M,0000,0000*5F

$GPGSV,3,3,11,26,17,202,19,29,11,147,18,27,03,256,*44

$GPRMC,153831.000,A,0010.9014,S,07829.0055,W,1.67,243.86,200217,,,D*6D

$GPRMC,153832.000,A,0010.9016,S,07829.0060,W,1.72,247.43,200217,,,D*63

$GPVTG,247.43,T,,M,1.72,N,3.19,K,D*31

$GPVTG,249.45,T,,M,1.71,N,3.17,K,D*34

$GPGGA,153834.000,0010.9017,S,07829.0072,W,2,09,0.90,2811.5,M,13.7,M,0000,0000*5D

$GPGGA,153835.000,0010.9018,S,07829.0077,W,2,09,0.90,2811.6,M,13.7,M,0000,0000*55

$GPGSA,A,3,31,10,29,14,21,18,32,25,26,,,,1.22,0.90,0.82*05

$GPGSA,A,3,31,10,29,14,21,18,32,25,26,,,,1.22,0.90,0.82*05

$GPGSV,3,1,11,21,57,187,28,51,56,270,30,18,54,040,20,31,54,250,35*73

$GPVTG,257.32,T,,M,1.61,N,2.98,K,D*3C

$GPGGA,153837.000,0010.9020,S,07829.0087,W,2,09,0.90,2811.6,M,13.7,M,0000,0000*53

$GPGGA,153838.000,0010.9021,S,07829.0087,W,2,09,0.90,2811.7,M,13.7,M,0000,0000*5C

$GPGSA,A,3,31,10,29,14,21,18,32,25,26,,,,1.22,0.90,0.82*05

$GPGSA,A,3,31,10,29,14,21,18,32,25,26,,,,1.22,0.90,0.82*05

$GPRMC,153839.000,A,0010.9021,S,07829.0090,W,0.99,241.45,200217,,,D*67

$GPRMC,153840.000,A,0010.9023,S,07829.0092,W,1.00,237.45,200217,,,D*69

$GPVTG,237.45,T,,M,1.00,N,1.86,K,D*31

$GPGSV,3,2,11,25,44,097,21,10,38,001,24,32,22,336,26,14,19,311,21*71

$GPGSV,3,3,11,26,17,202,19,29,11,147,31,27,03,256,*4F

$GPGSA,A,3,31,10,29,14,21,18,32,25,26,,,,1.22,0.90,0.82*05

$GPRMC,153842.000,A,0010.9032,S,07829.0100,W,1.52,221.81,200217,,,D*69

$GPRMC,153843.000,A,0010.9036,S,07829.0104,W,1.55,219.95,200217,,,D*61

$GPVTG,219.95,T,,M,1.55,N,2.88,K,D*3D

$GPVTG,217.91,T,,M,1.64,N,3.04,K,D*30

$GPGGA,153845.000,0010.9045,S,07829.0112,W,2,09,0.90,2811.7,M,13.7,M,0000,0000*59

$GPGGA,153846.000,0010.9050,S,07829.0116,W,2,09,0.90,2811.8,M,13.7,M,0000,0000*55

$GPGSA,A,3,31,10,29,14,21,18,32,25,26,,,,1.22,0.90,0.82*05

$GPRMC,153846.000,A,0010.9050,S,07829.0116,W,2.01,225.47,200217,,,D*65

$GPVTG,225.47,T,,M,2.01,N,3.72,K,D*3B

$GPVTG,226.52,T,,M,1.90,N,3.52,K,D*35

$GPGGA,153848.000,0010.9057,S,07829.0124,W,2,09,0.90,2811.8,M,13.7,M,0000,0000*5D

$GPGGA,153849.000,0010.9059,S,07829.0130,W,2,09,0.90,2811.9,M,13.7,M,0000,0000*56

$GPGSA,A,3,31,10,29,14,21,18,32,25,26,,,,1.22,0.90,0.82*05

$GPGSA,A,3,31,10,29,14,21,18,32,25,26,,,,1.22,0.90,0.82*05

$GPRMC,153850.000,A,0010.9064,S,07829.0132,W,1.90,222.87,200217,,,D*63

$GPGSV,3,1,11,21,57,187,25,51,56,270,33,18,54,040,19,31,54,250,40*75

$GPGSV,3,2,11,25,44,097,22,10,38,001,26,32,22,336,23,14,19,311,23*77

$GPGGA,153852.000,0010.9073,S,07829.0139,W,2,09,0.90,2812.0,M,13.7,M,0000,0000*57

$GPGSA,A,3,31,10,29,14,21,18,32,25,26,,,,1.22,0.90,0.82*05

$GPGSA,A,3,31,10,29,14,21,18,32,25,26,,,,1.22,0.90,0.82*05

$GPRMC,153853.000,A,0010.9076,S,07829.0143,W,1.93,226.88,200217,,,D*6D

$GPRMC,153854.000,A,0010.9078,S,07829.0148,W,1.87,232.82,200217,,,D*65

$GPVTG,232.82,T,,M,1.87,N,3.47,K,D*3F

$GPVTG,229.75,T,,M,1.81,N,3.35,K,D*3E

$GPGGA,153856.000,0010.9084,S,07829.0152,W,2,09,0.90,2812.2,M,13.7,M,0000,0000*54

$GPGSV,3,3,11,26,17,202,22,29,11,147,23,27,03,256,*44

$GPRMC,153856.000,A,0010.9084,S,07829.0152,W,1.74,227.97,200217,,,D*63

$GPRMC,153857.000,A,0010.9088,S,07829.0156,W,1.94,226.47,200217,,,D*68

$GPVTG,226.47,T,,M,1.94,N,3.59,K,D*3E

$GPVTG,233.67,T,,M,2.13,N,3.95,K,D*34

$GPGGA,153859.000,0010.9095,S,07829.0163,W,2,09,0.90,2812.3,M,13.7,M,0000,0000*58

$GPGGA,153900.000,0010.9099,S,07829.0165,W,2,09,0.90,2812.3,M,13.7,M,0000,0000*5F

$GPGSA,A,3,31,10,29,14,21,18,32,25,26,,,,1.22,0.90,0.82*05

$GPGSA,A,3,31,10,29,14,21,18,32,25,26,,,,1.22,0.90,0.82*05

$GPGSV,3,1,11,21,57,187,28,51,56,270,32,18,54,040,18,31,54,250,29*77

$GPVTG,229.71,T,,M,1.94,N,3.59,K,D*34

$GPGGA,153902.000,0010.9106,S,07829.0172,W,2,09,0.90,2812.3,M,13.7,M,0000,0000*5C

$GPGGA,153903.000,0010.9112,S,07829.0176,W,2,09,0.90,2812.3,M,13.7,M,0000,0000*5C

$GPGSA,A,3,31,10,29,14,21,18,32,25,26,,,,1.22,0.90,0.82*05

$GPGSA,A,3,31,10,29,14,21,18,32,25,26,,,,1.22,0.90,0.82*05

$GPRMC,153904.000,A,0010.9117,S,07829.0180,W,2.08,220.74,200217,,,D*63

$GPRMC,153905.000,A,0010.9121,S,07829.0185,W,2.11,221.12,200217,,,D*6B

$GPVTG,221.12,T,,M,2.11,N,3.92,K,D*30

$GPGSV,3,2,11,25,44,097,25,10,38,001,26,32,22,336,25,14,19,311,23*76

$GPGSV,3,3,11,26,17,202,26,29,11,147,25,27,03,256,*46

$GPGSA,A,3,31,10,29,14,21,18,32,25,26,,,,1.22,0.90,0.82*05

$GPRMC,153907.000,A,0010.9129,S,07829.0194,W,2.01,223.41,200217,,,D*64

$GPRMC,153908.000,A,0010.9131,S,07829.0198,W,1.79,226.81,200217,,,D*6B

$GPVTG,226.81,T,,M,1.79,N,3.31,K,D*39

$GPVTG,225.40,T,,M,1.85,N,3.42,K,D*30

$GPGGA,153910.000,0010.9137,S,07829.0206,W,2,09,0.90,2812.3,M,13.7,M,0000,0000*5D

$GPGGA,153911.000,0010.9140,S,07829.0211,W,2,09,0.90,2812.3,M,13.7,M,0000,0000*5A

$GPGSA,A,3,31,10,29,14,21,18,32,25,26,,,,1.22,0.90,0.82*05

$GPRMC,153911.000,A,0010.9140,S,07829.0211,W,1.61,227.64,200217,,,D*64

$GPVTG,227.64,T,,M,1.61,N,2.98,K,D*38

$GPVTG,228.25,T,,M,1.50,N,2.79,K,D*3F

$GPGGA,153913.000,0010.9144,S,07829.0220,W,2,09,0.90,2812.3,M,13.7,M,0000,0000*5E

$GPGGA,153914.000,0010.9145,S,07829.0224,W,2,09,0.90,2812.3,M,13.7,M,0000,0000*5C

$GPGSA,A,3,31,10,29,14,21,18,32,25,26,,,,1.22,0.90,0.82*05

$GPGSA,A,3,31,10,29,14,21,18,32,25,26,,,,1.22,0.90,0.82*05

$GPRMC,153915.000,A,0010.9146,S,07829.0225,W,1.24,248.63,200217,,,D*6E

$GPGSV,3,1,11,21,57,187,34,51,56,270,34,18,54,041,23,31,54,250,38*75

$GPGSV,3,2,11,25,44,097,25,10,38,001,35,32,22,336,20,14,19,311,26*74

$GPGGA,153917.000,0010.9151,S,07829.0232,W,2,09,0.90,2812.2,M,13.7,M,0000,0000*5C

$GPGSA,A,3,31,10,29,14,21,18,32,25,26,,,,1.22,0.90,0.82*05

$GPGSA,A,3,31,10,29,14,21,18,32,25,26,,,,1.22,0.90,0.82*05

$GPRMC,153918.000,A,0010.9156,S,07829.0240,W,1.84,244.26,200217,,,D*66

$GPRMC,153919.000,A,0010.9159,S,07829.0245,W,1.84,240.35,200217,,,D*6B

$GPVTG,240.35,T,,M,1.84,N,3.42,K,D*30

$GPVTG,250.64,T,,M,1.99,N,3.69,K,D*30

$GPGGA,153921.000,0010.9164,S,07829.0257,W,2,09,0.90,2811.9,M,13.7,M,0000,0000*54

$GPGSV,3,3,11,26,17,202,30,29,11,147,37,27,03,256,*42

$GPRMC,153921.000,A,0010.9164,S,07829.0257,W,1.87,248.97,200217,,,D*6E

$GPRMC,153922.000,A,0010.9166,S,07829.0263,W,1.71,241.89,200217,,,D*67

$GPVTG,241.89,T,,M,1.71,N,3.17,K,D*3C
